{"type": "FeatureCollection", "crs": {"type": "name", "properties": {"name": "urn:ogc:def:crs:OGC:1.3:CRS84"}}, "features": [{"type": "Feature", "properties": {"name": "Brookings", "id": "46011", "FIPS": "46011", "FIPS State": 46, "ST": "SD", "County": "Brookings County,SD", "State": "South Dakota"}, "geometry": {"type": "Polygon", "coordinates": [[[-96.451017, 44.54201], [-96.451017, 44.196962], [-96.648187, 44.196962], [-96.889173, 44.196962], [-97.130158, 44.196962], [-97.130158, 44.54201], [-96.883696, 44.54201], [-96.451017, 44.54201]]]}}, {"type": "Feature", "properties": {"name": "Washington", "id": "40147", "FIPS": "40147", "FIPS State": 40, "ST": "OK", "County": "Washington County,OK", "State": "Oklahoma"}, "geometry": {"type": "Polygon", "coordinates": [[[-95.9088, 37.000263], [-95.788308, 37.000263], [-95.810215, 36.594969], [-95.810215, 36.425184], [-95.919754, 36.425184], [-96.001908, 36.425184], [-96.001908, 37.000263], [-95.96357, 37.000263], [-95.9088, 37.000263]]]}}, {"type": "Feature", "properties": {"name": "Mahaska", "id": "19123", "FIPS": "19123", "FIPS State": 19, "ST": "IA", "County": "Mahaska County,IA", "State": "Iowa"}, "geometry": {"type": "Polygon", "coordinates": [[[-92.458328, 41.507785], [-92.414512, 41.507785], [-92.409035, 41.162737], [-92.639067, 41.162737], [-92.655498, 41.162737], [-92.869098, 41.162737], [-92.869098, 41.507785], [-92.754083, 41.507785], [-92.458328, 41.507785]]]}}, {"type": "Feature", "properties": {"name": "Douglas", "id": "46043", "FIPS": "46043", "FIPS State": 46, "ST": "SD", "County": "Douglas County,SD", "State": "South Dakota"}, "geometry": {"type": "Polygon", "coordinates": [[[-98.685609, 43.501391], [-98.318654, 43.501391], [-98.116007, 43.495914], [-98.11053, 43.194682], [-98.707517, 43.501391], [-98.685609, 43.501391]]]}}, {"type": "Feature", "properties": {"name": "Miami", "id": "20121", "FIPS": "20121", "FIPS State": 20, "ST": "KS", "County": "Miami County,KS", "State": "Kansas"}, "geometry": {"type": "Polygon", "coordinates": [[[-94.966767, 38.736453], [-94.610765, 38.736453], [-94.610765, 38.479037], [-94.610765, 38.391406], [-95.010582, 38.391406], [-95.065351, 38.391406], [-95.054398, 38.736453], [-94.966767, 38.736453]]]}}, {"type": "Feature", "properties": {"name": "Mitchell", "id": "20123", "FIPS": "20123", "FIPS State": 20, "ST": "KS", "County": "Mitchell County,KS", "State": "Kansas"}, "geometry": {"type": "Polygon", "coordinates": [[[-98.488439, 39.568948], [-97.929791, 39.568948], [-97.929791, 39.306055], [-97.929791, 39.218424], [-98.477485, 39.218424], [-98.488439, 39.218424], [-98.488439, 39.568948]]]}}, {"type": "Feature", "properties": {"name": "Keokuk", "id": "19107", "FIPS": "19107", "FIPS State": 19, "ST": "IA", "County": "Keokuk County,IA", "State": "Iowa"}, "geometry": {"type": "Polygon", "coordinates": [[[-91.943495, 41.513262], [-91.943495, 41.162737], [-92.179004, 41.162737], [-92.261158, 41.162737], [-92.409035, 41.162737], [-92.414512, 41.507785], [-92.299497, 41.507785], [-91.943495, 41.513262]]]}}, {"type": "Feature", "properties": {"name": "Gadsden", "id": "12039", "FIPS": "12039", "FIPS State": 12, "ST": "FL", "County": "Gadsden County,FL", "State": "Florida"}, "geometry": {"type": "Polygon", "coordinates": [[[-84.867289, 30.712735], [-84.861812, 30.712735], [-84.379841, 30.690827], [-84.281256, 30.685351], [-84.648211, 30.389596], [-84.933012, 30.608673], [-84.867289, 30.712735]]]}}, {"type": "Feature", "properties": {"name": "Pitkin", "id": "08097", "FIPS": "08097", "FIPS State": 8, "ST": "CO", "County": "Pitkin County,CO", "State": "Colorado"}, "geometry": {"type": "Polygon", "coordinates": [[[-107.04342, 39.366301], [-106.424526, 39.360824], [-106.57788, 39.059592], [-106.599788, 38.999346], [-107.393944, 39.256762], [-107.432283, 39.366301], [-107.11462, 39.366301], [-107.04342, 39.366301]]]}}, {"type": "Feature", "properties": {"name": "Okmulgee", "id": "40111", "FIPS": "40111", "FIPS State": 40, "ST": "OK", "County": "Okmulgee County,OK", "State": "Oklahoma"}, "geometry": {"type": "Polygon", "coordinates": [[[-96.138832, 35.855582], [-96.03477, 35.855582], [-95.821169, 35.855582], [-95.7664, 35.855582], [-95.71163, 35.554351], [-95.980001, 35.379088], [-96.193601, 35.636505], [-96.138832, 35.855582]]]}}, {"type": "Feature", "properties": {"name": "Meade", "id": "21163", "FIPS": "21163", "FIPS State": 21, "ST": "KY", "County": "Meade County,KY", "State": "Kentucky"}, "geometry": {"type": "Polygon", "coordinates": [[[-86.307724, 38.166851], [-86.001015, 37.997066], [-86.148893, 37.799896], [-86.488463, 38.046358], [-86.461078, 38.117559], [-86.307724, 38.166851]]]}}, {"type": "Feature", "properties": {"name": "Tazewell", "id": "51185", "FIPS": "51185", "FIPS State": 51, "ST": "VA", "County": "Tazewell County,VA", "State": "Virginia"}, "geometry": {"type": "Polygon", "coordinates": [[[-81.373001, 37.323402], [-81.362047, 37.339833], [-81.225123, 37.235771], [-81.438724, 37.011217], [-81.477062, 36.989309], [-81.778294, 36.956447], [-81.898787, 37.142663], [-81.739956, 37.241248], [-81.373001, 37.323402]]]}}, {"type": "Feature", "properties": {"name": "Perry", "id": "21193", "FIPS": "21193", "FIPS State": 21, "ST": "KY", "County": "Perry County,KY", "State": "Kentucky"}, "geometry": {"type": "Polygon", "coordinates": [[[-83.125621, 37.405556], [-82.999652, 37.197433], [-83.120145, 37.000263], [-83.180391, 37.022171], [-83.509007, 37.235771], [-83.525438, 37.257679], [-83.547346, 37.334356], [-83.125621, 37.405556]]]}}, {"type": "Feature", "properties": {"name": "Vance", "id": "37181", "FIPS": "37181", "FIPS State": 37, "ST": "NC", "County": "Vance County,NC", "State": "North Carolina"}, "geometry": {"type": "Polygon", "coordinates": [[[-78.322345, 36.545677], [-78.305914, 36.266353], [-78.497607, 36.173245], [-78.459268, 36.5402], [-78.322345, 36.545677]]]}}, {"type": "Feature", "properties": {"name": "Plumas", "id": "06063", "FIPS": "06063", "FIPS State": 6, "ST": "CA", "County": "Plumas County,CA", "State": "California"}, "geometry": {"type": "Polygon", "coordinates": [[[-121.119157, 40.445258], [-120.209985, 40.08378], [-120.149738, 39.705871], [-121.009618, 39.640148], [-121.075341, 39.596333], [-121.436819, 40.149503], [-121.497066, 40.445258], [-121.327281, 40.445258], [-121.119157, 40.445258]]]}}, {"type": "Feature", "properties": {"name": "Russell", "id": "21207", "FIPS": "21207", "FIPS State": 21, "ST": "KY", "County": "Russell County,KY", "State": "Kentucky"}, "geometry": {"type": "Polygon", "coordinates": [[[-85.042551, 37.186479], [-84.90015, 37.115279], [-84.834427, 36.994786], [-85.064458, 36.857862], [-85.217813, 36.852385], [-85.234244, 36.923586], [-85.042551, 37.186479]]]}}, {"type": "Feature", "properties": {"name": "Rowan", "id": "21205", "FIPS": "21205", "FIPS State": 21, "ST": "KY", "County": "Rowan County,KY", "State": "Kentucky"}, "geometry": {"type": "Polygon", "coordinates": [[[-83.410422, 38.396883], [-83.339222, 38.320205], [-83.246114, 38.194236], [-83.262545, 38.117559], [-83.355653, 38.068266], [-83.43233, 38.035405], [-83.498053, 38.051835], [-83.634977, 38.188759], [-83.454238, 38.380452], [-83.410422, 38.396883]]]}}, {"type": "Feature", "properties": {"name": "Bastrop", "id": "48021", "FIPS": "48021", "FIPS State": 48, "ST": "TX", "County": "Bastrop County,TX", "State": "Texas"}, "geometry": {"type": "Polygon", "coordinates": [[[-97.332805, 30.40055], [-97.026096, 30.050025], [-97.316374, 29.787132], [-97.650467, 30.071933], [-97.371143, 30.41698], [-97.332805, 30.40055]]]}}, {"type": "Feature", "properties": {"name": "Pender", "id": "37141", "FIPS": "37141", "FIPS State": 37, "ST": "NC", "County": "Pender County,NC", "State": "North Carolina"}, "geometry": {"type": "Polygon", "coordinates": [[[-78.015636, 34.732809], [-77.681543, 34.721856], [-77.517235, 34.442532], [-77.714404, 34.294654], [-77.960867, 34.376808], [-78.032067, 34.332993], [-78.125175, 34.365854], [-78.163514, 34.354901], [-78.256622, 34.398716], [-78.256622, 34.55207], [-78.114221, 34.721856], [-78.015636, 34.732809]]]}}, {"type": "Feature", "properties": {"name": "Oneida", "id": "55085", "FIPS": "55085", "FIPS State": 55, "ST": "WI", "County": "Oneida County,WI", "State": "Wisconsin"}, "geometry": {"type": "Polygon", "coordinates": [[[-89.298133, 45.872906], [-89.046194, 45.894814], [-89.046194, 45.462136], [-89.237887, 45.467613], [-89.424103, 45.467613], [-90.042997, 45.555244], [-90.042997, 45.894814], [-89.298133, 45.872906]]]}}, {"type": "Feature", "properties": {"name": "Haskell", "id": "48207", "FIPS": "48207", "FIPS State": 48, "ST": "TX", "County": "Haskell County,TX", "State": "Texas"}, "geometry": {"type": "Polygon", "coordinates": [[[-99.518104, 33.396436], [-99.474288, 33.396436], [-99.468812, 32.958281], [-99.611212, 32.958281], [-99.989121, 32.958281], [-99.989121, 33.396436], [-99.518104, 33.396436]]]}}, {"type": "Feature", "properties": {"name": "Howard", "id": "48227", "FIPS": "48227", "FIPS State": 48, "ST": "TX", "County": "Howard County,TX", "State": "Texas"}, "geometry": {"type": "Polygon", "coordinates": [[[-101.17214, 32.525602], [-101.183094, 32.087447], [-101.265248, 32.087447], [-101.692449, 32.087447], [-101.686972, 32.525602], [-101.17214, 32.525602]]]}}, {"type": "Feature", "properties": {"name": "Parke", "id": "18121", "FIPS": "18121", "FIPS State": 18, "ST": "IN", "County": "Parke County,IN", "State": "Indiana"}, "geometry": {"type": "Polygon", "coordinates": [[[-87.205942, 39.952334], [-87.090926, 39.952334], [-87.008772, 39.864703], [-87.014249, 39.607286], [-87.200465, 39.607286], [-87.331912, 39.607286], [-87.381204, 39.607286], [-87.419543, 39.952334], [-87.205942, 39.952334]]]}}, {"type": "Feature", "properties": {"name": "Avoyelles", "id": "22009", "FIPS": "22009", "FIPS State": 22, "ST": "LA", "County": "Avoyelles County,LA", "State": "Louisiana"}, "geometry": {"type": "Polygon", "coordinates": [[[-92.085896, 31.337106], [-92.009219, 31.326153], [-91.833957, 31.265906], [-91.724418, 31.046829], [-91.751803, 31.019444], [-91.762756, 31.00849], [-91.817526, 30.849659], [-92.085896, 30.849659], [-92.211866, 30.849659], [-92.283066, 30.964674], [-92.085896, 31.337106]]]}}, {"type": "Feature", "properties": {"name": "Dougherty", "id": "13095", "FIPS": "13095", "FIPS State": 13, "ST": "GA", "County": "Dougherty County,GA", "State": "Georgia"}, "geometry": {"type": "Polygon", "coordinates": [[[-84.018363, 31.649292], [-83.996455, 31.441168], [-84.062178, 31.441168], [-84.138855, 31.441168], [-84.429133, 31.435691], [-84.451041, 31.621907], [-84.297687, 31.621907], [-84.018363, 31.649292]]]}}, {"type": "Feature", "properties": {"name": "Burleson", "id": "48051", "FIPS": "48051", "FIPS State": 48, "ST": "TX", "County": "Burleson County,TX", "State": "Texas"}, "geometry": {"type": "Polygon", "coordinates": [[[-96.620803, 30.729166], [-96.566033, 30.696304], [-96.297663, 30.378642], [-96.64271, 30.296488], [-96.96585, 30.559381], [-96.620803, 30.729166]]]}}, {"type": "Feature", "properties": {"name": "Iberia", "id": "22045", "FIPS": "22045", "FIPS State": 22, "ST": "LA", "County": "Iberia County,LA", "State": "Louisiana"}, "geometry": {"type": "Polygon", "coordinates": [[[-91.724418, 30.121226], [-91.368417, 30.060979], [-91.226016, 30.022641], [-91.253401, 29.973348], [-91.472479, 29.956917], [-91.532725, 29.951441], [-91.877772, 29.721409], [-91.97088, 29.803563], [-91.965403, 30.033595], [-91.948972, 30.071933], [-91.724418, 30.121226]]]}}, {"type": "Feature", "properties": {"name": "Grand Forks", "id": "38035", "FIPS": "38035", "FIPS State": 38, "ST": "ND", "County": "Grand Forks County,ND", "State": "North Dakota"}, "geometry": {"type": "Polygon", "coordinates": [[[-97.825729, 48.195129], [-97.141112, 48.195129], [-97.146589, 48.173221], [-96.889173, 47.67482], [-97.475205, 47.669343], [-97.880499, 47.67482], [-97.902407, 48.195129], [-97.825729, 48.195129]]]}}, {"type": "Feature", "properties": {"name": "Scotland", "id": "37165", "FIPS": "37165", "FIPS State": 37, "ST": "NC", "County": "Scotland County,NC", "State": "North Carolina"}, "geometry": {"type": "Polygon", "coordinates": [[[-79.461548, 35.044995], [-79.346533, 34.836871], [-79.461548, 34.628748], [-79.686103, 34.80401], [-79.461548, 35.044995]]]}}, {"type": "Feature", "properties": {"name": "Stokes", "id": "37169", "FIPS": "37169", "FIPS State": 37, "ST": "NC", "County": "Stokes County,NC", "State": "North Carolina"}, "geometry": {"type": "Polygon", "coordinates": [[[-80.441921, 36.551154], [-80.053058, 36.5402], [-80.025673, 36.5402], [-80.036627, 36.255399], [-80.036627, 36.255399], [-80.452875, 36.260876], [-80.441921, 36.551154]]]}}, {"type": "Feature", "properties": {"name": "Shelby", "id": "18145", "FIPS": "18145", "FIPS State": 18, "ST": "IN", "County": "Shelby County,IN", "State": "Indiana"}, "geometry": {"type": "Polygon", "coordinates": [[[-85.63406, 39.700394], [-85.628583, 39.453932], [-85.683353, 39.34987], [-85.798368, 39.34987], [-85.951723, 39.34987], [-85.951723, 39.640148], [-85.951723, 39.694917], [-85.63406, 39.700394]]]}}, {"type": "Feature", "properties": {"name": "Colquitt", "id": "13071", "FIPS": "13071", "FIPS State": 13, "ST": "GA", "County": "Colquitt County,GA", "State": "Georgia"}, "geometry": {"type": "Polygon", "coordinates": [[[-83.974547, 31.337106], [-83.651408, 31.331629], [-83.514484, 31.326153], [-83.574731, 31.07969], [-83.739039, 31.035875], [-84.001932, 31.07969], [-84.001932, 31.337106], [-83.974547, 31.337106]]]}}, {"type": "Feature", "properties": {"name": "Ashe", "id": "37009", "FIPS": "37009", "FIPS State": 37, "ST": "NC", "County": "Ashe County,NC", "State": "North Carolina"}, "geometry": {"type": "Polygon", "coordinates": [[[-81.351093, 36.573061], [-81.252508, 36.364938], [-81.477062, 36.238968], [-81.734479, 36.392322], [-81.679709, 36.589492], [-81.351093, 36.573061]]]}}, {"type": "Feature", "properties": {"name": "Gilchrist", "id": "12041", "FIPS": "12041", "FIPS State": 12, "ST": "FL", "County": "Gilchrist County,FL", "State": "Florida"}, "geometry": {"type": "Polygon", "coordinates": [[[-82.879159, 29.885717], [-82.802482, 29.93501], [-82.660082, 29.830948], [-82.654605, 29.562578], [-82.873682, 29.589962], [-82.939406, 29.589962], [-82.922975, 29.825471], [-82.917498, 29.825471], [-82.906544, 29.825471], [-82.879159, 29.885717]]]}}, {"type": "Feature", "properties": {"name": "Jefferson", "id": "17081", "FIPS": "17081", "FIPS State": 17, "ST": "IL", "County": "Jefferson County,IL", "State": "Illinois"}, "geometry": {"type": "Polygon", "coordinates": [[[-88.914747, 38.479037], [-88.701147, 38.47356], [-88.701147, 38.254482], [-88.706624, 38.123036], [-88.816163, 38.128512], [-89.128348, 38.123036], [-89.144779, 38.210667], [-89.144779, 38.47356], [-88.914747, 38.479037]]]}}, {"type": "Feature", "properties": {"name": "Panola", "id": "28107", "FIPS": "28107", "FIPS State": 28, "ST": "MS", "County": "Panola County,MS", "State": "Mississippi"}, "geometry": {"type": "Polygon", "coordinates": [[[-90.097767, 34.55207], [-89.719858, 34.55207], [-89.719858, 34.190592], [-89.933458, 34.163208], [-90.136105, 34.157731], [-90.196352, 34.508255], [-90.196352, 34.55207], [-90.097767, 34.55207]]]}}, {"type": "Feature", "properties": {"name": "Pearl River", "id": "28109", "FIPS": "28109", "FIPS State": 28, "ST": "MS", "County": "Pearl River County,MS", "State": "Mississippi"}, "geometry": {"type": "Polygon", "coordinates": [[[-89.599365, 31.003013], [-89.347426, 31.00849], [-89.341949, 30.909905], [-89.341949, 30.647012], [-89.495303, 30.647012], [-89.686996, 30.460796], [-89.84035, 30.663443], [-89.730812, 31.003013], [-89.654134, 31.003013], [-89.599365, 31.003013]]]}}, {"type": "Feature", "properties": {"name": "Mecklenburg", "id": "51117", "FIPS": "51117", "FIPS State": 51, "ST": "VA", "County": "Mecklenburg County,VA", "State": "Virginia"}, "geometry": {"type": "Polygon", "coordinates": [[[-78.475699, 36.885247], [-78.02659, 36.775708], [-78.048498, 36.545677], [-78.322345, 36.545677], [-78.459268, 36.5402], [-78.470222, 36.5402], [-78.733115, 36.5402], [-78.650961, 36.699031], [-78.49213, 36.890724], [-78.475699, 36.885247]]]}}, {"type": "Feature", "properties": {"name": "Henry", "id": "17073", "FIPS": "17073", "FIPS State": 17, "ST": "IL", "County": "Henry County,IL", "State": "Illinois"}, "geometry": {"type": "Polygon", "coordinates": [[[-90.179921, 41.584462], [-89.862258, 41.584462], [-89.856781, 41.233938], [-89.982751, 41.151784], [-90.207305, 41.151784], [-90.437337, 41.151784], [-90.43186, 41.327046], [-90.185398, 41.584462], [-90.179921, 41.584462]]]}}, {"type": "Feature", "properties": {"name": "San Patricio", "id": "48409", "FIPS": "48409", "FIPS State": 48, "ST": "TX", "County": "San Patricio County,TX", "State": "Texas"}, "geometry": {"type": "Polygon", "coordinates": [[[-97.820252, 28.176912], [-97.540929, 28.165958], [-97.261605, 28.078327], [-97.135635, 27.903065], [-97.365666, 27.848295], [-97.803822, 27.979742], [-97.798345, 27.996173], [-97.880499, 28.056419], [-97.820252, 28.176912]]]}}, {"type": "Feature", "properties": {"name": "Richmond", "id": "37153", "FIPS": "37153", "FIPS State": 37, "ST": "NC", "County": "Richmond County,NC", "State": "North Carolina"}, "geometry": {"type": "Polygon", "coordinates": [[[-79.729918, 35.176442], [-79.614903, 35.165488], [-79.461548, 35.044995], [-79.686103, 34.80401], [-79.927088, 34.80401], [-80.074966, 35.14358], [-79.729918, 35.176442]]]}}, {"type": "Feature", "properties": {"name": "Prowers", "id": "08099", "FIPS": "08099", "FIPS State": 8, "ST": "CO", "County": "Prowers County,CO", "State": "Colorado"}, "geometry": {"type": "Polygon", "coordinates": [[[-102.212759, 38.265436], [-102.042974, 38.270913], [-102.042974, 38.259959], [-102.042974, 37.73965], [-102.042974, 37.646542], [-102.749499, 37.641065], [-102.744022, 38.265436], [-102.212759, 38.265436]]]}}, {"type": "Feature", "properties": {"name": "Delaware", "id": "36025", "FIPS": "36025", "FIPS State": 36, "ST": "NY", "County": "Delaware County,NY", "State": "New York"}, "geometry": {"type": "Polygon", "coordinates": [[[-74.844488, 42.510065], [-74.713041, 42.515542], [-74.444671, 42.35671], [-74.450148, 42.170494], [-74.778764, 42.01714], [-74.789718, 42.011663], [-75.145719, 41.852832], [-75.35932, 42.000709], [-75.419566, 42.192402], [-75.414089, 42.312895], [-74.844488, 42.510065]]]}}, {"type": "Feature", "properties": {"name": "Cattaraugus", "id": "36009", "FIPS": "36009", "FIPS State": 36, "ST": "NY", "County": "Cattaraugus County,NY", "State": "New York"}, "geometry": {"type": "Polygon", "coordinates": [[[-79.001485, 42.531973], [-78.464745, 42.537449], [-78.311391, 42.521019], [-78.305914, 42.000709], [-78.919331, 42.000709], [-79.061732, 42.000709], [-79.061732, 42.537449], [-79.001485, 42.531973]]]}}, {"type": "Feature", "properties": {"name": "Iroquois", "id": "17075", "FIPS": "17075", "FIPS State": 17, "ST": "IL", "County": "Iroquois County,IL", "State": "Illinois"}, "geometry": {"type": "Polygon", "coordinates": [[[-87.523605, 41.009383], [-87.523605, 40.735536], [-87.529082, 40.489074], [-87.841267, 40.489074], [-87.934375, 40.483597], [-88.131545, 40.998429], [-88.131545, 40.998429], [-87.523605, 41.009383]]]}}, {"type": "Feature", "properties": {"name": "Coos", "id": "33007", "FIPS": "33007", "FIPS State": 33, "ST": "NH", "County": "Coos County,NH", "State": "New Hampshire"}, "geometry": {"type": "Polygon", "coordinates": [[[-71.08183, 45.303304], [-71.010629, 44.284593], [-71.415923, 44.213393], [-71.766447, 44.405086], [-71.503554, 45.013027], [-71.08183, 45.303304]]]}}, {"type": "Feature", "properties": {"name": "Ochiltree", "id": "48357", "FIPS": "48357", "FIPS State": 48, "ST": "TX", "County": "Ochiltree County,TX", "State": "Texas"}, "geometry": {"type": "Polygon", "coordinates": [[[-100.805185, 36.501861], [-100.547769, 36.501861], [-100.547769, 36.058229], [-100.947585, 36.058229], [-101.084509, 36.058229], [-101.084509, 36.501861], [-100.953062, 36.501861], [-100.805185, 36.501861]]]}}, {"type": "Feature", "properties": {"name": "Baker", "id": "41001", "FIPS": "41001", "FIPS State": 41, "ST": "OR", "County": "Baker County,OR", "State": "Oregon"}, "geometry": {"type": "Polygon", "coordinates": [[[-117.778223, 44.991119], [-117.268868, 45.07875], [-116.78142, 45.07875], [-116.901913, 44.843241], [-117.219575, 44.301024], [-117.608438, 44.443425], [-118.232809, 44.257209], [-118.495702, 44.257209], [-118.243763, 44.958257], [-117.778223, 44.991119]]]}}, {"type": "Feature", "properties": {"name": "Yates", "id": "36123", "FIPS": "36123", "FIPS State": 36, "ST": "NY", "County": "Yates County,NY", "State": "New York"}, "geometry": {"type": "Polygon", "coordinates": [[[-76.975017, 42.762004], [-76.892863, 42.542926], [-77.106464, 42.48268], [-77.36388, 42.575788], [-76.975017, 42.762004]]]}}, {"type": "Feature", "properties": {"name": "Jefferson", "id": "42065", "FIPS": "42065", "FIPS State": 42, "ST": "PA", "County": "Jefferson County,PA", "State": "Pennsylvania"}, "geometry": {"type": "Polygon", "coordinates": [[[-78.95767, 41.370861], [-78.711208, 41.201076], [-78.804316, 40.905321], [-79.215086, 40.910798], [-79.215086, 41.053199], [-79.209609, 41.332523], [-79.094593, 41.343476], [-78.95767, 41.370861]]]}}, {"type": "Feature", "properties": {"name": "Kendall", "id": "48259", "FIPS": "48259", "FIPS State": 48, "ST": "TX", "County": "Kendall County,TX", "State": "Texas"}, "geometry": {"type": "Polygon", "coordinates": [[[-98.921118, 30.137656], [-98.587024, 30.137656], [-98.411762, 29.93501], [-98.64727, 29.743317], [-98.778717, 29.721409], [-98.915641, 29.781655], [-98.921118, 30.137656]]]}}, {"type": "Feature", "properties": {"name": "Wayne", "id": "42127", "FIPS": "42127", "FIPS State": 42, "ST": "PA", "County": "Wayne County,PA", "State": "Pennsylvania"}, "geometry": {"type": "Polygon", "coordinates": [[[-75.479813, 42.000709], [-75.35932, 42.000709], [-75.145719, 41.852832], [-75.069042, 41.600893], [-75.35932, 41.239415], [-75.507197, 41.233938], [-75.463382, 41.639231], [-75.48529, 42.000709], [-75.479813, 42.000709]]]}}, {"type": "Feature", "properties": {"name": "Chester", "id": "45023", "FIPS": "45023", "FIPS State": 45, "ST": "SC", "County": "Chester County,SC", "State": "South Carolina"}, "geometry": {"type": "Polygon", "coordinates": [[[-81.28537, 34.820441], [-80.896507, 34.820441], [-80.880076, 34.541117], [-81.416816, 34.573978], [-81.422293, 34.573978], [-81.477062, 34.820441], [-81.28537, 34.820441]]]}}, {"type": "Feature", "properties": {"name": "Greenwood", "id": "45047", "FIPS": "45047", "FIPS State": 45, "ST": "SC", "County": "Greenwood County,SC", "State": "South Carolina"}, "geometry": {"type": "Polygon", "coordinates": [[[-82.243834, 34.40967], [-81.942602, 34.201546], [-81.871402, 34.135823], [-82.008326, 33.960561], [-82.046664, 33.955084], [-82.325988, 34.064623], [-82.243834, 34.40967]]]}}, {"type": "Feature", "properties": {"name": "Schuyler", "id": "36097", "FIPS": "36097", "FIPS State": 36, "ST": "NY", "County": "Schuyler County,NY", "State": "New York"}, "geometry": {"type": "Polygon", "coordinates": [[[-76.70117, 42.548403], [-76.695693, 42.548403], [-76.619016, 42.28551], [-76.766894, 42.296464], [-76.964064, 42.280033], [-77.106464, 42.48268], [-76.892863, 42.542926], [-76.70117, 42.548403]]]}}, {"type": "Feature", "properties": {"name": "Runnels", "id": "48399", "FIPS": "48399", "FIPS State": 48, "ST": "TX", "County": "Runnels County,TX", "State": "Texas"}, "geometry": {"type": "Polygon", "coordinates": [[[-100.054844, 32.08197], [-99.715274, 32.08197], [-99.720751, 31.578092], [-99.726228, 31.578092], [-100.109614, 31.578092], [-100.235583, 31.693108], [-100.235583, 32.08197], [-100.153429, 32.08197], [-100.054844, 32.08197]]]}}, {"type": "Feature", "properties": {"name": "Mills", "id": "48333", "FIPS": "48333", "FIPS State": 48, "ST": "TX", "County": "Mills County,TX", "State": "Texas"}, "geometry": {"type": "Polygon", "coordinates": [[[-98.669178, 31.698584], [-98.461055, 31.682154], [-98.269362, 31.413784], [-98.565116, 31.233045], [-98.992318, 31.484984], [-98.669178, 31.698584]]]}}, {"type": "Feature", "properties": {"name": "Catoosa", "id": "13047", "FIPS": "13047", "FIPS State": 13, "ST": "GA", "County": "Catoosa County,GA", "State": "Georgia"}, "geometry": {"type": "Polygon", "coordinates": [[[-85.267105, 34.984749], [-84.982304, 34.990226], [-85.146612, 34.765671], [-85.267105, 34.984749]]]}}, {"type": "Feature", "properties": {"name": "Hertford", "id": "37091", "FIPS": "37091", "FIPS State": 37, "ST": "NC", "County": "Hertford County,NC", "State": "North Carolina"}, "geometry": {"type": "Polygon", "coordinates": [[[-76.914771, 36.545677], [-76.695693, 36.293737], [-76.706647, 36.244445], [-77.210526, 36.244445], [-77.16671, 36.545677], [-76.914771, 36.545677]]]}}, {"type": "Feature", "properties": {"name": "Routt", "id": "08107", "FIPS": "08107", "FIPS State": 8, "ST": "CO", "County": "Routt County,CO", "State": "Colorado"}, "geometry": {"type": "Polygon", "coordinates": [[[-107.317267, 41.003906], [-106.857204, 41.003906], [-106.654557, 40.445258], [-106.627173, 39.924949], [-107.032466, 39.919472], [-107.037943, 40.089257], [-107.109143, 40.226181], [-107.43776, 40.220704], [-107.317267, 41.003906]]]}}, {"type": "Feature", "properties": {"name": "Pittsylvania", "id": "51143", "FIPS": "51143", "FIPS State": 51, "ST": "VA", "County": "Pittsylvania County,VA", "State": "Virginia"}, "geometry": {"type": "Polygon", "coordinates": [[[-79.302717, 37.109802], [-79.094593, 37.060509], [-79.220563, 36.5402], [-79.341056, 36.5402], [-79.401302, 36.638785], [-79.472502, 36.5402], [-79.510841, 36.5402], [-79.713488, 36.5402], [-79.642287, 36.857862], [-79.592995, 37.044078], [-79.445118, 37.055032], [-79.302717, 37.109802]]]}}, {"type": "Feature", "properties": {"name": "Lee", "id": "17103", "FIPS": "17103", "FIPS State": 17, "ST": "IL", "County": "Lee County,IL", "State": "Illinois"}, "geometry": {"type": "Polygon", "coordinates": [[[-89.544596, 41.902124], [-88.942132, 41.891171], [-88.936655, 41.628277], [-89.166687, 41.584462], [-89.254318, 41.584462], [-89.632227, 41.584462], [-89.632227, 41.902124], [-89.544596, 41.902124]]]}}, {"type": "Feature", "properties": {"name": "Valencia", "id": "35061", "FIPS": "35061", "FIPS State": 35, "ST": "NM", "County": "Valencia County,NM", "State": "New Mexico"}, "geometry": {"type": "Polygon", "coordinates": [[[-107.196774, 34.957364], [-107.065328, 34.957364], [-106.413572, 34.869733], [-106.419049, 34.442532], [-107.202251, 34.579455], [-107.196774, 34.957364]]]}}, {"type": "Feature", "properties": {"name": "Calaveras", "id": "06009", "FIPS": "06009", "FIPS State": 6, "ST": "CA", "County": "Calaveras County,CA", "State": "California"}, "geometry": {"type": "Polygon", "coordinates": [[[-120.073061, 38.506421], [-120.018292, 38.435221], [-120.045677, 38.424267], [-120.653617, 37.832758], [-120.927464, 38.07922], [-120.993187, 38.227097], [-120.073061, 38.511898], [-120.073061, 38.506421]]]}}, {"type": "Feature", "properties": {"name": "Umatilla", "id": "41059", "FIPS": "41059", "FIPS State": 41, "ST": "OR", "County": "Umatilla County,OR", "State": "Oregon"}, "geometry": {"type": "Polygon", "coordinates": [[[-118.58881, 45.998876], [-117.997301, 45.998876], [-117.975393, 45.998876], [-117.975393, 45.861952], [-118.117793, 45.47309], [-118.698349, 45.34712], [-118.51761, 44.996596], [-118.676441, 44.996596], [-119.163889, 44.996596], [-119.147458, 45.516905], [-119.432259, 45.916722], [-118.988627, 45.998876], [-118.58881, 45.998876]]]}}, {"type": "Feature", "properties": {"name": "Taos", "id": "35055", "FIPS": "35055", "FIPS State": 35, "ST": "NM", "County": "Taos County,NM", "State": "New Mexico"}, "geometry": {"type": "Polygon", "coordinates": [[[-105.219599, 36.994786], [-105.340092, 36.260876], [-105.531785, 36.014414], [-105.958986, 36.353984], [-106.008278, 36.994786], [-105.718001, 36.994786], [-105.219599, 36.994786]]]}}, {"type": "Feature", "properties": {"name": "Franklin", "id": "16041", "FIPS": "16041", "FIPS State": 16, "ST": "ID", "County": "Franklin County,ID", "State": "Idaho"}, "geometry": {"type": "Polygon", "coordinates": [[[-111.835743, 42.416957], [-111.600234, 42.416957], [-111.507126, 42.000709], [-112.10959, 41.995232], [-112.126021, 42.28551], [-111.874081, 42.416957], [-111.835743, 42.416957]]]}}, {"type": "Feature", "properties": {"name": "Val Verde", "id": "48465", "FIPS": "48465", "FIPS State": 48, "ST": "TX", "County": "Val Verde County,TX", "State": "Texas"}, "geometry": {"type": "Polygon", "coordinates": [[[-101.544572, 30.285534], [-100.958539, 30.285534], [-100.701123, 30.291011], [-100.701123, 29.622824], [-100.794231, 29.239438], [-101.413125, 29.754271], [-101.76365, 29.781655], [-101.758173, 30.285534], [-101.544572, 30.285534]]]}}, {"type": "Feature", "properties": {"name": "Tehama", "id": "06103", "FIPS": "06103", "FIPS State": 6, "ST": "CA", "County": "Tehama County,CA", "State": "California"}, "geometry": {"type": "Polygon", "coordinates": [[[-121.497066, 40.445258], [-121.436819, 40.149503], [-121.584697, 40.100211], [-122.04476, 39.798979], [-122.937501, 39.798979], [-122.932024, 39.979718], [-123.063471, 40.286427], [-121.497066, 40.445258]]]}}, {"type": "Feature", "properties": {"name": "Bowie", "id": "48037", "FIPS": "48037", "FIPS State": 48, "ST": "TX", "County": "Bowie County,TX", "State": "Texas"}, "geometry": {"type": "Polygon", "coordinates": [[[-94.736735, 33.703145], [-94.484796, 33.637421], [-94.041164, 33.54979], [-94.041164, 33.270466], [-94.194518, 33.297851], [-94.654581, 33.270466], [-94.747689, 33.330713], [-94.736735, 33.703145]]]}}, {"type": "Feature", "properties": {"name": "Highland", "id": "39071", "FIPS": "39071", "FIPS State": 39, "ST": "OH", "County": "Highland County,OH", "State": "Ohio"}, "geometry": {"type": "Polygon", "coordinates": [[[-83.591161, 39.377255], [-83.372084, 39.377255], [-83.355653, 39.196516], [-83.383038, 39.054115], [-83.673316, 39.021254], [-83.865008, 39.245808], [-83.591161, 39.377255]]]}}, {"type": "Feature", "properties": {"name": "Caroline", "id": "51033", "FIPS": "51033", "FIPS State": 51, "ST": "VA", "County": "Caroline County,VA", "State": "Virginia"}, "geometry": {"type": "Polygon", "coordinates": [[[-77.325542, 38.243528], [-77.117418, 38.15042], [-77.068125, 37.964204], [-77.073602, 37.964204], [-77.183141, 37.893004], [-77.347449, 37.788942], [-77.643204, 37.991589], [-77.369357, 38.249005], [-77.325542, 38.243528]]]}}, {"type": "Feature", "properties": {"name": "Hancock", "id": "39063", "FIPS": "39063", "FIPS State": 39, "ST": "OH", "County": "Hancock County,OH", "State": "Ohio"}, "geometry": {"type": "Polygon", "coordinates": [[[-83.881439, 41.168214], [-83.421376, 41.168214], [-83.421376, 40.992952], [-83.514484, 40.81769], [-83.574731, 40.81769], [-83.881439, 40.81769], [-83.881439, 40.921752], [-83.881439, 41.168214]]]}}, {"type": "Feature", "properties": {"name": "Darke", "id": "39037", "FIPS": "39037", "FIPS State": 39, "ST": "OH", "County": "Darke County,OH", "State": "Ohio"}, "geometry": {"type": "Polygon", "coordinates": [[[-84.456518, 40.35215], [-84.43461, 40.35215], [-84.43461, 40.198796], [-84.423656, 39.919472], [-84.483903, 39.919472], [-84.812519, 39.919472], [-84.812519, 40.007103], [-84.801565, 40.308335], [-84.801565, 40.35215], [-84.456518, 40.35215]]]}}, {"type": "Feature", "properties": {"name": "Lee", "id": "13177", "FIPS": "13177", "FIPS State": 13, "ST": "GA", "County": "Lee County,GA", "State": "Georgia"}, "geometry": {"type": "Polygon", "coordinates": [[[-84.259348, 31.917662], [-83.925255, 31.912185], [-83.941686, 31.846462], [-84.018363, 31.649292], [-84.297687, 31.621907], [-84.336025, 31.873847], [-84.259348, 31.917662]]]}}, {"type": "Feature", "properties": {"name": "Williams", "id": "38105", "FIPS": "38105", "FIPS State": 38, "ST": "ND", "County": "Williams County,ND", "State": "North Dakota"}, "geometry": {"type": "Polygon", "coordinates": [[[-104.047534, 48.633284], [-102.886422, 48.633284], [-102.886422, 48.545653], [-102.826176, 48.123929], [-103.171223, 48.134883], [-104.042057, 47.997959], [-104.047534, 48.386822], [-104.047534, 48.633284]]]}}, {"type": "Feature", "properties": {"name": "Madison", "id": "31119", "FIPS": "31119", "FIPS State": 31, "ST": "NE", "County": "Madison County,NE", "State": "Nebraska"}, "geometry": {"type": "Polygon", "coordinates": [[[-97.425913, 42.08834], [-97.365666, 42.08834], [-97.365666, 41.743293], [-97.425913, 41.743293], [-97.831206, 41.743293], [-97.831206, 41.918555], [-97.836683, 42.08834], [-97.425913, 42.08834]]]}}, {"type": "Feature", "properties": {"name": "Caledonia", "id": "50005", "FIPS": "50005", "FIPS State": 50, "ST": "VT", "County": "Caledonia County,VT", "State": "Vermont"}, "geometry": {"type": "Polygon", "coordinates": [[[-71.941709, 44.766564], [-71.837647, 44.350317], [-72.040294, 44.153147], [-72.368911, 44.202439], [-72.42368, 44.503671], [-72.434634, 44.503671], [-72.374388, 44.585825], [-71.941709, 44.766564]]]}}, {"type": "Feature", "properties": {"name": "Otoe", "id": "31131", "FIPS": "31131", "FIPS State": 31, "ST": "NE", "County": "Otoe County,NE", "State": "Nebraska"}, "geometry": {"type": "Polygon", "coordinates": [[[-95.892369, 40.784829], [-95.832123, 40.784829], [-95.7664, 40.587659], [-95.71163, 40.521935], [-96.023816, 40.521935], [-96.067632, 40.521935], [-96.461971, 40.521935], [-96.461971, 40.784829], [-95.892369, 40.784829]]]}}, {"type": "Feature", "properties": {"name": "Botetourt", "id": "51023", "FIPS": "51023", "FIPS State": 51, "ST": "VA", "County": "Botetourt County,VA", "State": "Virginia"}, "geometry": {"type": "Polygon", "coordinates": [[[-79.790165, 37.794419], [-79.675149, 37.761557], [-79.499887, 37.531526], [-79.844934, 37.306971], [-80.074966, 37.421987], [-80.020196, 37.646542], [-79.790165, 37.794419]]]}}, {"type": "Feature", "properties": {"name": "Amherst", "id": "51009", "FIPS": "51009", "FIPS State": 51, "ST": "VA", "County": "Amherst County,VA", "State": "Virginia"}, "geometry": {"type": "Polygon", "coordinates": [[[-79.439641, 37.619157], [-79.171271, 37.805373], [-78.870039, 37.54248], [-79.017916, 37.427464], [-79.083639, 37.394602], [-79.187701, 37.465803], [-79.439641, 37.619157]]]}}, {"type": "Feature", "properties": {"name": "Sheridan", "id": "38083", "FIPS": "38083", "FIPS State": 38, "ST": "ND", "County": "Sheridan County,ND", "State": "North Dakota"}, "geometry": {"type": "Polygon", "coordinates": [[[-100.520384, 47.850082], [-100.197245, 47.850082], [-100.071275, 47.844605], [-100.032936, 47.329772], [-100.115091, 47.329772], [-100.608015, 47.329772], [-100.673738, 47.329772], [-100.586107, 47.850082], [-100.520384, 47.850082]]]}}, {"type": "Feature", "properties": {"name": "Aransas", "id": "48007", "FIPS": "48007", "FIPS State": 48, "ST": "TX", "County": "Aransas County,TX", "State": "Texas"}, "geometry": {"type": "MultiPolygon", "coordinates": [[[[-96.801542, 28.275497], [-96.812495, 28.21525], [-97.135635, 27.903065], [-97.261605, 28.078327], [-96.790588, 28.319312], [-96.801542, 28.275497]]], [[[-96.828926, 28.111189], [-96.856311, 28.061896], [-97.048004, 27.837342], [-97.053481, 27.842818], [-96.828926, 28.111189]]]]}}, {"type": "Feature", "properties": {"name": "Rolette", "id": "38079", "FIPS": "38079", "FIPS State": 38, "ST": "ND", "County": "Rolette County,ND", "State": "North Dakota"}, "geometry": {"type": "Polygon", "coordinates": [[[-99.523581, 49.000239], [-99.490719, 48.545653], [-99.616689, 48.545653], [-100.147952, 48.545653], [-100.180814, 49.000239], [-99.523581, 49.000239]]]}}, {"type": "Feature", "properties": {"name": "Jefferson", "id": "05069", "FIPS": "05069", "FIPS State": 5, "ST": "AR", "County": "Jefferson County,AR", "State": "Arkansas"}, "geometry": {"type": "Polygon", "coordinates": [[[-92.069465, 34.491824], [-92.031127, 34.491824], [-91.70251, 34.48087], [-91.445094, 34.081054], [-91.603925, 34.113915], [-91.954449, 34.064623], [-92.058511, 34.064623], [-92.233773, 34.064623], [-92.206389, 34.491824], [-92.069465, 34.491824]]]}}, {"type": "Feature", "properties": {"name": "Pembina", "id": "38067", "FIPS": "38067", "FIPS State": 38, "ST": "ND", "County": "Pembina County,ND", "State": "North Dakota"}, "geometry": {"type": "Polygon", "coordinates": [[[-97.228743, 49.000239], [-97.16302, 48.545653], [-97.16302, 48.540176], [-97.929791, 48.545653], [-97.951699, 49.000239], [-97.228743, 49.000239]]]}}, {"type": "Feature", "properties": {"name": "Douglas", "id": "32005", "FIPS": "32005", "FIPS State": 32, "ST": "NV", "County": "Douglas County,NV", "State": "Nevada"}, "geometry": {"type": "Polygon", "coordinates": [[[-119.760876, 39.114362], [-119.552752, 39.086977], [-119.328197, 38.533806], [-119.585614, 38.714545], [-119.903276, 38.933623], [-120.001861, 39.065069], [-120.001861, 39.114362], [-119.760876, 39.114362]]]}}, {"type": "Feature", "properties": {"name": "Marion", "id": "47115", "FIPS": "47115", "FIPS State": 47, "ST": "TN", "County": "Marion County,TN", "State": "Tennessee"}, "geometry": {"type": "Polygon", "coordinates": [[[-85.601199, 35.307888], [-85.557383, 35.318842], [-85.387598, 35.149057], [-85.475229, 34.984749], [-85.606675, 34.984749], [-85.864092, 34.990226], [-85.875046, 35.225734], [-85.601199, 35.307888]]]}}, {"type": "Feature", "properties": {"name": "Brown", "id": "48049", "FIPS": "48049", "FIPS State": 48, "ST": "TX", "County": "Brown County,TX", "State": "Texas"}, "geometry": {"type": "Polygon", "coordinates": [[[-99.118287, 32.08197], [-98.926594, 32.076493], [-98.669178, 31.698584], [-98.992318, 31.484984], [-99.090903, 31.463076], [-99.200441, 31.468553], [-99.194965, 32.08197], [-99.118287, 32.08197]]]}}, {"type": "Feature", "properties": {"name": "Madison", "id": "39097", "FIPS": "39097", "FIPS State": 39, "ST": "OH", "County": "Madison County,OH", "State": "Ohio"}, "geometry": {"type": "Polygon", "coordinates": [[[-83.50353, 40.111165], [-83.207776, 40.105688], [-83.246114, 39.81541], [-83.246114, 39.809933], [-83.251591, 39.694917], [-83.651408, 39.716825], [-83.645931, 39.771595], [-83.514484, 40.01258], [-83.50353, 40.111165]]]}}, {"type": "Feature", "properties": {"name": "Alamosa", "id": "08003", "FIPS": "08003", "FIPS State": 8, "ST": "CO", "County": "Alamosa County,CO", "State": "Colorado"}, "geometry": {"type": "Polygon", "coordinates": [[[-105.707047, 37.750604], [-105.455107, 37.750604], [-105.487969, 37.575342], [-105.745385, 37.356264], [-106.04114, 37.400079], [-106.04114, 37.750604], [-105.707047, 37.750604]]]}}, {"type": "Feature", "properties": {"name": "Sampson", "id": "37163", "FIPS": "37163", "FIPS State": 37, "ST": "NC", "County": "Sampson County,NC", "State": "North Carolina"}, "geometry": {"type": "Polygon", "coordinates": [[[-78.541422, 35.313365], [-78.305914, 35.28598], [-78.163514, 35.187396], [-78.114221, 34.721856], [-78.256622, 34.55207], [-78.49213, 34.847825], [-78.49213, 34.858779], [-78.6181, 35.247642], [-78.541422, 35.313365]]]}}, {"type": "Feature", "properties": {"name": "Bryan", "id": "13029", "FIPS": "13029", "FIPS State": 13, "ST": "GA", "County": "Bryan County,GA", "State": "Georgia"}, "geometry": {"type": "Polygon", "coordinates": [[[-81.42777, 32.235325], [-81.389431, 32.098401], [-81.153923, 31.725969], [-81.197738, 31.725969], [-81.707094, 32.087447], [-81.718048, 32.087447], [-81.783771, 32.153171], [-81.433247, 32.240802], [-81.42777, 32.235325]]]}}, {"type": "Feature", "properties": {"name": "Victoria", "id": "48469", "FIPS": "48469", "FIPS State": 48, "ST": "TX", "County": "Victoria County,TX", "State": "Texas"}, "geometry": {"type": "Polygon", "coordinates": [[[-96.976804, 29.102515], [-96.938465, 29.064176], [-96.64271, 28.713652], [-96.653664, 28.702698], [-96.889173, 28.505528], [-97.146589, 28.549344], [-97.16302, 28.554821], [-97.30542, 28.861529], [-96.976804, 29.102515]]]}}, {"type": "Feature", "properties": {"name": "Transylvania", "id": "37175", "FIPS": "37175", "FIPS State": 37, "ST": "NC", "County": "Transylvania County,NC", "State": "North Carolina"}, "geometry": {"type": "Polygon", "coordinates": [[[-82.747713, 35.422904], [-82.572451, 35.14358], [-82.764143, 35.066903], [-82.89559, 35.055949], [-83.010606, 35.028564], [-82.922975, 35.291457], [-82.747713, 35.422904]]]}}, {"type": "Feature", "properties": {"name": "Wise", "id": "48497", "FIPS": "48497", "FIPS State": 48, "ST": "TX", "County": "Wise County,TX", "State": "Texas"}, "geometry": {"type": "Polygon", "coordinates": [[[-97.50259, 33.434775], [-97.486159, 33.434775], [-97.382097, 33.429298], [-97.398528, 32.991142], [-97.535452, 32.996619], [-97.546405, 32.996619], [-97.924314, 33.002096], [-97.918837, 33.434775], [-97.50259, 33.434775]]]}}, {"type": "Feature", "properties": {"name": "Claiborne", "id": "47025", "FIPS": "47025", "FIPS State": 47, "ST": "TN", "County": "Claiborne County,TN", "State": "Tennessee"}, "geometry": {"type": "Polygon", "coordinates": [[[-83.673316, 36.600446], [-83.470669, 36.594969], [-83.388515, 36.41423], [-83.667839, 36.34303], [-83.903347, 36.419707], [-83.985501, 36.589492], [-83.930732, 36.589492], [-83.673316, 36.600446]]]}}, {"type": "Feature", "properties": {"name": "Fluvanna", "id": "51065", "FIPS": "51065", "FIPS State": 51, "ST": "VA", "County": "Fluvanna County,VA", "State": "Virginia"}, "geometry": {"type": "Polygon", "coordinates": [[[-78.305914, 38.00802], [-78.064929, 37.903958], [-78.158037, 37.750604], [-78.163514, 37.750604], [-78.240191, 37.690357], [-78.49213, 37.794419], [-78.305914, 38.00802]]]}}, {"type": "Feature", "properties": {"name": "Brewster", "id": "48043", "FIPS": "48043", "FIPS State": 48, "ST": "TX", "County": "Brewster County,TX", "State": "Texas"}, "geometry": {"type": "Polygon", "coordinates": [[[-103.346485, 30.603196], [-102.56876, 30.050025], [-102.322297, 29.88024], [-102.678299, 29.73784], [-102.919284, 29.190146], [-103.280762, 28.982022], [-103.790117, 29.261346], [-103.801071, 30.411504], [-103.439593, 30.663443], [-103.346485, 30.603196]]]}}, {"type": "Feature", "properties": {"name": "Beaverhead", "id": "30001", "FIPS": "30001", "FIPS State": 30, "ST": "MT", "County": "Beaverhead County,MT", "State": "Montana"}, "geometry": {"type": "Polygon", "coordinates": [[[-113.517164, 45.938629], [-113.084485, 45.861952], [-112.684669, 45.626444], [-112.169836, 44.826811], [-111.479742, 44.711795], [-111.616665, 44.547487], [-112.816115, 44.377701], [-113.456917, 44.865149], [-113.944365, 45.68669], [-113.517164, 45.938629]]]}}, {"type": "Feature", "properties": {"name": "Box Elder", "id": "49003", "FIPS": "49003", "FIPS State": 49, "ST": "UT", "County": "Box Elder County,UT", "State": "Utah"}, "geometry": {"type": "Polygon", "coordinates": [[[-112.164359, 41.995232], [-111.885035, 41.425631], [-112.492976, 41.075106], [-113.073531, 40.998429], [-114.04295, 40.998429], [-114.04295, 41.995232], [-113.002331, 42.000709], [-112.164359, 41.995232]]]}}, {"type": "Feature", "properties": {"name": "Teton", "id": "56039", "FIPS": "56039", "FIPS State": 56, "ST": "WY", "County": "Teton County,WY", "State": "Wyoming"}, "geometry": {"type": "Polygon", "coordinates": [[[-111.058017, 44.667979], [-110.3734, 44.580348], [-110.055737, 44.010746], [-110.05026, 43.463052], [-110.576047, 43.233021], [-111.047063, 43.315175], [-111.047063, 43.501391], [-111.047063, 43.983362], [-111.047063, 44.476286], [-111.058017, 44.667979]]]}}, {"type": "Feature", "properties": {"name": "Vinton", "id": "39163", "FIPS": "39163", "FIPS State": 39, "ST": "OH", "County": "Vinton County,OH", "State": "Ohio"}, "geometry": {"type": "Polygon", "coordinates": [[[-82.747713, 39.366301], [-82.28765, 39.382732], [-82.271219, 39.201993], [-82.28765, 39.201993], [-82.320511, 39.026731], [-82.435527, 39.037685], [-82.671035, 39.201993], [-82.764143, 39.20747], [-82.747713, 39.366301]]]}}, {"type": "Feature", "properties": {"name": "Hill", "id": "30041", "FIPS": "30041", "FIPS State": 30, "ST": "MT", "County": "Hill County,MT", "State": "Montana"}, "geometry": {"type": "Polygon", "coordinates": [[[-109.491612, 49.000239], [-109.535428, 48.134883], [-110.389831, 48.304668], [-110.756786, 48.217037], [-110.745832, 49.000239], [-109.491612, 49.000239]]]}}, {"type": "Feature", "properties": {"name": "Tuscarawas", "id": "39157", "FIPS": "39157", "FIPS State": 39, "ST": "OH", "County": "Tuscarawas County,OH", "State": "Ohio"}, "geometry": {"type": "Polygon", "coordinates": [[[-81.42777, 40.653382], [-81.318231, 40.653382], [-81.268939, 40.434304], [-81.340139, 40.215227], [-81.62494, 40.220704], [-81.707094, 40.445258], [-81.652325, 40.636951], [-81.42777, 40.653382]]]}}, {"type": "Feature", "properties": {"name": "San Juan", "id": "49037", "FIPS": "49037", "FIPS State": 49, "ST": "UT", "County": "San Juan County,UT", "State": "Utah"}, "geometry": {"type": "Polygon", "coordinates": [[[-110.022876, 38.500944], [-109.058934, 38.500944], [-109.042503, 38.15042], [-109.042503, 37.88205], [-109.042503, 37.482234], [-109.042503, 37.000263], [-110.000968, 37.000263], [-110.751309, 37.00574], [-111.414018, 37.000263], [-110.647247, 37.54248], [-109.929768, 38.15042], [-110.022876, 38.500944]]]}}, {"type": "Feature", "properties": {"name": "Giles", "id": "47055", "FIPS": "47055", "FIPS State": 47, "ST": "TN", "County": "Giles County,TN", "State": "Tennessee"}, "geometry": {"type": "Polygon", "coordinates": [[[-87.129265, 35.455766], [-86.95948, 35.417427], [-86.828033, 35.264073], [-86.838987, 34.990226], [-87.211419, 35.00118], [-87.222373, 35.00118], [-87.205942, 35.433858], [-87.129265, 35.455766]]]}}, {"type": "Feature", "properties": {"name": "Sevier", "id": "49041", "FIPS": "49041", "FIPS State": 49, "ST": "UT", "County": "Sevier County,UT", "State": "Utah"}, "geometry": {"type": "Polygon", "coordinates": [[[-111.978143, 39.043162], [-111.299003, 39.032208], [-111.30448, 38.511898], [-111.764543, 38.500944], [-111.857651, 38.500944], [-112.52036, 38.511898], [-112.514883, 38.572145], [-112.016482, 39.043162], [-111.978143, 39.043162]]]}}, {"type": "Feature", "properties": {"name": "Ravalli", "id": "30081", "FIPS": "30081", "FIPS State": 30, "ST": "MT", "County": "Ravalli County,MT", "State": "Montana"}, "geometry": {"type": "Polygon", "coordinates": [[[-113.851257, 46.661586], [-113.829349, 46.661586], [-113.801964, 46.037214], [-113.517164, 45.938629], [-113.517164, 45.938629], [-113.944365, 45.68669], [-114.557782, 45.566198], [-114.333228, 46.661586], [-113.851257, 46.661586]]]}}, {"type": "Feature", "properties": {"name": "Uintah", "id": "49047", "FIPS": "49047", "FIPS State": 49, "ST": "UT", "County": "Uintah County,UT", "State": "Utah"}, "geometry": {"type": "Polygon", "coordinates": [[[-109.283489, 40.856029], [-109.04798, 40.653382], [-109.053457, 40.220704], [-109.053457, 39.662056], [-109.053457, 39.497748], [-110.022876, 39.459409], [-110.022876, 39.470363], [-109.968106, 39.804456], [-109.97906, 40.812213], [-109.283489, 40.856029]]]}}, {"type": "Feature", "properties": {"name": "Ottawa", "id": "39123", "FIPS": "39123", "FIPS State": 39, "ST": "OH", "County": "Ottawa County,OH", "State": "Ohio"}, "geometry": {"type": "Polygon", "coordinates": [[[-83.180391, 41.6228], [-83.16396, 41.6228], [-82.692943, 41.491354], [-82.775097, 41.4804], [-82.955836, 41.458492], [-83.415899, 41.502308], [-83.415899, 41.617324], [-83.180391, 41.6228]]]}}, {"type": "Feature", "properties": {"name": "Alexander", "id": "37003", "FIPS": "37003", "FIPS State": 37, "ST": "NC", "County": "Alexander County,NC", "State": "North Carolina"}, "geometry": {"type": "Polygon", "coordinates": [[[-81.027953, 36.047275], [-81.110107, 35.778905], [-81.192262, 35.822721], [-81.334662, 35.795336], [-81.329185, 35.997983], [-81.027953, 36.047275]]]}}, {"type": "Feature", "properties": {"name": "Montour", "id": "42093", "FIPS": "42093", "FIPS State": 42, "ST": "PA", "County": "Montour County,PA", "State": "Pennsylvania"}, "geometry": {"type": "Polygon", "coordinates": [[[-76.734032, 41.173691], [-76.640924, 41.157261], [-76.525908, 40.883413], [-76.734032, 41.173691]]]}}, {"type": "Feature", "properties": {"name": "Carroll", "id": "19027", "FIPS": "19027", "FIPS State": 19, "ST": "IA", "County": "Carroll County,IA", "State": "Iowa"}, "geometry": {"type": "Polygon", "coordinates": [[[-95.092736, 42.208833], [-94.857228, 42.208833], [-94.627196, 42.208833], [-94.627196, 41.863786], [-94.742212, 41.863786], [-95.092736, 41.863786], [-95.092736, 42.208833]]]}}, {"type": "Feature", "properties": {"name": "Klickitat", "id": "53039", "FIPS": "53039", "FIPS State": 53, "ST": "WA", "County": "Klickitat County,WA", "State": "Washington"}, "geometry": {"type": "Polygon", "coordinates": [[[-119.990907, 46.042691], [-119.864937, 46.042691], [-119.870414, 45.834568], [-120.001861, 45.81266], [-120.653617, 45.735983], [-120.834356, 45.675736], [-120.91651, 45.642875], [-121.442296, 45.697644], [-121.52445, 45.725029], [-121.52445, 46.042691], [-119.990907, 46.042691]]]}}, {"type": "Feature", "properties": {"name": "Marshall", "id": "01095", "FIPS": "01095", "FIPS State": 1, "ST": "AL", "County": "Marshall County,AL", "State": "Alabama"}, "geometry": {"type": "Polygon", "coordinates": [[[-86.329632, 34.601363], [-86.055785, 34.475393], [-86.105077, 34.201546], [-86.302247, 34.097484], [-86.455601, 34.261793], [-86.581571, 34.305608], [-86.548709, 34.546593], [-86.329632, 34.601363]]]}}, {"type": "Feature", "properties": {"name": "Barren", "id": "21009", "FIPS": "21009", "FIPS State": 21, "ST": "KY", "County": "Barren County,KY", "State": "Kentucky"}, "geometry": {"type": "Polygon", "coordinates": [[[-85.743599, 37.170048], [-85.738122, 36.841432], [-85.979107, 36.720939], [-86.165323, 36.934539], [-86.116031, 37.060509], [-86.055785, 37.164571], [-85.743599, 37.170048]]]}}, {"type": "Feature", "properties": {"name": "Grant", "id": "21081", "FIPS": "21081", "FIPS State": 21, "ST": "KY", "County": "Grant County,KY", "State": "Kentucky"}, "geometry": {"type": "Polygon", "coordinates": [[[-84.615349, 38.802176], [-84.533195, 38.791222], [-84.478426, 38.54476], [-84.555103, 38.495467], [-84.582488, 38.47356], [-84.785134, 38.720022], [-84.659165, 38.774791], [-84.615349, 38.802176]]]}}, {"type": "Feature", "properties": {"name": "Morgan", "id": "21175", "FIPS": "21175", "FIPS State": 21, "ST": "KY", "County": "Morgan County,KY", "State": "Kentucky"}, "geometry": {"type": "Polygon", "coordinates": [[[-83.355653, 38.068266], [-83.262545, 38.117559], [-83.02156, 38.00802], [-82.988698, 37.964204], [-83.005129, 37.860142], [-83.262545, 37.712265], [-83.492576, 37.860142], [-83.43233, 38.035405], [-83.355653, 38.068266]]]}}, {"type": "Feature", "properties": {"name": "Dale", "id": "01045", "FIPS": "01045", "FIPS State": 1, "ST": "AL", "County": "Dale County,AL", "State": "Alabama"}, "geometry": {"type": "Polygon", "coordinates": [[[-85.694307, 31.61643], [-85.414983, 31.621907], [-85.414983, 31.315199], [-85.710737, 31.194706], [-85.792891, 31.194706], [-85.787415, 31.61643], [-85.749076, 31.61643], [-85.694307, 31.61643]]]}}]}