{"type": "FeatureCollection", "crs": {"type": "name", "properties": {"name": "urn:ogc:def:crs:OGC:1.3:CRS84"}}, "features": [{"type": "Feature", "properties": {"name": "Maverick", "id": "48323", "FIPS": "48323", "FIPS State": 48, "ST": "TX", "County": "Maverick County,TX", "State": "Texas"}, "geometry": {"type": "Polygon", "coordinates": [[[-100.109614, 29.086084], [-100.115091, 28.647929], [-100.115091, 28.19882], [-100.213675, 28.19882], [-100.668261, 29.086084], [-100.109614, 29.086084]]]}}, {"type": "Feature", "properties": {"name": "Boone", "id": "19015", "FIPS": "19015", "FIPS State": 19, "ST": "IA", "County": "Boone County,IA", "State": "Iowa"}, "geometry": {"type": "Polygon", "coordinates": [[[-93.931625, 42.208833], [-93.696116, 42.208833], [-93.696116, 41.863786], [-93.772794, 41.863786], [-93.816609, 41.863786], [-94.161656, 41.863786], [-94.167133, 42.208833], [-93.931625, 42.208833]]]}}, {"type": "Feature", "properties": {"name": "Gaines", "id": "48165", "FIPS": "48165", "FIPS State": 48, "ST": "TX", "County": "Gaines County,TX", "State": "Texas"}, "geometry": {"type": "Polygon", "coordinates": [[[-103.067161, 32.958281], [-102.596144, 32.958281], [-102.207282, 32.958281], [-102.201805, 32.525602], [-102.212759, 32.525602], [-102.995961, 32.525602], [-103.067161, 32.520126], [-103.067161, 32.958281]]]}}, {"type": "Feature", "properties": {"name": "Reagan", "id": "48383", "FIPS": "48383", "FIPS State": 48, "ST": "TX", "County": "Reagan County,TX", "State": "Texas"}, "geometry": {"type": "Polygon", "coordinates": [[[-101.686972, 31.649292], [-101.265248, 31.649292], [-101.265248, 31.556184], [-101.265248, 31.528799], [-101.276202, 31.07969], [-101.774603, 31.07969], [-101.774603, 31.649292], [-101.686972, 31.649292]]]}}, {"type": "Feature", "properties": {"name": "Edwards", "id": "48137", "FIPS": "48137", "FIPS State": 48, "ST": "TX", "County": "Edwards County,TX", "State": "Texas"}, "geometry": {"type": "Polygon", "coordinates": [[[-99.753612, 30.291011], [-99.759089, 30.071933], [-100.016506, 29.622824], [-100.109614, 29.622824], [-100.575153, 29.622824], [-100.701123, 29.622824], [-100.701123, 30.291011], [-100.115091, 30.291011], [-99.753612, 30.291011]]]}}, {"type": "Feature", "properties": {"name": "Eastland", "id": "48133", "FIPS": "48133", "FIPS State": 48, "ST": "TX", "County": "Eastland County,TX", "State": "Texas"}, "geometry": {"type": "Polygon", "coordinates": [[[-98.740378, 32.514649], [-98.57607, 32.514649], [-98.477485, 32.514649], [-98.548686, 32.262709], [-98.926594, 32.076493], [-99.118287, 32.08197], [-99.11281, 32.514649], [-99.09638, 32.514649], [-98.740378, 32.514649]]]}}, {"type": "Feature", "properties": {"name": "Bremer", "id": "19017", "FIPS": "19017", "FIPS State": 19, "ST": "IA", "County": "Bremer County,IA", "State": "Iowa"}, "geometry": {"type": "Polygon", "coordinates": [[[-92.387128, 42.909881], [-92.080419, 42.904404], [-92.080419, 42.641511], [-92.469282, 42.641511], [-92.556913, 42.641511], [-92.556913, 42.904404], [-92.387128, 42.909881]]]}}, {"type": "Feature", "properties": {"name": "Panola", "id": "48365", "FIPS": "48365", "FIPS State": 48, "ST": "TX", "County": "Panola County,TX", "State": "Texas"}, "geometry": {"type": "Polygon", "coordinates": [[[-94.462888, 32.377725], [-94.041164, 32.394156], [-94.041164, 32.196986], [-94.013779, 31.977908], [-94.134272, 31.977908], [-94.512181, 31.972432], [-94.490273, 32.394156], [-94.462888, 32.377725]]]}}, {"type": "Feature", "properties": {"name": "Freestone", "id": "48161", "FIPS": "48161", "FIPS State": 48, "ST": "TX", "County": "Freestone County,TX", "State": "Texas"}, "geometry": {"type": "Polygon", "coordinates": [[[-96.051201, 32.005293], [-95.788308, 31.61643], [-96.237417, 31.413784], [-96.494833, 31.797169], [-96.056678, 32.01077], [-96.051201, 32.005293]]]}}, {"type": "Feature", "properties": {"name": "Real", "id": "48385", "FIPS": "48385", "FIPS State": 48, "ST": "TX", "County": "Real County,TX", "State": "Texas"}, "geometry": {"type": "Polygon", "coordinates": [[[-99.759089, 30.071933], [-99.600258, 29.907625], [-99.605735, 29.628301], [-100.016506, 29.622824], [-99.759089, 30.071933]]]}}, {"type": "Feature", "properties": {"name": "Frio", "id": "48163", "FIPS": "48163", "FIPS State": 48, "ST": "TX", "County": "Frio County,TX", "State": "Texas"}, "geometry": {"type": "Polygon", "coordinates": [[[-98.904687, 29.091561], [-98.806102, 29.091561], [-98.800625, 28.647929], [-99.397611, 28.642452], [-99.408565, 28.642452], [-99.414042, 29.091561], [-98.904687, 29.091561]]]}}, {"type": "Feature", "properties": {"name": "Colorado", "id": "48089", "FIPS": "48089", "FIPS State": 48, "ST": "TX", "County": "Colorado County,TX", "State": "Texas"}, "geometry": {"type": "Polygon", "coordinates": [[[-96.57151, 29.962394], [-96.17717, 29.633778], [-96.64271, 29.250392], [-96.659141, 29.261346], [-96.872742, 29.633778], [-96.57151, 29.962394]]]}}, {"type": "Feature", "properties": {"name": "Breckinridge", "id": "21027", "FIPS": "21027", "FIPS State": 21, "ST": "KY", "County": "Breckinridge County,KY", "State": "Kentucky"}, "geometry": {"type": "Polygon", "coordinates": [[[-86.652771, 37.843712], [-86.488463, 38.046358], [-86.148893, 37.799896], [-86.274862, 37.591772], [-86.472032, 37.602726], [-86.592525, 37.564388], [-86.63634, 37.662973], [-86.652771, 37.843712]]]}}, {"type": "Feature", "properties": {"name": "Fayette", "id": "48149", "FIPS": "48149", "FIPS State": 48, "ST": "TX", "County": "Fayette County,TX", "State": "Texas"}, "geometry": {"type": "Polygon", "coordinates": [[[-96.801542, 30.154087], [-96.796065, 30.159564], [-96.620803, 30.044549], [-96.57151, 29.962394], [-96.872742, 29.633778], [-97.141112, 29.628301], [-97.316374, 29.787132], [-97.316374, 29.787132], [-97.026096, 30.050025], [-96.801542, 30.154087]]]}}, {"type": "Feature", "properties": {"name": "Kandiyohi", "id": "27067", "FIPS": "27067", "FIPS State": 27, "ST": "MN", "County": "Kandiyohi County,MN", "State": "Minnesota"}, "geometry": {"type": "Polygon", "coordinates": [[[-94.884612, 45.412843], [-94.76412, 45.325212], [-94.758643, 44.892534], [-95.246091, 44.892534], [-95.246091, 45.14995], [-95.257044, 45.412843], [-95.131075, 45.412843], [-94.884612, 45.412843]]]}}, {"type": "Feature", "properties": {"name": "Morrison", "id": "27097", "FIPS": "27097", "FIPS State": 27, "ST": "MN", "County": "Morrison County,MN", "State": "Minnesota"}, "geometry": {"type": "Polygon", "coordinates": [[[-94.654581, 46.3494], [-94.342395, 46.2782], [-93.811132, 46.157707], [-93.76184, 45.823614], [-94.008302, 45.823614], [-94.271195, 45.774321], [-94.451934, 45.774321], [-94.643627, 45.774321], [-94.654581, 46.3494]]]}}, {"type": "Feature", "properties": {"name": "Wichita", "id": "20203", "FIPS": "20203", "FIPS State": 20, "ST": "KS", "County": "Wichita County,KS", "State": "Kansas"}, "geometry": {"type": "Polygon", "coordinates": [[[-101.259771, 38.703591], [-101.128324, 38.698114], [-101.122848, 38.265436], [-101.544572, 38.265436], [-101.56648, 38.265436], [-101.56648, 38.698114], [-101.484326, 38.698114], [-101.259771, 38.703591]]]}}, {"type": "Feature", "properties": {"name": "Winnebago", "id": "19189", "FIPS": "19189", "FIPS State": 19, "ST": "IA", "County": "Winnebago County,IA", "State": "Iowa"}, "geometry": {"type": "Polygon", "coordinates": [[[-93.646824, 43.501391], [-93.498947, 43.501391], [-93.498947, 43.254929], [-93.570147, 43.254929], [-93.969963, 43.254929], [-93.969963, 43.501391], [-93.646824, 43.501391]]]}}, {"type": "Feature", "properties": {"name": "Iosco", "id": "26069", "FIPS": "26069", "FIPS State": 26, "ST": "MI", "County": "Iosco County,MI", "State": "Michigan"}, "geometry": {"type": "Polygon", "coordinates": [[[-83.563777, 44.164101], [-83.569254, 44.164101], [-83.886916, 44.164101], [-83.886916, 44.509148], [-83.317314, 44.509148], [-83.563777, 44.164101]]]}}, {"type": "Feature", "properties": {"name": "Marshall", "id": "21157", "FIPS": "21157", "FIPS State": 21, "ST": "KY", "County": "Marshall County,KY", "State": "Kentucky"}, "geometry": {"type": "Polygon", "coordinates": [[[-88.432777, 37.049555], [-88.241084, 36.983832], [-88.15893, 36.868816], [-88.109637, 36.748324], [-88.487546, 36.748324], [-88.482069, 36.940016], [-88.482069, 37.022171], [-88.432777, 37.049555]]]}}, {"type": "Feature", "properties": {"name": "Magoffin", "id": "21153", "FIPS": "21153", "FIPS State": 21, "ST": "KY", "County": "Magoffin County,KY", "State": "Kentucky"}, "geometry": {"type": "Polygon", "coordinates": [[[-83.005129, 37.860142], [-82.939406, 37.717742], [-82.922975, 37.48771], [-82.944882, 37.498664], [-82.950359, 37.504141], [-83.246114, 37.668449], [-83.262545, 37.712265], [-83.005129, 37.860142]]]}}, {"type": "Feature", "properties": {"name": "Luce", "id": "26095", "FIPS": "26095", "FIPS State": 26, "ST": "MI", "County": "Luce County,MI", "State": "Michigan"}, "geometry": {"type": "Polygon", "coordinates": [[[-85.23972, 46.754694], [-85.23972, 46.245338], [-85.36569, 46.245338], [-85.864092, 46.245338], [-85.864092, 46.502754], [-85.864092, 46.68897], [-85.23972, 46.754694]]]}}, {"type": "Feature", "properties": {"name": "Barton", "id": "20009", "FIPS": "20009", "FIPS State": 20, "ST": "KS", "County": "Barton County,KS", "State": "Kansas"}, "geometry": {"type": "Polygon", "coordinates": [[[-98.811579, 38.698114], [-98.488439, 38.698114], [-98.482962, 38.522852], [-98.477485, 38.259959], [-98.800625, 38.259959], [-98.910164, 38.259959], [-99.030656, 38.34759], [-99.030656, 38.698114], [-98.811579, 38.698114]]]}}, {"type": "Feature", "properties": {"name": "Leelanau", "id": "26089", "FIPS": "26089", "FIPS State": 26, "ST": "MI", "County": "Leelanau County,MI", "State": "Michigan"}, "geometry": {"type": "Polygon", "coordinates": [[[-85.639537, 44.777518], [-85.814799, 44.772041], [-86.039354, 44.777518], [-86.072215, 44.777518], [-85.617629, 45.188289], [-85.639537, 44.777518]]]}}, {"type": "Feature", "properties": {"name": "Menominee", "id": "26109", "FIPS": "26109", "FIPS State": 26, "ST": "MI", "County": "Menominee County,MI", "State": "Michigan"}, "geometry": {"type": "Polygon", "coordinates": [[[-87.616713, 45.987922], [-87.37025, 45.987922], [-87.266188, 45.549767], [-87.589328, 45.095181], [-87.846744, 45.725029], [-87.616713, 45.987922]]]}}, {"type": "Feature", "properties": {"name": "Coffey", "id": "20031", "FIPS": "20031", "FIPS State": 20, "ST": "KS", "County": "Coffey County,KS", "State": "Kansas"}, "geometry": {"type": "Polygon", "coordinates": [[[-95.656861, 38.435221], [-95.508984, 38.435221], [-95.508984, 38.391406], [-95.519938, 38.040881], [-95.810215, 38.040881], [-95.958093, 38.040881], [-95.958093, 38.172328], [-95.952616, 38.435221], [-95.656861, 38.435221]]]}}, {"type": "Feature", "properties": {"name": "Webster", "id": "22119", "FIPS": "22119", "FIPS State": 22, "ST": "LA", "County": "Webster County,LA", "State": "Louisiana"}, "geometry": {"type": "Polygon", "coordinates": [[[-93.49347, 33.018527], [-93.487993, 33.018527], [-93.236053, 33.018527], [-93.181284, 32.585849], [-93.372977, 32.410587], [-93.520854, 33.018527], [-93.49347, 33.018527]]]}}, {"type": "Feature", "properties": {"name": "Jackson", "id": "27063", "FIPS": "27063", "FIPS State": 27, "ST": "MN", "County": "Jackson County,MN", "State": "Minnesota"}, "geometry": {"type": "Polygon", "coordinates": [[[-95.114644, 43.846438], [-94.857228, 43.846438], [-94.851751, 43.846438], [-94.851751, 43.501391], [-94.917474, 43.501391], [-95.092736, 43.501391], [-95.388491, 43.501391], [-95.454214, 43.501391], [-95.454214, 43.846438], [-95.114644, 43.846438]]]}}, {"type": "Feature", "properties": {"name": "Lincoln", "id": "23015", "FIPS": "23015", "FIPS State": 23, "ST": "ME", "County": "Lincoln County,ME", "State": "Maine"}, "geometry": {"type": "Polygon", "coordinates": [[[-69.411363, 44.328409], [-69.373024, 43.966931], [-69.696164, 43.82453], [-69.75641, 44.136716], [-69.504471, 44.34484], [-69.411363, 44.328409]]]}}, {"type": "Feature", "properties": {"name": "Garrett", "id": "24023", "FIPS": "24023", "FIPS State": 24, "ST": "MD", "County": "Garrett County,MD", "State": "Maryland"}, "geometry": {"type": "Polygon", "coordinates": [[[-78.930285, 39.722302], [-79.067209, 39.47584], [-79.275332, 39.327962], [-79.488933, 39.20747], [-79.477979, 39.722302], [-79.390348, 39.722302], [-78.930285, 39.722302]]]}}, {"type": "Feature", "properties": {"name": "Alpena", "id": "26007", "FIPS": "26007", "FIPS State": 26, "ST": "MI", "County": "Alpena County,MI", "State": "Michigan"}, "geometry": {"type": "Polygon", "coordinates": [[[-83.4871, 45.204719], [-83.388515, 45.204719], [-83.322791, 44.859672], [-83.547346, 44.859672], [-83.886916, 44.854195], [-83.881439, 45.204719], [-83.4871, 45.204719]]]}}, {"type": "Feature", "properties": {"name": "Tuscola", "id": "26157", "FIPS": "26157", "FIPS State": 26, "ST": "MI", "County": "Tuscola County,MI", "State": "Michigan"}, "geometry": {"type": "Polygon", "coordinates": [[[-83.465192, 43.725946], [-83.120145, 43.676653], [-83.120145, 43.326129], [-83.191345, 43.326129], [-83.459715, 43.222067], [-83.465192, 43.222067], [-83.695223, 43.222067], [-83.7007, 43.479483], [-83.7007, 43.594499], [-83.465192, 43.731422], [-83.465192, 43.725946]]]}}, {"type": "Feature", "properties": {"name": "Natchitoches", "id": "22069", "FIPS": "22069", "FIPS State": 22, "ST": "LA", "County": "Natchitoches County,LA", "State": "Louisiana"}, "geometry": {"type": "Polygon", "coordinates": [[[-93.131992, 32.147694], [-92.940299, 32.147694], [-92.97316, 31.709538], [-92.721221, 31.517845], [-92.984114, 31.34806], [-93.236053, 31.364491], [-93.4387, 31.846462], [-93.356546, 31.934093], [-93.186761, 32.147694], [-93.131992, 32.147694]]]}}, {"type": "Feature", "properties": {"name": "Osage", "id": "20139", "FIPS": "20139", "FIPS State": 20, "ST": "KS", "County": "Osage County,KS", "State": "Kansas"}, "geometry": {"type": "Polygon", "coordinates": [[[-95.667815, 38.867899], [-95.49803, 38.867899], [-95.503507, 38.736453], [-95.508984, 38.435221], [-95.656861, 38.435221], [-95.952616, 38.435221], [-95.947139, 38.736453], [-95.947139, 38.867899], [-95.667815, 38.867899]]]}}, {"type": "Feature", "properties": {"name": "Greenup", "id": "21089", "FIPS": "21089", "FIPS State": 21, "ST": "KY", "County": "Greenup County,KY", "State": "Kentucky"}, "geometry": {"type": "Polygon", "coordinates": [[[-82.813436, 38.572145], [-82.665558, 38.506421], [-82.818913, 38.374975], [-83.16396, 38.506421], [-83.032514, 38.725499], [-82.813436, 38.572145]]]}}, {"type": "Feature", "properties": {"name": "Rawlins", "id": "20153", "FIPS": "20153", "FIPS State": 20, "ST": "KS", "County": "Rawlins County,KS", "State": "Kansas"}, "geometry": {"type": "Polygon", "coordinates": [[[-101.325494, 40.001626], [-100.761369, 40.001626], [-100.739462, 40.001626], [-100.739462, 39.568948], [-101.391218, 39.568948], [-101.413125, 39.568948], [-101.413125, 40.001626], [-101.325494, 40.001626]]]}}, {"type": "Feature", "properties": {"name": "Montgomery", "id": "20125", "FIPS": "20125", "FIPS State": 20, "ST": "KS", "County": "Montgomery County,KS", "State": "Kansas"}, "geometry": {"type": "Polygon", "coordinates": [[[-95.96357, 37.389126], [-95.525414, 37.383649], [-95.519938, 37.383649], [-95.519938, 37.000263], [-95.613046, 37.000263], [-95.788308, 37.000263], [-95.9088, 37.000263], [-95.96357, 37.000263], [-95.96357, 37.301494], [-95.96357, 37.389126]]]}}, {"type": "Feature", "properties": {"name": "Clark", "id": "21049", "FIPS": "21049", "FIPS State": 21, "ST": "KY", "County": "Clark County,KY", "State": "Kentucky"}, "geometry": {"type": "Polygon", "coordinates": [[[-84.078609, 38.117559], [-83.96907, 37.931343], [-83.990978, 37.914912], [-84.001932, 37.838235], [-84.078609, 37.854665], [-84.270302, 37.914912], [-84.336025, 37.893004], [-84.286733, 38.068266], [-84.078609, 38.117559]]]}}, {"type": "Feature", "properties": {"name": "Republic", "id": "20157", "FIPS": "20157", "FIPS State": 20, "ST": "KS", "County": "Republic County,KS", "State": "Kansas"}, "geometry": {"type": "Polygon", "coordinates": [[[-97.875022, 40.001626], [-97.820252, 40.001626], [-97.371143, 40.001626], [-97.371143, 39.656579], [-97.69976, 39.656579], [-97.929791, 39.656579], [-97.929791, 40.001626], [-97.875022, 40.001626]]]}}, {"type": "Feature", "properties": {"name": "Montmorency", "id": "26119", "FIPS": "26119", "FIPS State": 26, "ST": "MI", "County": "Montmorency County,MI", "State": "Michigan"}, "geometry": {"type": "Polygon", "coordinates": [[[-84.199102, 45.199243], [-83.881439, 45.204719], [-83.886916, 44.854195], [-83.952639, 44.854195], [-84.374364, 44.854195], [-84.368887, 45.199243], [-84.248394, 45.199243], [-84.199102, 45.199243]]]}}, {"type": "Feature", "properties": {"name": "West Feliciana", "id": "22125", "FIPS": "22125", "FIPS State": 22, "ST": "LA", "County": "West Feliciana County,LA", "State": "Louisiana"}, "geometry": {"type": "MultiPolygon", "coordinates": [[[[-91.724418, 31.046829], [-91.658695, 30.992059], [-91.751803, 31.019444], [-91.724418, 31.046829]]], [[[-91.636787, 30.997536], [-91.176724, 30.997536], [-91.302693, 30.652489], [-91.330078, 30.657966], [-91.664172, 30.970151], [-91.636787, 30.997536]]]]}}, {"type": "Feature", "properties": {"name": "Mitchell", "id": "20123", "FIPS": "20123", "FIPS State": 20, "ST": "KS", "County": "Mitchell County,KS", "State": "Kansas"}, "geometry": {"type": "Polygon", "coordinates": [[[-98.488439, 39.568948], [-97.929791, 39.568948], [-97.929791, 39.306055], [-97.929791, 39.218424], [-98.477485, 39.218424], [-98.488439, 39.218424], [-98.488439, 39.568948]]]}}, {"type": "Feature", "properties": {"name": "Hubbard", "id": "27057", "FIPS": "27057", "FIPS State": 27, "ST": "MN", "County": "Hubbard County,MN", "State": "Minnesota"}, "geometry": {"type": "Polygon", "coordinates": [[[-95.185844, 47.411926], [-94.671012, 47.411926], [-94.786028, 46.803986], [-95.037967, 46.803986], [-95.163936, 46.803986], [-95.169413, 47.15451], [-95.185844, 47.411926]]]}}, {"type": "Feature", "properties": {"name": "Gogebic", "id": "26053", "FIPS": "26053", "FIPS State": 26, "ST": "MI", "County": "Gogebic County,MI", "State": "Michigan"}, "geometry": {"type": "Polygon", "coordinates": [[[-89.889643, 46.765647], [-89.741765, 46.502754], [-88.991425, 46.332969], [-88.991425, 46.097461], [-89.927981, 46.300108], [-90.415429, 46.568478], [-89.889643, 46.765647]]]}}, {"type": "Feature", "properties": {"name": "Calloway", "id": "21035", "FIPS": "21035", "FIPS State": 21, "ST": "KY", "County": "Calloway County,KY", "State": "Kentucky"}, "geometry": {"type": "Polygon", "coordinates": [[[-88.109637, 36.748324], [-88.071299, 36.677123], [-88.054868, 36.496384], [-88.487546, 36.501861], [-88.487546, 36.748324], [-88.109637, 36.748324]]]}}, {"type": "Feature", "properties": {"name": "Acadia", "id": "22001", "FIPS": "22001", "FIPS State": 22, "ST": "LA", "County": "Acadia County,LA", "State": "Louisiana"}, "geometry": {"type": "Polygon", "coordinates": [[[-92.63359, 30.482704], [-92.49119, 30.482704], [-92.140665, 30.296488], [-92.283066, 30.14861], [-92.628113, 30.093841], [-92.63359, 30.482704]]]}}, {"type": "Feature", "properties": {"name": "Johnson", "id": "21115", "FIPS": "21115", "FIPS State": 21, "ST": "KY", "County": "Johnson County,KY", "State": "Kentucky"}, "geometry": {"type": "Polygon", "coordinates": [[[-82.851774, 37.975158], [-82.610789, 37.876573], [-82.638174, 37.717742], [-82.786051, 37.745127], [-82.939406, 37.717742], [-83.005129, 37.860142], [-82.988698, 37.964204], [-82.851774, 37.975158]]]}}, {"type": "Feature", "properties": {"name": "Glacier", "id": "30035", "FIPS": "30035", "FIPS State": 30, "ST": "MT", "County": "Glacier County,MT", "State": "Montana"}, "geometry": {"type": "Polygon", "coordinates": [[[-112.191744, 49.000239], [-112.186267, 48.47993], [-112.57513, 48.485407], [-113.347378, 48.310145], [-114.070335, 49.000239], [-112.191744, 49.000239]]]}}, {"type": "Feature", "properties": {"name": "Roseau", "id": "27135", "FIPS": "27135", "FIPS State": 27, "ST": "MN", "County": "Roseau County,MN", "State": "Minnesota"}, "geometry": {"type": "Polygon", "coordinates": [[[-95.322768, 49.000239], [-95.344675, 48.540176], [-95.602092, 48.540176], [-96.259324, 48.545653], [-96.385294, 48.545653], [-96.407202, 49.000239], [-95.322768, 49.000239]]]}}, {"type": "Feature", "properties": {"name": "Wharton", "id": "48481", "FIPS": "48481", "FIPS State": 48, "ST": "TX", "County": "Wharton County,TX", "State": "Texas"}, "geometry": {"type": "Polygon", "coordinates": [[[-96.17717, 29.633778], [-96.089539, 29.600916], [-95.848554, 29.261346], [-95.875939, 29.228484], [-96.308617, 28.965591], [-96.64271, 29.250392], [-96.17717, 29.633778]]]}}, {"type": "Feature", "properties": {"name": "Van Zandt", "id": "48467", "FIPS": "48467", "FIPS State": 48, "ST": "TX", "County": "Van Zandt County,TX", "State": "Texas"}, "geometry": {"type": "Polygon", "coordinates": [[[-96.062155, 32.837788], [-95.936185, 32.837788], [-95.634953, 32.722772], [-95.596615, 32.684434], [-95.448737, 32.355817], [-96.078585, 32.355817], [-96.078585, 32.837788], [-96.062155, 32.837788]]]}}, {"type": "Feature", "properties": {"name": "Upshur", "id": "48459", "FIPS": "48459", "FIPS State": 48, "ST": "TX", "County": "Upshur County,TX", "State": "Texas"}, "geometry": {"type": "Polygon", "coordinates": [[[-94.780551, 32.903511], [-94.720304, 32.903511], [-94.703873, 32.881604], [-94.703873, 32.793973], [-94.703873, 32.651572], [-94.988674, 32.536556], [-95.152983, 32.569418], [-95.152983, 32.903511], [-94.780551, 32.903511]]]}}, {"type": "Feature", "properties": {"name": "Titus", "id": "48449", "FIPS": "48449", "FIPS State": 48, "ST": "TX", "County": "Titus County,TX", "State": "Texas"}, "geometry": {"type": "Polygon", "coordinates": [[[-94.807935, 33.363574], [-94.818889, 32.980189], [-95.125598, 33.034958], [-95.125598, 33.390959], [-94.807935, 33.363574]]]}}, {"type": "Feature", "properties": {"name": "Terry", "id": "48445", "FIPS": "48445", "FIPS State": 48, "ST": "TX", "County": "Terry County,TX", "State": "Texas"}, "geometry": {"type": "Polygon", "coordinates": [[[-102.366113, 33.390959], [-102.075835, 33.390959], [-102.075835, 32.958281], [-102.207282, 32.958281], [-102.596144, 32.958281], [-102.596144, 33.390959], [-102.366113, 33.390959]]]}}, {"type": "Feature", "properties": {"name": "Nolan", "id": "48353", "FIPS": "48353", "FIPS State": 48, "ST": "TX", "County": "Nolan County,TX", "State": "Texas"}, "geometry": {"type": "Polygon", "coordinates": [[[-100.147952, 32.520126], [-100.153429, 32.08197], [-100.235583, 32.08197], [-100.662785, 32.087447], [-100.662785, 32.525602], [-100.147952, 32.520126]]]}}, {"type": "Feature", "properties": {"name": "Moore", "id": "48341", "FIPS": "48341", "FIPS State": 48, "ST": "TX", "County": "Moore County,TX", "State": "Texas"}, "geometry": {"type": "Polygon", "coordinates": [[[-102.125128, 36.058229], [-101.621249, 36.052752], [-101.621249, 35.625551], [-101.621249, 35.620074], [-101.659588, 35.620074], [-102.163466, 35.620074], [-102.163466, 35.625551], [-102.163466, 36.052752], [-102.125128, 36.058229]]]}}, {"type": "Feature", "properties": {"name": "Liberty", "id": "48291", "FIPS": "48291", "FIPS State": 48, "ST": "TX", "County": "Liberty County,TX", "State": "Texas"}, "geometry": {"type": "Polygon", "coordinates": [[[-94.851751, 30.493658], [-94.731258, 30.488181], [-94.446457, 30.110272], [-94.44098, 29.891194], [-94.97772, 29.885717], [-95.098213, 30.165041], [-95.163936, 30.34578], [-94.851751, 30.493658]]]}}, {"type": "Feature", "properties": {"name": "Jim Wells", "id": "48249", "FIPS": "48249", "FIPS State": 48, "ST": "TX", "County": "Jim Wells County,TX", "State": "Texas"}, "geometry": {"type": "Polygon", "coordinates": [[[-98.2365, 28.056419], [-97.880499, 28.056419], [-97.798345, 27.996173], [-97.940745, 27.634695], [-98.011945, 27.634695], [-98.055761, 27.262263], [-98.231023, 27.262263], [-98.2365, 28.056419]]]}}, {"type": "Feature", "properties": {"name": "Jackson", "id": "48239", "FIPS": "48239", "FIPS State": 48, "ST": "TX", "County": "Jackson County,TX", "State": "Texas"}, "geometry": {"type": "Polygon", "coordinates": [[[-96.659141, 29.261346], [-96.64271, 29.250392], [-96.308617, 28.965591], [-96.325048, 28.675313], [-96.576987, 28.708175], [-96.576987, 28.702698], [-96.64271, 28.713652], [-96.938465, 29.064176], [-96.659141, 29.261346]]]}}, {"type": "Feature", "properties": {"name": "Hopkins", "id": "48223", "FIPS": "48223", "FIPS State": 48, "ST": "TX", "County": "Hopkins County,TX", "State": "Texas"}, "geometry": {"type": "Polygon", "coordinates": [[[-95.492553, 33.35262], [-95.306337, 33.374528], [-95.306337, 32.963758], [-95.667815, 32.958281], [-95.864985, 32.980189], [-95.859508, 33.221174], [-95.492553, 33.35262]]]}}, {"type": "Feature", "properties": {"name": "Henderson", "id": "48213", "FIPS": "48213", "FIPS State": 48, "ST": "TX", "County": "Henderson County,TX", "State": "Texas"}, "geometry": {"type": "Polygon", "coordinates": [[[-96.215509, 32.361294], [-96.078585, 32.355817], [-95.448737, 32.355817], [-95.459691, 32.13674], [-95.42683, 32.08197], [-96.051201, 32.005293], [-96.056678, 32.01077], [-96.385294, 32.328433], [-96.451017, 32.361294], [-96.215509, 32.361294]]]}}, {"type": "Feature", "properties": {"name": "Harrison", "id": "48203", "FIPS": "48203", "FIPS State": 48, "ST": "TX", "County": "Harrison County,TX", "State": "Texas"}, "geometry": {"type": "Polygon", "coordinates": [[[-94.703873, 32.793973], [-94.041164, 32.695388], [-94.041164, 32.394156], [-94.462888, 32.377725], [-94.490273, 32.394156], [-94.577904, 32.394156], [-94.703873, 32.651572], [-94.703873, 32.793973]]]}}, {"type": "Feature", "properties": {"name": "Young", "id": "48503", "FIPS": "48503", "FIPS State": 48, "ST": "TX", "County": "Young County,TX", "State": "Texas"}, "geometry": {"type": "Polygon", "coordinates": [[[-98.953979, 33.396436], [-98.422716, 33.396436], [-98.428193, 33.007573], [-98.57607, 32.952804], [-98.762286, 32.958281], [-98.948502, 32.958281], [-98.953979, 33.396436]]]}}, {"type": "Feature", "properties": {"name": "Grimes", "id": "48185", "FIPS": "48185", "FIPS State": 48, "ST": "TX", "County": "Grimes County,TX", "State": "Texas"}, "geometry": {"type": "Polygon", "coordinates": [[[-96.166217, 30.822274], [-95.864985, 30.86609], [-95.832123, 30.630581], [-95.804738, 30.247195], [-95.821169, 30.247195], [-96.095016, 30.225288], [-96.155263, 30.329349], [-96.166217, 30.822274]]]}}, {"type": "Feature", "properties": {"name": "Erath", "id": "48143", "FIPS": "48143", "FIPS State": 48, "ST": "TX", "County": "Erath County,TX", "State": "Texas"}, "geometry": {"type": "Polygon", "coordinates": [[[-98.066715, 32.509172], [-97.946222, 32.235325], [-97.864068, 32.087447], [-98.006468, 32.016247], [-98.209115, 31.917662], [-98.548686, 32.262709], [-98.477485, 32.514649], [-98.066715, 32.509172]]]}}, {"type": "Feature", "properties": {"name": "Comanche", "id": "48093", "FIPS": "48093", "FIPS State": 48, "ST": "TX", "County": "Comanche County,TX", "State": "Texas"}, "geometry": {"type": "Polygon", "coordinates": [[[-98.548686, 32.262709], [-98.209115, 31.917662], [-98.461055, 31.682154], [-98.669178, 31.698584], [-98.926594, 32.076493], [-98.548686, 32.262709]]]}}, {"type": "Feature", "properties": {"name": "Bee", "id": "48025", "FIPS": "48025", "FIPS State": 48, "ST": "TX", "County": "Bee County,TX", "State": "Texas"}, "geometry": {"type": "Polygon", "coordinates": [[[-97.935268, 28.713652], [-97.776437, 28.669836], [-97.37662, 28.390513], [-97.540929, 28.165958], [-97.820252, 28.176912], [-98.006468, 28.691744], [-97.935268, 28.713652]]]}}, {"type": "Feature", "properties": {"name": "Morgan", "id": "47129", "FIPS": "47129", "FIPS State": 47, "ST": "TN", "County": "Morgan County,TN", "State": "Tennessee"}, "geometry": {"type": "Polygon", "coordinates": [[[-84.724888, 36.375892], [-84.70298, 36.370415], [-84.440087, 36.162291], [-84.341502, 36.047275], [-84.681073, 35.910352], [-84.905627, 36.156814], [-84.724888, 36.375892]]]}}, {"type": "Feature", "properties": {"name": "Monroe", "id": "47123", "FIPS": "47123", "FIPS State": 47, "ST": "TN", "County": "Monroe County,TN", "State": "Tennessee"}, "geometry": {"type": "Polygon", "coordinates": [[[-84.43461, 35.669366], [-84.188148, 35.60912], [-83.963593, 35.461243], [-84.029317, 35.291457], [-84.29221, 35.209303], [-84.494857, 35.28598], [-84.522241, 35.60912], [-84.522241, 35.620074], [-84.527718, 35.625551], [-84.43461, 35.669366]]]}}, {"type": "Feature", "properties": {"name": "Meigs", "id": "47121", "FIPS": "47121", "FIPS State": 47, "ST": "TN", "County": "Meigs County,TN", "State": "Tennessee"}, "geometry": {"type": "Polygon", "coordinates": [[[-84.620826, 35.641982], [-84.861812, 35.351704], [-84.872765, 35.357181], [-84.943966, 35.28598], [-85.015166, 35.41195], [-84.724888, 35.75152], [-84.620826, 35.641982]]]}}, {"type": "Feature", "properties": {"name": "Macon", "id": "47111", "FIPS": "47111", "FIPS State": 47, "ST": "TN", "County": "Macon County,TN", "State": "Tennessee"}, "geometry": {"type": "Polygon", "coordinates": [[[-86.203662, 36.638785], [-85.979107, 36.627831], [-85.787415, 36.622354], [-85.814799, 36.501861], [-85.825753, 36.41423], [-85.979107, 36.425184], [-86.231047, 36.48543], [-86.203662, 36.638785]]]}}, {"type": "Feature", "properties": {"name": "Fentress", "id": "47049", "FIPS": "47049", "FIPS State": 47, "ST": "TN", "County": "Fentress County,TN", "State": "Tennessee"}, "geometry": {"type": "Polygon", "coordinates": [[[-85.009689, 36.567584], [-84.730365, 36.523769], [-84.70298, 36.370415], [-84.724888, 36.375892], [-84.905627, 36.156814], [-84.987781, 36.162291], [-85.102797, 36.140383], [-85.119228, 36.14586], [-85.119228, 36.408753], [-85.009689, 36.567584]]]}}, {"type": "Feature", "properties": {"name": "Cumberland", "id": "47035", "FIPS": "47035", "FIPS State": 47, "ST": "TN", "County": "Cumberland County,TN", "State": "Tennessee"}, "geometry": {"type": "Polygon", "coordinates": [[[-84.987781, 36.162291], [-84.905627, 36.156814], [-84.681073, 35.910352], [-84.779657, 35.822721], [-84.916581, 35.762474], [-85.256151, 35.767951], [-85.256151, 35.767951], [-85.272582, 35.789859], [-85.267105, 35.795336], [-85.261628, 35.981552], [-85.102797, 36.140383], [-84.987781, 36.162291]]]}}, {"type": "Feature", "properties": {"name": "Crockett", "id": "47033", "FIPS": "47033", "FIPS State": 47, "ST": "TN", "County": "Crockett County,TN", "State": "Tennessee"}, "geometry": {"type": "Polygon", "coordinates": [[[-89.188594, 35.997983], [-88.914747, 35.795336], [-89.068102, 35.691274], [-89.341949, 35.789859], [-89.35838, 35.817244], [-89.341949, 35.882967], [-89.188594, 35.997983], [-89.188594, 35.997983]]]}}, {"type": "Feature", "properties": {"name": "Cocke", "id": "47029", "FIPS": "47029", "FIPS State": 47, "ST": "TN", "County": "Cocke County,TN", "State": "Tennessee"}, "geometry": {"type": "Polygon", "coordinates": [[[-83.16396, 36.178722], [-82.901067, 35.943213], [-82.961313, 35.789859], [-83.257068, 35.713182], [-83.311837, 35.893921], [-83.23516, 36.085614], [-83.16396, 36.178722]]]}}, {"type": "Feature", "properties": {"name": "Yankton", "id": "46135", "FIPS": "46135", "FIPS State": 46, "ST": "SD", "County": "Yankton County,SD", "State": "South Dakota"}, "geometry": {"type": "Polygon", "coordinates": [[[-97.343759, 43.167298], [-97.157543, 43.085144], [-97.16302, 42.800343], [-97.486159, 42.849635], [-97.634037, 42.849635], [-97.639513, 43.167298], [-97.398528, 43.167298], [-97.343759, 43.167298]]]}}, {"type": "Feature", "properties": {"name": "Potter", "id": "46107", "FIPS": "46107", "FIPS State": 46, "ST": "SD", "County": "Potter County,SD", "State": "South Dakota"}, "geometry": {"type": "Polygon", "coordinates": [[[-100.257491, 45.248535], [-99.709797, 45.243058], [-99.572873, 45.243058], [-99.572873, 44.898011], [-99.676935, 44.898011], [-100.405368, 44.898011], [-100.257491, 45.248535]]]}}, {"type": "Feature", "properties": {"name": "Gray", "id": "48179", "FIPS": "48179", "FIPS State": 48, "ST": "TX", "County": "Gray County,TX", "State": "Texas"}, "geometry": {"type": "Polygon", "coordinates": [[[-101.084509, 35.620074], [-100.542292, 35.620074], [-100.536815, 35.181919], [-100.969493, 35.181919], [-101.084509, 35.181919], [-101.084509, 35.620074]]]}}, {"type": "Feature", "properties": {"name": "Jerauld", "id": "46073", "FIPS": "46073", "FIPS State": 46, "ST": "SD", "County": "Jerauld County,SD", "State": "South Dakota"}, "geometry": {"type": "Polygon", "coordinates": [[[-98.691086, 44.196962], [-98.329608, 44.196962], [-98.329608, 43.939546], [-98.806102, 43.934069], [-98.926594, 43.934069], [-98.926594, 44.196962], [-98.70204, 44.196962], [-98.691086, 44.196962]]]}}, {"type": "Feature", "properties": {"name": "Sanpete", "id": "49039", "FIPS": "49039", "FIPS State": 49, "ST": "UT", "County": "Sanpete County,UT", "State": "Utah"}, "geometry": {"type": "Polygon", "coordinates": [[[-111.556419, 39.81541], [-111.24971, 39.81541], [-111.24971, 39.705871], [-111.299003, 39.032208], [-111.978143, 39.043162], [-112.016482, 39.043162], [-112.016482, 39.317009], [-111.64405, 39.81541], [-111.556419, 39.81541]]]}}, {"type": "Feature", "properties": {"name": "Addison", "id": "50001", "FIPS": "50001", "FIPS State": 50, "ST": "VT", "County": "Addison County,VT", "State": "Vermont"}, "geometry": {"type": "Polygon", "coordinates": [[[-73.22879, 44.262686], [-72.954943, 44.164101], [-72.741343, 44.027177], [-72.790635, 43.961454], [-72.96042, 43.82453], [-73.365714, 43.75333], [-73.376668, 43.8081], [-73.310944, 44.262686], [-73.22879, 44.262686]]]}}, {"type": "Feature", "properties": {"name": "Vernon", "id": "55123", "FIPS": "55123", "FIPS State": 55, "ST": "WI", "County": "Vernon County,WI", "State": "Wisconsin"}, "geometry": {"type": "Polygon", "coordinates": [[[-90.311367, 43.731422], [-90.311367, 43.638314], [-90.311367, 43.55616], [-90.667368, 43.424714], [-90.9686, 43.424714], [-91.204109, 43.424714], [-91.215062, 43.501391], [-91.258878, 43.725946], [-90.908354, 43.725946], [-90.311367, 43.731422]]]}}, {"type": "Feature", "properties": {"name": "Rusk", "id": "55107", "FIPS": "55107", "FIPS State": 55, "ST": "WI", "County": "Rusk County,WI", "State": "Wisconsin"}, "geometry": {"type": "Polygon", "coordinates": [[[-90.678322, 45.637398], [-90.678322, 45.379982], [-90.924785, 45.29235], [-91.089093, 45.29235], [-91.543679, 45.29235], [-91.538202, 45.637398], [-90.678322, 45.637398]]]}}, {"type": "Feature", "properties": {"name": "Price", "id": "55099", "FIPS": "55099", "FIPS State": 55, "ST": "WI", "County": "Price County,WI", "State": "Wisconsin"}, "geometry": {"type": "Polygon", "coordinates": [[[-90.300413, 45.982445], [-90.042997, 45.982445], [-90.042997, 45.894814], [-90.042997, 45.555244], [-90.042997, 45.379982], [-90.168967, 45.379982], [-90.678322, 45.379982], [-90.678322, 45.637398], [-90.678322, 45.982445], [-90.300413, 45.982445]]]}}, {"type": "Feature", "properties": {"name": "Oconto", "id": "55083", "FIPS": "55083", "FIPS State": 55, "ST": "WI", "County": "Oconto County,WI", "State": "Wisconsin"}, "geometry": {"type": "Polygon", "coordinates": [[[-88.4273, 45.374505], [-87.76459, 44.963734], [-87.989145, 44.678933], [-88.235607, 44.678933], [-88.241084, 44.678933], [-88.487546, 44.854195], [-88.6409, 45.117088], [-88.679239, 45.379982], [-88.4273, 45.374505]]]}}, {"type": "Feature", "properties": {"name": "Langlade", "id": "55067", "FIPS": "55067", "FIPS State": 55, "ST": "WI", "County": "Langlade County,WI", "State": "Wisconsin"}, "geometry": {"type": "Polygon", "coordinates": [[[-89.237887, 45.467613], [-89.046194, 45.462136], [-88.679239, 45.379982], [-88.6409, 45.117088], [-88.974994, 45.117088], [-88.980471, 45.029457], [-88.991425, 45.029457], [-89.221456, 45.029457], [-89.424103, 45.117088], [-89.424103, 45.467613], [-89.237887, 45.467613]]]}}, {"type": "Feature", "properties": {"name": "Juneau", "id": "55057", "FIPS": "55057", "FIPS State": 55, "ST": "WI", "County": "Juneau County,WI", "State": "Wisconsin"}, "geometry": {"type": "Polygon", "coordinates": [[[-90.081336, 44.246255], [-89.900597, 44.251732], [-89.785581, 43.638314], [-90.294936, 43.643791], [-90.311367, 43.638314], [-90.311367, 43.731422], [-90.311367, 44.153147], [-90.311367, 44.246255], [-90.081336, 44.246255]]]}}, {"type": "Feature", "properties": {"name": "Jackson", "id": "55053", "FIPS": "55053", "FIPS State": 55, "ST": "WI", "County": "Jackson County,WI", "State": "Wisconsin"}, "geometry": {"type": "Polygon", "coordinates": [[[-91.16577, 44.596779], [-90.924785, 44.596779], [-90.316844, 44.426994], [-90.311367, 44.246255], [-90.311367, 44.153147], [-90.492106, 44.158624], [-90.974077, 44.070993], [-91.149339, 44.081947], [-91.16577, 44.596779]]]}}, {"type": "Feature", "properties": {"name": "Buffalo", "id": "55011", "FIPS": "55011", "FIPS State": 55, "ST": "WI", "County": "Buffalo County,WI", "State": "Wisconsin"}, "geometry": {"type": "Polygon", "coordinates": [[[-91.647741, 44.596779], [-91.527248, 44.596779], [-91.56011, 44.027177], [-91.855864, 44.191485], [-92.085896, 44.405086], [-91.647741, 44.596779]]]}}, {"type": "Feature", "properties": {"name": "Tucker", "id": "54093", "FIPS": "54093", "FIPS State": 54, "ST": "WV", "County": "Tucker County,WV", "State": "West Virginia"}, "geometry": {"type": "Polygon", "coordinates": [[[-79.812073, 39.229378], [-79.488933, 39.196516], [-79.357487, 38.966484], [-79.757303, 39.032208], [-79.823026, 39.114362], [-79.812073, 39.229378]]]}}, {"type": "Feature", "properties": {"name": "Taylor", "id": "54091", "FIPS": "54091", "FIPS State": 54, "ST": "WV", "County": "Taylor County,WV", "State": "West Virginia"}, "geometry": {"type": "Polygon", "coordinates": [[[-79.938042, 39.453932], [-79.894227, 39.437501], [-79.894227, 39.300578], [-79.976381, 39.262239], [-80.168074, 39.240331], [-80.195458, 39.393686], [-79.938042, 39.453932]]]}}, {"type": "Feature", "properties": {"name": "Randolph", "id": "54083", "FIPS": "54083", "FIPS State": 54, "ST": "WV", "County": "Randolph County,WV", "State": "West Virginia"}, "geometry": {"type": "Polygon", "coordinates": [[[-79.757303, 39.032208], [-79.357487, 38.966484], [-79.35201, 38.95553], [-79.625857, 38.665253], [-80.244751, 38.385929], [-80.277612, 38.692637], [-80.08592, 38.944577], [-79.823026, 39.114362], [-79.757303, 39.032208]]]}}, {"type": "Feature", "properties": {"name": "Mingo", "id": "54059", "FIPS": "54059", "FIPS State": 54, "ST": "WV", "County": "Mingo County,WV", "State": "West Virginia"}, "geometry": {"type": "Polygon", "coordinates": [[[-82.30408, 37.942297], [-82.189065, 37.975158], [-81.800202, 37.662973], [-81.854971, 37.547957], [-81.926172, 37.509618], [-81.969987, 37.537003], [-82.145249, 37.569865], [-82.331465, 37.73965], [-82.413619, 37.854665], [-82.30408, 37.942297]]]}}, {"type": "Feature", "properties": {"name": "Mason", "id": "54053", "FIPS": "54053", "FIPS State": 54, "ST": "WV", "County": "Mason County,WV", "State": "West Virginia"}, "geometry": {"type": "Polygon", "coordinates": [[[-81.909741, 38.878853], [-81.772817, 38.681683], [-82.057618, 38.47356], [-82.216449, 38.594052], [-82.101434, 38.95553], [-81.909741, 38.878853]]]}}, {"type": "Feature", "properties": {"name": "Wasatch", "id": "49051", "FIPS": "49051", "FIPS State": 49, "ST": "UT", "County": "Wasatch County,UT", "State": "Utah"}, "geometry": {"type": "Polygon", "coordinates": [[[-111.430449, 40.686244], [-110.904663, 40.680767], [-110.893709, 39.897564], [-111.594758, 40.576705], [-111.550942, 40.609566], [-111.430449, 40.686244]]]}}, {"type": "Feature", "properties": {"name": "Jackson", "id": "54035", "FIPS": "54035", "FIPS State": 54, "ST": "WV", "County": "Jackson County,WV", "State": "West Virginia"}, "geometry": {"type": "Polygon", "coordinates": [[[-81.739956, 39.092454], [-81.581124, 39.026731], [-81.504447, 38.917192], [-81.520878, 38.610483], [-81.69614, 38.626914], [-81.772817, 38.681683], [-81.909741, 38.878853], [-81.745433, 39.097931], [-81.739956, 39.092454]]]}}, {"type": "Feature", "properties": {"name": "Greenbrier", "id": "54025", "FIPS": "54025", "FIPS State": 54, "ST": "WV", "County": "Greenbrier County,WV", "State": "West Virginia"}, "geometry": {"type": "Polygon", "coordinates": [[[-80.414536, 38.254482], [-80.359767, 38.227097], [-79.95995, 38.062789], [-80.058535, 37.95325], [-80.294043, 37.690357], [-80.660998, 37.734173], [-80.808876, 37.871096], [-80.880076, 38.101128], [-80.436444, 38.265436], [-80.414536, 38.254482]]]}}, {"type": "Feature", "properties": {"name": "Cabell", "id": "54011", "FIPS": "54011", "FIPS State": 54, "ST": "WV", "County": "Cabell County,WV", "State": "West Virginia"}, "geometry": {"type": "Polygon", "coordinates": [[[-82.265742, 38.599529], [-82.216449, 38.594052], [-82.057618, 38.47356], [-82.046664, 38.374975], [-82.265742, 38.227097], [-82.506727, 38.413313], [-82.28765, 38.583099], [-82.265742, 38.599529]]]}}, {"type": "Feature", "properties": {"name": "Grant", "id": "53025", "FIPS": "53025", "FIPS State": 53, "ST": "WA", "County": "Grant County,WA", "State": "Washington"}, "geometry": {"type": "Polygon", "coordinates": [[[-119.213182, 47.861036], [-118.98315, 47.95962], [-118.972196, 47.94319], [-118.977673, 47.264049], [-119.372013, 46.738263], [-119.454167, 46.678016], [-119.875891, 46.628724], [-119.875891, 46.628724], [-119.974476, 46.738263], [-120.007338, 47.220233], [-119.213182, 47.861036]]]}}, {"type": "Feature", "properties": {"name": "Tazewell", "id": "51185", "FIPS": "51185", "FIPS State": 51, "ST": "VA", "County": "Tazewell County,VA", "State": "Virginia"}, "geometry": {"type": "Polygon", "coordinates": [[[-81.373001, 37.323402], [-81.362047, 37.339833], [-81.225123, 37.235771], [-81.438724, 37.011217], [-81.477062, 36.989309], [-81.778294, 36.956447], [-81.898787, 37.142663], [-81.739956, 37.241248], [-81.373001, 37.323402]]]}}, {"type": "Feature", "properties": {"name": "Scott", "id": "51169", "FIPS": "51169", "FIPS State": 51, "ST": "VA", "County": "Scott County,VA", "State": "Virginia"}, "geometry": {"type": "Polygon", "coordinates": [[[-82.479343, 36.885247], [-82.408142, 36.874293], [-82.331465, 36.709985], [-82.293127, 36.594969], [-82.610789, 36.594969], [-82.654605, 36.594969], [-82.829867, 36.594969], [-82.983221, 36.594969], [-82.76962, 36.797616], [-82.479343, 36.885247]]]}}, {"type": "Feature", "properties": {"name": "Rockingham", "id": "51165", "FIPS": "51165", "FIPS State": 51, "ST": "VA", "County": "Rockingham County,VA", "State": "Virginia"}, "geometry": {"type": "Polygon", "coordinates": [[[-78.990532, 38.845992], [-78.870039, 38.763838], [-78.640007, 38.605006], [-78.486653, 38.41879], [-78.661915, 38.27639], [-78.749546, 38.20519], [-79.22604, 38.479037], [-79.056255, 38.763838], [-78.990532, 38.845992]]]}}, {"type": "Feature", "properties": {"name": "Prince George", "id": "51149", "FIPS": "51149", "FIPS State": 51, "ST": "VA", "County": "Prince George County,VA", "State": "Virginia"}, "geometry": {"type": "Polygon", "coordinates": [[[-77.281726, 37.312448], [-77.270772, 37.323402], [-76.975017, 37.246725], [-77.155756, 37.109802], [-77.396742, 36.994786], [-77.396742, 37.170048], [-77.374834, 37.246725], [-77.336496, 37.312448], [-77.281726, 37.312448]]]}}, {"type": "Feature", "properties": {"name": "Orange", "id": "51137", "FIPS": "51137", "FIPS State": 51, "ST": "VA", "County": "Orange County,VA", "State": "Virginia"}, "geometry": {"type": "Polygon", "coordinates": [[[-77.895143, 38.391406], [-77.703451, 38.358544], [-77.95539, 38.117559], [-78.207329, 38.133989], [-78.371637, 38.183282], [-78.289483, 38.270913], [-78.092313, 38.309252], [-77.895143, 38.391406]]]}}, {"type": "Feature", "properties": {"name": "Northumberland", "id": "51133", "FIPS": "51133", "FIPS State": 51, "ST": "VA", "County": "Northumberland County,VA", "State": "Virginia"}, "geometry": {"type": "Polygon", "coordinates": [[[-76.317785, 37.679403], [-76.48757, 37.838235], [-76.509478, 37.838235], [-76.635447, 37.964204], [-76.520431, 38.035405], [-76.317785, 37.679403]]]}}, {"type": "Feature", "properties": {"name": "Gloucester", "id": "51073", "FIPS": "51073", "FIPS State": 51, "ST": "VA", "County": "Gloucester County,VA", "State": "Virginia"}, "geometry": {"type": "Polygon", "coordinates": [[[-76.62997, 37.591772], [-76.438277, 37.515095], [-76.405416, 37.400079], [-76.498524, 37.241248], [-76.657355, 37.378172], [-76.712124, 37.432941], [-76.651878, 37.602726], [-76.62997, 37.591772]]]}}, {"type": "Feature", "properties": {"name": "Floyd", "id": "51063", "FIPS": "51063", "FIPS State": 51, "ST": "VA", "County": "Floyd County,VA", "State": "Virginia"}, "geometry": {"type": "Polygon", "coordinates": [[[-80.129735, 37.120755], [-80.233797, 36.874293], [-80.463828, 36.709985], [-80.633614, 36.929063], [-80.545983, 36.983832], [-80.179028, 37.115279], [-80.129735, 37.120755]]]}}, {"type": "Feature", "properties": {"name": "Accomack", "id": "51001", "FIPS": "51001", "FIPS State": 51, "ST": "VA", "County": "Accomack County,VA", "State": "Virginia"}, "geometry": {"type": "MultiPolygon", "coordinates": [[[[-75.397659, 38.013497], [-75.244304, 38.029928], [-75.666029, 37.465803], [-75.939876, 37.547957], [-75.671506, 37.95325], [-75.622213, 37.991589], [-75.397659, 38.013497]]], [[[-76.016553, 37.95325], [-75.994645, 37.95325], [-76.043938, 37.95325], [-76.016553, 37.95325]]]]}}, {"type": "Feature", "properties": {"name": "Franklin", "id": "50011", "FIPS": "50011", "FIPS State": 50, "ST": "VT", "County": "Franklin County,VT", "State": "Vermont"}, "geometry": {"type": "Polygon", "coordinates": [[[-72.555127, 45.00755], [-72.577034, 44.782995], [-72.675619, 44.793949], [-72.922082, 44.635118], [-73.22879, 44.722749], [-73.190452, 45.013027], [-72.555127, 45.00755]]]}}, {"type": "Feature", "properties": {"name": "Hardy", "id": "54031", "FIPS": "54031", "FIPS State": 54, "ST": "WV", "County": "Hardy County,WV", "State": "West Virginia"}, "geometry": {"type": "Polygon", "coordinates": [[[-78.979578, 39.240331], [-78.508561, 39.086977], [-78.541422, 39.054115], [-78.870039, 38.763838], [-78.990532, 38.845992], [-79.056255, 38.763838], [-79.132932, 38.81313], [-78.979578, 39.240331]]]}}, {"type": "Feature", "properties": {"name": "Faulk", "id": "46049", "FIPS": "46049", "FIPS State": 46, "ST": "SD", "County": "Faulk County,SD", "State": "South Dakota"}, "geometry": {"type": "Polygon", "coordinates": [[[-99.572873, 45.243058], [-98.723948, 45.243058], [-98.718471, 45.243058], [-98.718471, 44.898011], [-99.30998, 44.898011], [-99.572873, 44.898011], [-99.572873, 45.243058]]]}}, {"type": "Feature", "properties": {"name": "Brookings", "id": "46011", "FIPS": "46011", "FIPS State": 46, "ST": "SD", "County": "Brookings County,SD", "State": "South Dakota"}, "geometry": {"type": "Polygon", "coordinates": [[[-96.451017, 44.54201], [-96.451017, 44.196962], [-96.648187, 44.196962], [-96.889173, 44.196962], [-97.130158, 44.196962], [-97.130158, 44.54201], [-96.883696, 44.54201], [-96.451017, 44.54201]]]}}, {"type": "Feature", "properties": {"name": "Union", "id": "45087", "FIPS": "45087", "FIPS State": 45, "ST": "SC", "County": "Union County,SC", "State": "South Carolina"}, "geometry": {"type": "Polygon", "coordinates": [[[-81.712571, 34.913548], [-81.712571, 34.913548], [-81.455155, 34.836871], [-81.477062, 34.820441], [-81.422293, 34.573978], [-81.422293, 34.491824], [-81.641371, 34.53564], [-81.854971, 34.595886], [-81.712571, 34.913548]]]}}, {"type": "Feature", "properties": {"name": "Dare", "id": "37055", "FIPS": "37055", "FIPS State": 37, "ST": "NC", "County": "Dare County,NC", "State": "North Carolina"}, "geometry": {"type": "Polygon", "coordinates": [[[-75.868676, 35.581735], [-76.027507, 35.669366], [-76.000122, 35.904875], [-75.868676, 35.581735]]]}}, {"type": "Feature", "properties": {"name": "Chowan", "id": "37041", "FIPS": "37041", "FIPS State": 37, "ST": "NC", "County": "Chowan County,NC", "State": "North Carolina"}, "geometry": {"type": "Polygon", "coordinates": [[[-76.695693, 36.293737], [-76.55877, 36.353984], [-76.410893, 36.07466], [-76.668309, 36.01989], [-76.706647, 36.244445], [-76.695693, 36.293737]]]}}, {"type": "Feature", "properties": {"name": "Cherokee", "id": "37039", "FIPS": "37039", "FIPS State": 37, "ST": "NC", "County": "Cherokee County,NC", "State": "North Carolina"}, "geometry": {"type": "Polygon", "coordinates": [[[-83.7007, 35.247642], [-83.739039, 35.154534], [-84.007409, 34.984749], [-84.127902, 34.990226], [-84.319594, 34.990226], [-84.29221, 35.209303], [-84.029317, 35.291457], [-83.7007, 35.247642]]]}}, {"type": "Feature", "properties": {"name": "Avery", "id": "37011", "FIPS": "37011", "FIPS State": 37, "ST": "NC", "County": "Avery County,NC", "State": "North Carolina"}, "geometry": {"type": "Polygon", "coordinates": [[[-81.931648, 36.266353], [-81.920695, 36.288261], [-81.811156, 36.112998], [-81.805679, 35.959644], [-81.898787, 35.997983], [-81.942602, 35.959644], [-81.948079, 35.954167], [-81.980941, 35.910352], [-82.079526, 36.107521], [-81.931648, 36.266353]]]}}, {"type": "Feature", "properties": {"name": "Seneca", "id": "36099", "FIPS": "36099", "FIPS State": 36, "ST": "NY", "County": "Seneca County,NY", "State": "New York"}, "geometry": {"type": "Polygon", "coordinates": [[[-76.712124, 43.024897], [-76.668309, 42.625081], [-76.695693, 42.548403], [-76.70117, 42.548403], [-76.892863, 42.542926], [-76.975017, 42.762004], [-76.964064, 43.013943], [-76.712124, 43.024897]]]}}, {"type": "Feature", "properties": {"name": "San Miguel", "id": "35047", "FIPS": "35047", "FIPS State": 35, "ST": "NM", "County": "San Miguel County,NM", "State": "New Mexico"}, "geometry": {"type": "Polygon", "coordinates": [[[-104.365196, 35.778905], [-103.976333, 35.800813], [-103.636763, 35.390042], [-104.124211, 35.14358], [-105.290799, 35.21478], [-105.290799, 35.039518], [-105.712524, 35.039518], [-105.718001, 35.872013], [-104.365196, 35.778905]]]}}, {"type": "Feature", "properties": {"name": "Guadalupe", "id": "35019", "FIPS": "35019", "FIPS State": 35, "ST": "NM", "County": "Guadalupe County,NM", "State": "New Mexico"}, "geometry": {"type": "Polygon", "coordinates": [[[-104.124211, 35.14358], [-104.129688, 34.776625], [-104.890983, 34.60684], [-104.890983, 34.349424], [-105.312707, 34.349424], [-105.290799, 35.039518], [-105.290799, 35.21478], [-104.124211, 35.14358]]]}}]}