{"type": "FeatureCollection", "crs": {"type": "name", "properties": {"name": "urn:ogc:def:crs:OGC:1.3:CRS84"}}, "features": [{"type": "Feature", "properties": {"name": "York", "id": "42133", "FIPS": "42133", "FIPS State": 42, "ST": "PA", "County": "York County,PA", "State": "Pennsylvania"}, "geometry": {"type": "Polygon", "coordinates": [[[-76.903817, 40.220704], [-76.860002, 40.226181], [-76.723078, 40.122119], [-76.241107, 39.722302], [-76.569724, 39.722302], [-76.70117, 39.722302], [-76.788801, 39.722302], [-76.996925, 39.722302], [-77.139326, 40.067349], [-76.903817, 40.220704]]]}}, {"type": "Feature", "properties": {"name": "Collier", "id": "12021", "FIPS": "12021", "FIPS State": 12, "ST": "FL", "County": "Collier County,FL", "State": "Florida"}, "geometry": {"type": "Polygon", "coordinates": [[[-81.564693, 26.511922], [-80.880076, 26.259983], [-80.874599, 25.980659], [-80.874599, 25.805397], [-81.345616, 25.805397], [-81.679709, 25.843735], [-81.844017, 26.331183], [-81.564693, 26.511922]]]}}, {"type": "Feature", "properties": {"name": "Denton", "id": "48121", "FIPS": "48121", "FIPS State": 48, "ST": "TX", "County": "Denton County,TX", "State": "Texas"}, "geometry": {"type": "Polygon", "coordinates": [[[-97.382097, 33.429298], [-96.943942, 33.418344], [-96.834403, 33.40739], [-96.834403, 33.40739], [-96.845357, 32.985665], [-96.856311, 32.985665], [-97.031573, 32.985665], [-97.398528, 32.991142], [-97.382097, 33.429298]]]}}, {"type": "Feature", "properties": {"name": "Davidson", "id": "47037", "FIPS": "47037", "FIPS State": 47, "ST": "TN", "County": "Davidson County,TN", "State": "Tennessee"}, "geometry": {"type": "Polygon", "coordinates": [[[-86.76231, 36.403276], [-86.756833, 36.403276], [-86.592525, 36.244445], [-86.515848, 36.102045], [-86.619909, 35.970598], [-86.921141, 36.052752], [-87.052588, 36.047275], [-86.915664, 36.381369], [-86.76231, 36.403276]]]}}, {"type": "Feature", "properties": {"name": "Chester", "id": "42029", "FIPS": "42029", "FIPS State": 42, "ST": "PA", "County": "Chester County,PA", "State": "Pennsylvania"}, "geometry": {"type": "Polygon", "coordinates": [[[-75.676983, 40.242611], [-75.35932, 40.067349], [-75.594828, 39.837318], [-75.786521, 39.722302], [-75.808429, 39.722302], [-76.137046, 39.722302], [-75.874152, 40.13855], [-75.69889, 40.242611], [-75.676983, 40.242611]]]}}, {"type": "Feature", "properties": {"name": "Johnson", "id": "20091", "FIPS": "20091", "FIPS State": 20, "ST": "KS", "County": "Johnson County,KS", "State": "Kansas"}, "geometry": {"type": "Polygon", "coordinates": [[[-94.90652, 38.988392], [-94.605288, 39.043162], [-94.610765, 38.845992], [-94.610765, 38.736453], [-94.966767, 38.736453], [-95.054398, 38.736453], [-95.054398, 38.982915], [-94.90652, 38.988392]]]}}, {"type": "Feature", "properties": {"name": "San Joaquin", "id": "06077", "FIPS": "06077", "FIPS State": 6, "ST": "CA", "County": "San Joaquin County,CA", "State": "California"}, "geometry": {"type": "Polygon", "coordinates": [[[-121.097249, 38.287344], [-121.026049, 38.298298], [-120.993187, 38.227097], [-120.927464, 38.07922], [-120.921987, 37.805373], [-121.469681, 37.482234], [-121.557312, 37.821804], [-121.57922, 38.095651], [-121.097249, 38.287344]]]}}, {"type": "Feature", "properties": {"name": "Fresno", "id": "06019", "FIPS": "06019", "FIPS State": 6, "ST": "CA", "County": "Fresno County,CA", "State": "California"}, "geometry": {"type": "Polygon", "coordinates": [[[-119.021489, 37.586295], [-118.775026, 37.460326], [-118.358779, 36.742847], [-118.98315, 36.742847], [-119.57466, 36.490907], [-119.958045, 36.403276], [-120.314047, 35.904875], [-120.681002, 36.266353], [-120.91651, 36.742847], [-120.544078, 37.044078], [-120.281185, 36.764754], [-119.821122, 36.846908], [-119.021489, 37.586295]]]}}, {"type": "Feature", "properties": {"name": "El Paso", "id": "08041", "FIPS": "08041", "FIPS State": 8, "ST": "CO", "County": "El Paso County,CO", "State": "Colorado"}, "geometry": {"type": "Polygon", "coordinates": [[[-104.995044, 39.130793], [-104.660951, 39.130793], [-104.053011, 39.130793], [-104.053011, 38.867899], [-104.053011, 38.522852], [-104.940275, 38.517375], [-104.940275, 38.648822], [-105.033383, 39.130793], [-104.995044, 39.130793]]]}}, {"type": "Feature", "properties": {"name": "Mercer", "id": "34021", "FIPS": "34021", "FIPS State": 34, "ST": "NJ", "County": "Mercer County,NJ", "State": "New Jersey"}, "geometry": {"type": "Polygon", "coordinates": [[[-74.800672, 40.417874], [-74.745903, 40.423351], [-74.619933, 40.374058], [-74.48301, 40.253565], [-74.587071, 40.13855], [-74.702087, 40.182365], [-74.723995, 40.149503], [-74.943073, 40.341196], [-74.800672, 40.417874]]]}}, {"type": "Feature", "properties": {"name": "Jefferson", "id": "21111", "FIPS": "21111", "FIPS State": 21, "ST": "KY", "County": "Jefferson County,KY", "State": "Kentucky"}, "geometry": {"type": "Polygon", "coordinates": [[[-85.639537, 38.380452], [-85.469752, 38.287344], [-85.425936, 38.144943], [-85.431413, 38.117559], [-85.699783, 38.084697], [-85.940769, 37.997066], [-85.946246, 38.00802], [-85.90243, 38.177805], [-85.792891, 38.287344], [-85.639537, 38.380452]]]}}, {"type": "Feature", "properties": {"name": "Summit", "id": "39153", "FIPS": "39153", "FIPS State": 39, "ST": "OH", "County": "Summit County,OH", "State": "Ohio"}, "geometry": {"type": "Polygon", "coordinates": [[[-81.537309, 41.348953], [-81.389431, 41.348953], [-81.394908, 40.987475], [-81.646848, 40.916275], [-81.690663, 40.987475], [-81.685186, 41.277753], [-81.537309, 41.348953]]]}}, {"type": "Feature", "properties": {"name": "Brevard", "id": "12009", "FIPS": "12009", "FIPS State": 12, "ST": "FL", "County": "Brevard County,FL", "State": "Florida"}, "geometry": {"type": "Polygon", "coordinates": [[[-80.447398, 27.859249], [-80.869122, 27.820911], [-80.863645, 28.346697], [-80.989615, 28.615067], [-80.732199, 28.790329], [-80.447398, 27.859249]]]}}, {"type": "Feature", "properties": {"name": "Shelby", "id": "47157", "FIPS": "47157", "FIPS State": 47, "ST": "TN", "County": "Shelby County,TN", "State": "Tennessee"}, "geometry": {"type": "Polygon", "coordinates": [[[-89.774627, 35.406473], [-89.632227, 35.373611], [-89.643181, 34.995703], [-89.725335, 34.995703], [-89.829396, 34.995703], [-90.311367, 34.995703], [-90.075859, 35.384565], [-89.774627, 35.406473]]]}}, {"type": "Feature", "properties": {"name": "Arapahoe", "id": "08005", "FIPS": "08005", "FIPS State": 8, "ST": "CO", "County": "Arapahoe County,CO", "State": "Colorado"}, "geometry": {"type": "Polygon", "coordinates": [[[-104.830736, 39.738733], [-103.707963, 39.738733], [-103.707963, 39.568948], [-103.71344, 39.568948], [-104.195411, 39.563471], [-104.660951, 39.563471], [-104.989567, 39.568948], [-105.049814, 39.563471], [-105.055291, 39.623717], [-105.055291, 39.629194], [-105.055291, 39.629194], [-104.885506, 39.738733], [-104.830736, 39.738733]]]}}, {"type": "Feature", "properties": {"name": "Larimer", "id": "08069", "FIPS": "08069", "FIPS State": 8, "ST": "CO", "County": "Larimer County,CO", "State": "Colorado"}, "geometry": {"type": "Polygon", "coordinates": [[[-105.279845, 40.998429], [-104.945752, 40.998429], [-105.055291, 40.264519], [-105.340092, 40.259042], [-105.652277, 40.259042], [-105.854924, 40.483597], [-106.189017, 40.998429], [-105.279845, 40.998429]]]}}, {"type": "Feature", "properties": {"name": "Volusia", "id": "12127", "FIPS": "12127", "FIPS State": 12, "ST": "FL", "County": "Volusia County,FL", "State": "Florida"}, "geometry": {"type": "Polygon", "coordinates": [[[-81.110107, 29.425654], [-81.10463, 29.425654], [-80.732199, 28.790329], [-80.989615, 28.615067], [-81.367524, 28.87796], [-81.641371, 29.277777], [-81.679709, 29.327069], [-81.433247, 29.39827], [-81.110107, 29.425654]]]}}, {"type": "Feature", "properties": {"name": "Jackson", "id": "29095", "FIPS": "29095", "FIPS State": 29, "ST": "MO", "County": "Jackson County,MO", "State": "Missouri"}, "geometry": {"type": "Polygon", "coordinates": [[[-94.419073, 39.147223], [-94.210949, 39.20747], [-94.106887, 39.141746], [-94.112364, 38.917192], [-94.117841, 38.835038], [-94.583381, 38.845992], [-94.610765, 38.845992], [-94.605288, 39.043162], [-94.605288, 39.114362], [-94.419073, 39.147223]]]}}, {"type": "Feature", "properties": {"name": "Charlotte", "id": "12015", "FIPS": "12015", "FIPS State": 12, "ST": "FL", "County": "Charlotte County,FL", "State": "Florida"}, "geometry": {"type": "Polygon", "coordinates": [[[-82.041187, 27.032231], [-81.564693, 27.032231], [-81.564693, 26.769338], [-82.063095, 26.769338], [-82.210972, 26.774815], [-82.23288, 26.780292], [-82.23288, 26.785769], [-82.271219, 26.791246], [-82.375281, 26.9446], [-82.057618, 27.032231], [-82.041187, 27.032231]]]}}, {"type": "Feature", "properties": {"name": "Jefferson", "id": "08059", "FIPS": "08059", "FIPS State": 8, "ST": "CO", "County": "Jefferson County,CO", "State": "Colorado"}, "geometry": {"type": "Polygon", "coordinates": [[[-105.055291, 39.913995], [-105.055291, 39.913995], [-105.055291, 39.793502], [-105.055291, 39.623717], [-105.049814, 39.563471], [-105.329138, 39.130793], [-105.329138, 39.130793], [-105.400338, 39.563471], [-105.400338, 39.749687], [-105.400338, 39.913995], [-105.055291, 39.913995]]]}}, {"type": "Feature", "properties": {"name": "Loudoun", "id": "51107", "FIPS": "51107", "FIPS State": 51, "ST": "VA", "County": "Loudoun County,VA", "State": "Virginia"}, "geometry": {"type": "Polygon", "coordinates": [[[-77.719881, 39.322485], [-77.676066, 39.322485], [-77.456988, 39.218424], [-77.331019, 39.059592], [-77.533665, 38.845992], [-77.654158, 38.944577], [-77.960867, 39.015777], [-77.82942, 39.130793], [-77.719881, 39.322485]]]}}, {"type": "Feature", "properties": {"name": "Duval", "id": "12031", "FIPS": "12031", "FIPS State": 12, "ST": "FL", "County": "Duval County,FL", "State": "Florida"}, "geometry": {"type": "Polygon", "coordinates": [[[-81.608509, 30.586766], [-81.444201, 30.510088], [-81.378478, 30.252672], [-81.389431, 30.252672], [-81.679709, 30.121226], [-81.701617, 30.192426], [-82.052141, 30.186949], [-82.046664, 30.27458], [-81.608509, 30.586766]]]}}, {"type": "Feature", "properties": {"name": "Westmoreland", "id": "42129", "FIPS": "42129", "FIPS State": 42, "ST": "PA", "County": "Westmoreland County,PA", "State": "Pennsylvania"}, "geometry": {"type": "Polygon", "coordinates": [[[-79.538226, 40.54932], [-79.450595, 40.527412], [-78.974101, 40.395966], [-79.056255, 40.286427], [-79.291763, 40.039965], [-79.499887, 40.13855], [-79.877796, 40.127596], [-79.872319, 40.198796], [-79.69158, 40.669813], [-79.538226, 40.54932]]]}}, {"type": "Feature", "properties": {"name": "Osceola", "id": "12097", "FIPS": "12097", "FIPS State": 12, "ST": "FL", "County": "Osceola County,FL", "State": "Florida"}, "geometry": {"type": "Polygon", "coordinates": [[[-81.2306, 28.346697], [-80.863645, 28.346697], [-80.869122, 27.820911], [-80.874599, 27.640172], [-81.142969, 27.645649], [-81.657801, 28.346697], [-81.2306, 28.346697]]]}}, {"type": "Feature", "properties": {"name": "Pima", "id": "04019", "FIPS": "04019", "FIPS State": 4, "ST": "AZ", "County": "Pima County,AZ", "State": "Arizona"}, "geometry": {"type": "Polygon", "coordinates": [[[-110.696539, 32.514649], [-110.450077, 32.514649], [-110.450077, 32.427018], [-110.450077, 31.731446], [-110.789647, 31.731446], [-111.364726, 31.424737], [-113.336425, 32.038155], [-113.336425, 32.503695], [-112.202698, 32.509172], [-110.696539, 32.514649]]]}}, {"type": "Feature", "properties": {"name": "Fort Bend", "id": "48157", "FIPS": "48157", "FIPS State": 48, "ST": "TX", "County": "Fort Bend County,TX", "State": "Texas"}, "geometry": {"type": "Polygon", "coordinates": [[[-95.826646, 29.787132], [-95.826646, 29.787132], [-95.42683, 29.579009], [-95.848554, 29.261346], [-96.089539, 29.600916], [-96.03477, 29.726886], [-95.826646, 29.787132]]]}}, {"type": "Feature", "properties": {"name": "Guilford", "id": "37081", "FIPS": "37081", "FIPS State": 37, "ST": "NC", "County": "Guilford County,NC", "State": "North Carolina"}, "geometry": {"type": "Polygon", "coordinates": [[[-80.036627, 36.255399], [-80.036627, 36.255399], [-79.532749, 36.238968], [-79.543702, 35.899398], [-80.036627, 35.921306], [-80.047581, 35.921306], [-80.042104, 36.008937], [-80.036627, 36.255399]]]}}, {"type": "Feature", "properties": {"name": "Douglas", "id": "31055", "FIPS": "31055", "FIPS State": 31, "ST": "NE", "County": "Douglas County,NE", "State": "Nebraska"}, "geometry": {"type": "Polygon", "coordinates": [[[-96.461971, 41.392769], [-96.330525, 41.392769], [-95.936185, 41.392769], [-95.925231, 41.190122], [-95.936185, 41.190122], [-96.325048, 41.190122], [-96.472925, 41.392769], [-96.461971, 41.392769]]]}}, {"type": "Feature", "properties": {"name": "Hamilton", "id": "39061", "FIPS": "39061", "FIPS State": 39, "ST": "OH", "County": "Hamilton County,OH", "State": "Ohio"}, "geometry": {"type": "Polygon", "coordinates": [[[-84.598918, 39.306055], [-84.352456, 39.289624], [-84.259348, 39.273193], [-84.319594, 39.021254], [-84.50581, 39.092454], [-84.620826, 39.076023], [-84.817996, 39.103408], [-84.817996, 39.306055], [-84.598918, 39.306055]]]}}, {"type": "Feature", "properties": {"name": "Camden", "id": "34007", "FIPS": "34007", "FIPS State": 34, "ST": "NJ", "County": "Camden County,NJ", "State": "New Jersey"}, "geometry": {"type": "Polygon", "coordinates": [[[-75.030704, 39.990672], [-74.734949, 39.727779], [-74.877349, 39.607286], [-75.140242, 39.88661], [-75.058088, 39.990672], [-75.030704, 39.990672]]]}}, {"type": "Feature", "properties": {"name": "Delaware", "id": "42045", "FIPS": "42045", "FIPS State": 42, "ST": "PA", "County": "Delaware County,PA", "State": "Pennsylvania"}, "geometry": {"type": "Polygon", "coordinates": [[[-75.353843, 40.056395], [-75.277166, 39.974241], [-75.211443, 39.864703], [-75.414089, 39.804456], [-75.578398, 39.837318], [-75.594828, 39.837318], [-75.594828, 39.837318], [-75.35932, 40.067349], [-75.353843, 40.056395]]]}}, {"type": "Feature", "properties": {"name": "Honolulu", "id": "15003", "FIPS": "15003", "FIPS State": 15, "ST": "HI", "County": "Honolulu County,HI", "State": "Hawaii"}, "geometry": {"type": "Polygon", "coordinates": [[[-157.951581, 21.697691], [-157.655826, 21.303352], [-158.110412, 21.303352], [-157.951581, 21.697691]]]}}, {"type": "Feature", "properties": {"name": "Plymouth", "id": "25023", "FIPS": "25023", "FIPS State": 25, "ST": "MA", "County": "Plymouth County,MA", "State": "Massachusetts"}, "geometry": {"type": "Polygon", "coordinates": [[[-70.901091, 42.269079], [-70.906568, 42.269079], [-70.824413, 42.263602], [-70.780598, 42.252649], [-70.539613, 41.809016], [-70.643674, 41.715908], [-70.840844, 41.628277], [-71.08183, 42.093817], [-70.901091, 42.269079]]]}}, {"type": "Feature", "properties": {"name": "Ramsey", "id": "27123", "FIPS": "27123", "FIPS State": 27, "ST": "MN", "County": "Ramsey County,MN", "State": "Minnesota"}, "geometry": {"type": "Polygon", "coordinates": [[[-93.230576, 45.122565], [-93.022453, 45.122565], [-93.016976, 44.892534], [-93.088176, 44.919919], [-93.175807, 44.887057], [-93.2251, 45.034934], [-93.230576, 45.122565]]]}}, {"type": "Feature", "properties": {"name": "Oklahoma", "id": "40109", "FIPS": "40109", "FIPS State": 40, "ST": "OK", "County": "Oklahoma County,OK", "State": "Oklahoma"}, "geometry": {"type": "Polygon", "coordinates": [[[-97.672375, 35.724136], [-97.141112, 35.724136], [-97.141112, 35.466719], [-97.141112, 35.379088], [-97.425913, 35.379088], [-97.672375, 35.379088], [-97.672375, 35.724136]]]}}, {"type": "Feature", "properties": {"name": "Passaic", "id": "34031", "FIPS": "34031", "FIPS State": 34, "ST": "NJ", "County": "Passaic County,NJ", "State": "New Jersey"}, "geometry": {"type": "Polygon", "coordinates": [[[-74.367994, 41.201076], [-74.236547, 41.14083], [-74.21464, 41.135353], [-74.132485, 40.81769], [-74.269409, 40.899844], [-74.504917, 41.08606], [-74.367994, 41.201076]]]}}, {"type": "Feature", "properties": {"name": "Anne Arundel", "id": "24003", "FIPS": "24003", "FIPS State": 24, "ST": "MD", "County": "Anne Arundel County,MD", "State": "Maryland"}, "geometry": {"type": "Polygon", "coordinates": [[[-76.619016, 39.234854], [-76.531385, 39.20747], [-76.531385, 38.714545], [-76.635447, 38.769315], [-76.68474, 38.747407], [-76.838094, 39.103408], [-76.695693, 39.212947], [-76.619016, 39.234854], [-76.619016, 39.234854]]]}}, {"type": "Feature", "properties": {"name": "Adams", "id": "08001", "FIPS": "08001", "FIPS State": 8, "ST": "CO", "County": "Adams County,CO", "State": "Colorado"}, "geometry": {"type": "Polygon", "coordinates": [[[-103.795594, 40.001626], [-103.707963, 40.001626], [-103.707963, 39.738733], [-104.830736, 39.738733], [-104.885506, 39.738733], [-104.704767, 39.903041], [-105.055291, 39.793502], [-105.055291, 39.913995], [-105.055291, 40.001626], [-104.151596, 40.001626], [-103.795594, 40.001626]]]}}, {"type": "Feature", "properties": {"name": "Bristol", "id": "25005", "FIPS": "25005", "FIPS State": 25, "ST": "MA", "County": "Bristol County,MA", "State": "Massachusetts"}, "geometry": {"type": "Polygon", "coordinates": [[[-71.08183, 42.093817], [-71.08183, 42.093817], [-70.840844, 41.628277], [-71.120168, 41.496831], [-71.196845, 41.67757], [-71.22423, 41.710431], [-71.317338, 41.776155], [-71.383061, 41.984279], [-71.08183, 42.093817]]]}}, {"type": "Feature", "properties": {"name": "Multnomah", "id": "41051", "FIPS": "41051", "FIPS State": 41, "ST": "OR", "County": "Multnomah County,OR", "State": "Oregon"}, "geometry": {"type": "Polygon", "coordinates": [[[-122.926547, 45.725029], [-122.762239, 45.730506], [-122.247407, 45.549767], [-121.924267, 45.648352], [-121.820205, 45.462136], [-122.356945, 45.462136], [-122.745808, 45.434751], [-122.926547, 45.725029]]]}}, {"type": "Feature", "properties": {"name": "Ventura", "id": "06111", "FIPS": "06111", "FIPS State": 6, "ST": "CA", "County": "Ventura County,CA", "State": "California"}, "geometry": {"type": "Polygon", "coordinates": [[[-119.443213, 34.902595], [-118.884565, 34.793056], [-118.638103, 34.289177], [-118.944811, 34.042715], [-119.476075, 34.376808], [-119.443213, 34.902595]]]}}, {"type": "Feature", "properties": {"name": "Baltimore", "id": "24005", "FIPS": "24005", "FIPS State": 24, "ST": "MD", "County": "Baltimore County,MD", "State": "Maryland"}, "geometry": {"type": "Polygon", "coordinates": [[[-76.70117, 39.722302], [-76.569724, 39.722302], [-76.328738, 39.355347], [-76.525908, 39.218424], [-76.651878, 39.371778], [-76.619016, 39.234854], [-76.695693, 39.212947], [-76.881909, 39.34987], [-76.788801, 39.722302], [-76.70117, 39.722302]]]}}, {"type": "Feature", "properties": {"name": "Collin", "id": "48085", "FIPS": "48085", "FIPS State": 48, "ST": "TX", "County": "Collin County,TX", "State": "Texas"}, "geometry": {"type": "Polygon", "coordinates": [[[-96.834403, 33.40739], [-96.834403, 33.40739], [-96.385294, 33.396436], [-96.297663, 33.35262], [-96.297663, 32.980189], [-96.440064, 32.980189], [-96.516741, 32.980189], [-96.845357, 32.985665], [-96.834403, 33.40739]]]}}, {"type": "Feature", "properties": {"name": "Macomb", "id": "26099", "FIPS": "26099", "FIPS State": 26, "ST": "MI", "County": "Macomb County,MI", "State": "Michigan"}, "geometry": {"type": "Polygon", "coordinates": [[[-82.742236, 42.898928], [-82.703897, 42.685327], [-82.868205, 42.449818], [-82.879159, 42.449818], [-83.081806, 42.449818], [-83.098237, 42.887974], [-82.983221, 42.893451], [-82.742236, 42.898928]]]}}, {"type": "Feature", "properties": {"name": "Arlington", "id": "51013", "FIPS": "51013", "FIPS State": 51, "ST": "VA", "County": "Arlington County,VA", "State": "Virginia"}, "geometry": {"type": "Polygon", "coordinates": [[[-77.117418, 38.933623], [-77.046218, 38.840515], [-77.084556, 38.845992], [-77.111941, 38.845992], [-77.15028, 38.878853], [-77.172187, 38.895284], [-77.117418, 38.933623]]]}}, {"type": "Feature", "properties": {"name": "Howard", "id": "24027", "FIPS": "24027", "FIPS State": 24, "ST": "MD", "County": "Howard County,MD", "State": "Maryland"}, "geometry": {"type": "Polygon", "coordinates": [[[-77.079079, 39.366301], [-76.881909, 39.34987], [-76.695693, 39.212947], [-76.838094, 39.103408], [-76.887386, 39.130793], [-77.16671, 39.355347], [-77.16671, 39.355347], [-77.079079, 39.366301]]]}}, {"type": "Feature", "properties": {"name": "Marion", "id": "18097", "FIPS": "18097", "FIPS State": 18, "ST": "IN", "County": "Marion County,IN", "State": "Indiana"}, "geometry": {"type": "Polygon", "coordinates": [[[-86.110554, 39.924949], [-85.935292, 39.924949], [-85.951723, 39.694917], [-85.951723, 39.640148], [-85.97363, 39.640148], [-86.247477, 39.634671], [-86.324155, 39.629194], [-86.324155, 39.924949], [-86.242001, 39.924949], [-86.110554, 39.924949]]]}}, {"type": "Feature", "properties": {"name": "New Castle", "id": "10003", "FIPS": "10003", "FIPS State": 10, "ST": "DE", "County": "New Castle County,DE", "State": "Delaware"}, "geometry": {"type": "Polygon", "coordinates": [[[-75.414089, 39.804456], [-75.446951, 39.771595], [-75.507197, 39.683964], [-75.512674, 39.366301], [-75.616736, 39.311532], [-75.759137, 39.295101], [-75.764614, 39.377255], [-75.786521, 39.722302], [-75.594828, 39.837318], [-75.594828, 39.837318], [-75.578398, 39.837318], [-75.414089, 39.804456]]]}}, {"type": "Feature", "properties": {"name": "Morris", "id": "34027", "FIPS": "34027", "FIPS State": 34, "ST": "NJ", "County": "Morris County,NJ", "State": "New Jersey"}, "geometry": {"type": "Polygon", "coordinates": [[[-74.504917, 41.08606], [-74.269409, 40.899844], [-74.28584, 40.894367], [-74.373471, 40.741013], [-74.461102, 40.67529], [-74.718518, 40.719105], [-74.723995, 40.719105], [-74.888303, 40.790306], [-74.76781, 40.910798], [-74.504917, 41.08606]]]}}, {"type": "Feature", "properties": {"name": "Pierce", "id": "53053", "FIPS": "53053", "FIPS State": 53, "ST": "WA", "County": "Pierce County,WA", "State": "Washington"}, "geometry": {"type": "Polygon", "coordinates": [[[-122.800578, 47.406449], [-122.537684, 47.400973], [-122.537684, 47.357157], [-122.417192, 47.318818], [-121.38205, 47.088787], [-121.45325, 46.782078], [-122.203591, 46.760171], [-122.822485, 47.192849], [-122.800578, 47.406449]]]}}, {"type": "Feature", "properties": {"name": "Erie", "id": "36029", "FIPS": "36029", "FIPS State": 36, "ST": "NY", "County": "Erie County,NY", "State": "New York"}, "geometry": {"type": "Polygon", "coordinates": [[[-78.552376, 43.096097], [-78.464745, 43.09062], [-78.464745, 42.866066], [-78.464745, 42.537449], [-79.001485, 42.531973], [-79.061732, 42.537449], [-79.138409, 42.570311], [-79.138409, 42.570311], [-79.023393, 43.068713], [-78.552376, 43.096097]]]}}, {"type": "Feature", "properties": {"name": "Monroe", "id": "36055", "FIPS": "36055", "FIPS State": 36, "ST": "NY", "County": "Monroe County,NY", "State": "New York"}, "geometry": {"type": "Polygon", "coordinates": [[[-77.374834, 43.276836], [-77.369357, 43.035851], [-77.582958, 42.942743], [-77.823943, 42.986559], [-77.911574, 42.986559], [-77.906097, 43.128959], [-77.999205, 43.134436], [-77.993728, 43.364467], [-77.374834, 43.276836]]]}}, {"type": "Feature", "properties": {"name": "Cobb", "id": "13067", "FIPS": "13067", "FIPS State": 13, "ST": "GA", "County": "Cobb County,GA", "State": "Georgia"}, "geometry": {"type": "Polygon", "coordinates": [[[-84.615349, 34.081054], [-84.418179, 34.075577], [-84.577011, 33.741483], [-84.724888, 33.807207], [-84.735842, 34.081054], [-84.659165, 34.075577], [-84.615349, 34.081054]]]}}, {"type": "Feature", "properties": {"name": "Bernalillo", "id": "35001", "FIPS": "35001", "FIPS State": 35, "ST": "NM", "County": "Bernalillo County,NM", "State": "New Mexico"}, "geometry": {"type": "Polygon", "coordinates": [[[-107.196774, 35.220257], [-106.243787, 35.21478], [-106.243787, 35.039518], [-106.413572, 34.869733], [-107.065328, 34.957364], [-107.196774, 35.220257]]]}}, {"type": "Feature", "properties": {"name": "Sarasota", "id": "12115", "FIPS": "12115", "FIPS State": 12, "ST": "FL", "County": "Sarasota County,FL", "State": "Florida"}, "geometry": {"type": "Polygon", "coordinates": [[[-82.62722, 27.388232], [-82.057618, 27.207493], [-82.057618, 27.032231], [-82.375281, 26.9446], [-82.643651, 27.388232], [-82.62722, 27.388232]]]}}, {"type": "Feature", "properties": {"name": "Gwinnett", "id": "13135", "FIPS": "13135", "FIPS State": 13, "ST": "GA", "County": "Gwinnett County,GA", "State": "Georgia"}, "geometry": {"type": "Polygon", "coordinates": [[[-83.990978, 34.1413], [-83.815716, 34.124869], [-83.799285, 33.927699], [-83.980024, 33.785299], [-84.02384, 33.752437], [-84.275779, 33.955084], [-84.275779, 33.955084], [-84.09504, 34.048192], [-84.062178, 34.168685], [-83.990978, 34.1413]]]}}, {"type": "Feature", "properties": {"name": "Lee", "id": "12071", "FIPS": "12071", "FIPS State": 12, "ST": "FL", "County": "Lee County,FL", "State": "Florida"}, "geometry": {"type": "Polygon", "coordinates": [[[-82.063095, 26.769338], [-81.564693, 26.769338], [-81.564693, 26.511922], [-81.844017, 26.331183], [-82.063095, 26.769338]]]}}, {"type": "Feature", "properties": {"name": "Essex", "id": "25009", "FIPS": "25009", "FIPS State": 25, "ST": "MA", "County": "Essex County,MA", "State": "Massachusetts"}, "geometry": {"type": "Polygon", "coordinates": [[[-70.917521, 42.887974], [-70.818936, 42.871543], [-70.961337, 42.444341], [-71.02706, 42.444341], [-71.257092, 42.734619], [-71.246138, 42.740096], [-70.917521, 42.887974]]]}}, {"type": "Feature", "properties": {"name": "Worcester", "id": "25027", "FIPS": "25027", "FIPS State": 25, "ST": "MA", "County": "Worcester County,MA", "State": "Massachusetts"}, "geometry": {"type": "Polygon", "coordinates": [[[-72.28128, 42.723665], [-71.930755, 42.712712], [-71.897894, 42.712712], [-71.476169, 42.154064], [-71.498077, 42.01714], [-71.799309, 42.006186], [-72.100541, 42.028094], [-72.133402, 42.028094], [-72.221033, 42.247172], [-72.314141, 42.345757], [-72.28128, 42.723665]]]}}, {"type": "Feature", "properties": {"name": "Monmouth", "id": "34025", "FIPS": "34025", "FIPS State": 34, "ST": "NJ", "County": "Monmouth County,NJ", "State": "New Jersey"}, "geometry": {"type": "Polygon", "coordinates": [[[-74.0339, 40.100211], [-74.406332, 40.171411], [-74.55421, 40.078303], [-74.587071, 40.13855], [-74.48301, 40.253565], [-74.225593, 40.450735], [-74.0339, 40.100211]]]}}, {"type": "Feature", "properties": {"name": "Burlington", "id": "34005", "FIPS": "34005", "FIPS State": 34, "ST": "NJ", "County": "Burlington County,NJ", "State": "New Jersey"}, "geometry": {"type": "Polygon", "coordinates": [[[-74.702087, 40.182365], [-74.587071, 40.13855], [-74.55421, 40.078303], [-74.417286, 39.557994], [-74.734949, 39.727779], [-75.030704, 39.990672], [-75.058088, 39.990672], [-74.975934, 40.050919], [-74.723995, 40.149503], [-74.702087, 40.182365]]]}}, {"type": "Feature", "properties": {"name": "Snohomish", "id": "53061", "FIPS": "53061", "FIPS State": 53, "ST": "WA", "County": "Snohomish County,WA", "State": "Washington"}, "geometry": {"type": "Polygon", "coordinates": [[[-121.836636, 48.299191], [-121.004141, 48.293714], [-121.119157, 47.778881], [-121.234173, 47.778881], [-122.395284, 47.778881], [-122.395284, 48.227991], [-122.406238, 48.249898], [-122.378853, 48.299191], [-121.836636, 48.299191]]]}}, {"type": "Feature", "properties": {"name": "Union", "id": "34039", "FIPS": "34039", "FIPS State": 34, "ST": "NJ", "County": "Union County,NJ", "State": "New Jersey"}, "geometry": {"type": "Polygon", "coordinates": [[[-74.362517, 40.735536], [-74.137962, 40.67529], [-74.15987, 40.642428], [-74.209163, 40.593136], [-74.291317, 40.593136], [-74.461102, 40.598613], [-74.461102, 40.67529], [-74.373471, 40.741013], [-74.362517, 40.735536]]]}}, {"type": "Feature", "properties": {"name": "San Mateo", "id": "06081", "FIPS": "06081", "FIPS State": 6, "ST": "CA", "County": "San Mateo County,CA", "State": "California"}, "geometry": {"type": "Polygon", "coordinates": [[[-122.428146, 37.706788], [-122.389807, 37.706788], [-122.11596, 37.504141], [-122.083098, 37.476757], [-122.154299, 37.285064], [-122.291222, 37.109802], [-122.504823, 37.706788], [-122.428146, 37.706788]]]}}, {"type": "Feature", "properties": {"name": "Milwaukee", "id": "55079", "FIPS": "55079", "FIPS State": 55, "ST": "WI", "County": "Milwaukee County,WI", "State": "Wisconsin"}, "geometry": {"type": "Polygon", "coordinates": [[[-87.972714, 43.194682], [-87.89056, 43.194682], [-87.824836, 42.844158], [-87.956283, 42.844158], [-88.071299, 42.844158], [-88.065822, 43.194682], [-87.972714, 43.194682]]]}}, {"type": "Feature", "properties": {"name": "Dane", "id": "55025", "FIPS": "55025", "FIPS State": 55, "ST": "WI", "County": "Dane County,WI", "State": "Wisconsin"}, "geometry": {"type": "Polygon", "coordinates": [[[-89.413149, 43.293267], [-89.007855, 43.282313], [-89.007855, 43.200159], [-89.013332, 42.849635], [-89.051671, 42.849635], [-89.369334, 42.844158], [-89.84035, 42.855112], [-89.84035, 43.205636], [-89.719858, 43.293267], [-89.413149, 43.293267]]]}}, {"type": "Feature", "properties": {"name": "Essex", "id": "34013", "FIPS": "34013", "FIPS State": 34, "ST": "NJ", "County": "Essex County,NJ", "State": "New Jersey"}, "geometry": {"type": "Polygon", "coordinates": [[[-74.28584, 40.894367], [-74.269409, 40.899844], [-74.132485, 40.81769], [-74.148916, 40.784829], [-74.137962, 40.67529], [-74.362517, 40.735536], [-74.373471, 40.741013], [-74.28584, 40.894367]]]}}, {"type": "Feature", "properties": {"name": "Montgomery", "id": "42091", "FIPS": "42091", "FIPS State": 42, "ST": "PA", "County": "Montgomery County,PA", "State": "Pennsylvania"}, "geometry": {"type": "Polygon", "coordinates": [[[-75.490767, 40.423351], [-75.48529, 40.417874], [-75.014273, 40.13855], [-75.025227, 40.133073], [-75.277166, 39.974241], [-75.353843, 40.056395], [-75.35932, 40.067349], [-75.676983, 40.242611], [-75.69889, 40.242611], [-75.529105, 40.445258], [-75.490767, 40.423351]]]}}, {"type": "Feature", "properties": {"name": "Norfolk", "id": "25021", "FIPS": "25021", "FIPS State": 25, "ST": "MA", "County": "Norfolk County,MA", "State": "Massachusetts"}, "geometry": {"type": "MultiPolygon", "coordinates": [[[[-71.109214, 42.351234], [-71.163984, 42.301941], [-71.158507, 42.329326], [-71.109214, 42.351234]]], [[[-71.262569, 42.329326], [-71.191368, 42.280033], [-71.005152, 42.307418], [-70.906568, 42.269079], [-70.901091, 42.269079], [-71.08183, 42.093817], [-71.08183, 42.093817], [-71.383061, 41.984279], [-71.498077, 42.01714], [-71.476169, 42.154064], [-71.262569, 42.329326]]]]}}, {"type": "Feature", "properties": {"name": "Pinellas", "id": "12103", "FIPS": "12103", "FIPS State": 12, "ST": "FL", "County": "Pinellas County,FL", "State": "Florida"}, "geometry": {"type": "Polygon", "coordinates": [[[-82.649128, 28.171435], [-82.649128, 27.968788], [-82.802482, 28.171435], [-82.649128, 28.171435]]]}}, {"type": "Feature", "properties": {"name": "Ocean", "id": "34029", "FIPS": "34029", "FIPS State": 34, "ST": "NJ", "County": "Ocean County,NJ", "State": "New Jersey"}, "geometry": {"type": "Polygon", "coordinates": [[[-74.406332, 40.171411], [-74.0339, 40.100211], [-74.313224, 39.497748], [-74.417286, 39.557994], [-74.55421, 40.078303], [-74.406332, 40.171411]]]}}, {"type": "Feature", "properties": {"name": "Bucks", "id": "42017", "FIPS": "42017", "FIPS State": 42, "ST": "PA", "County": "Bucks County,PA", "State": "Pennsylvania"}, "geometry": {"type": "Polygon", "coordinates": [[[-75.195012, 40.609566], [-75.189535, 40.593136], [-74.943073, 40.341196], [-74.723995, 40.149503], [-74.975934, 40.050919], [-75.014273, 40.13855], [-75.48529, 40.417874], [-75.331935, 40.538366], [-75.195012, 40.609566]]]}}, {"type": "Feature", "properties": {"name": "Bexar", "id": "48029", "FIPS": "48029", "FIPS State": 48, "ST": "TX", "County": "Bexar County,TX", "State": "Texas"}, "geometry": {"type": "Polygon", "coordinates": [[[-98.64727, 29.743317], [-98.313177, 29.595439], [-98.132438, 29.442085], [-98.285792, 29.255869], [-98.406285, 29.113469], [-98.800625, 29.250392], [-98.806102, 29.250392], [-98.806102, 29.688547], [-98.778717, 29.721409], [-98.64727, 29.743317]]]}}, {"type": "Feature", "properties": {"name": "Mecklenburg", "id": "37119", "FIPS": "37119", "FIPS State": 37, "ST": "NC", "County": "Mecklenburg County,NC", "State": "North Carolina"}, "geometry": {"type": "Polygon", "coordinates": [[[-80.907461, 35.516012], [-80.781491, 35.505058], [-80.55146, 35.209303], [-80.841737, 35.00118], [-80.907461, 35.077857], [-81.044384, 35.149057], [-80.956753, 35.400996], [-80.945799, 35.488627], [-80.907461, 35.516012]]]}}, {"type": "Feature", "properties": {"name": "Franklin", "id": "39049", "FIPS": "39049", "FIPS State": 39, "ST": "OH", "County": "Franklin County,OH", "State": "Ohio"}, "geometry": {"type": "Polygon", "coordinates": [[[-83.03799, 40.13855], [-82.764143, 40.127596], [-82.780574, 39.94138], [-82.797005, 39.94138], [-82.82439, 39.793502], [-83.246114, 39.81541], [-83.207776, 40.105688], [-83.169437, 40.144027], [-83.03799, 40.13855]]]}}, {"type": "Feature", "properties": {"name": "Westchester", "id": "36119", "FIPS": "36119", "FIPS State": 36, "ST": "NY", "County": "Westchester County,NY", "State": "New York"}, "geometry": {"type": "Polygon", "coordinates": [[[-73.661469, 41.35443], [-73.546453, 41.365384], [-73.655992, 40.987475], [-73.781961, 40.883413], [-73.918885, 40.916275], [-73.8915, 40.998429], [-73.984608, 41.321569], [-73.661469, 41.35443]]]}}, {"type": "Feature", "properties": {"name": "Lake", "id": "17097", "FIPS": "17097", "FIPS State": 17, "ST": "IL", "County": "Lake County,IL", "State": "Illinois"}, "geometry": {"type": "Polygon", "coordinates": [[[-88.202745, 42.493634], [-87.802929, 42.493634], [-87.759113, 42.154064], [-88.120591, 42.154064], [-88.197268, 42.154064], [-88.202745, 42.493634]]]}}, {"type": "Feature", "properties": {"name": "Wake", "id": "37183", "FIPS": "37183", "FIPS State": 37, "ST": "NC", "County": "Wake County,NC", "State": "North Carolina"}, "geometry": {"type": "Polygon", "coordinates": [[[-78.749546, 36.069183], [-78.546899, 36.01989], [-78.256622, 35.817244], [-78.711208, 35.521489], [-78.913854, 35.581735], [-78.908377, 35.866536], [-78.749546, 36.069183]]]}}, {"type": "Feature", "properties": {"name": "Hudson", "id": "34017", "FIPS": "34017", "FIPS State": 34, "ST": "NJ", "County": "Hudson County,NJ", "State": "New Jersey"}, "geometry": {"type": "Polygon", "coordinates": [[[-74.011993, 40.823167], [-73.984608, 40.795782], [-74.022947, 40.708151], [-74.15987, 40.642428], [-74.137962, 40.67529], [-74.148916, 40.784829], [-74.011993, 40.823167]]]}}, {"type": "Feature", "properties": {"name": "San Francisco", "id": "06075", "FIPS": "06075", "FIPS State": 6, "ST": "CA", "County": "San Francisco County,CA", "State": "California"}, "geometry": {"type": "Polygon", "coordinates": [[[-122.428146, 37.706788], [-122.504823, 37.706788], [-122.389807, 37.706788], [-122.428146, 37.706788]]]}}, {"type": "Feature", "properties": {"name": "Contra Costa", "id": "06013", "FIPS": "06013", "FIPS State": 6, "ST": "CA", "County": "Contra Costa County,CA", "State": "California"}, "geometry": {"type": "Polygon", "coordinates": [[[-121.628512, 38.101128], [-121.57922, 38.095651], [-121.557312, 37.821804], [-122.269314, 37.903958], [-122.31313, 37.898481], [-122.269314, 38.062789], [-121.864021, 38.068266], [-121.628512, 38.101128]]]}}, {"type": "Feature", "properties": {"name": "Cuyahoga", "id": "39035", "FIPS": "39035", "FIPS State": 39, "ST": "OH", "County": "Cuyahoga County,OH", "State": "Ohio"}, "geometry": {"type": "Polygon", "coordinates": [[[-81.488016, 41.633754], [-81.389431, 41.568031], [-81.389431, 41.348953], [-81.389431, 41.348953], [-81.537309, 41.348953], [-81.685186, 41.277753], [-81.876879, 41.277753], [-81.969987, 41.507785], [-81.488016, 41.633754]]]}}, {"type": "Feature", "properties": {"name": "Middlesex", "id": "34023", "FIPS": "34023", "FIPS State": 34, "ST": "NJ", "County": "Middlesex County,NJ", "State": "New Jersey"}, "geometry": {"type": "Polygon", "coordinates": [[[-74.291317, 40.593136], [-74.209163, 40.593136], [-74.225593, 40.450735], [-74.48301, 40.253565], [-74.619933, 40.374058], [-74.461102, 40.598613], [-74.291317, 40.593136]]]}}, {"type": "Feature", "properties": {"name": "Travis", "id": "48453", "FIPS": "48453", "FIPS State": 48, "ST": "TX", "County": "Travis County,TX", "State": "Texas"}, "geometry": {"type": "Polygon", "coordinates": [[[-97.973607, 30.625104], [-97.371143, 30.41698], [-97.650467, 30.071933], [-97.666898, 30.066456], [-97.710714, 30.022641], [-98.170777, 30.356734], [-98.126961, 30.427934], [-98.050284, 30.625104], [-97.973607, 30.625104]]]}}, {"type": "Feature", "properties": {"name": "Suffolk", "id": "25025", "FIPS": "25025", "FIPS State": 25, "ST": "MA", "County": "Suffolk County,MA", "State": "Massachusetts"}, "geometry": {"type": "Polygon", "coordinates": [[[-71.02706, 42.444341], [-70.961337, 42.444341], [-71.005152, 42.307418], [-71.191368, 42.280033], [-71.163984, 42.301941], [-71.109214, 42.351234], [-71.158507, 42.329326], [-71.02706, 42.444341]]]}}, {"type": "Feature", "properties": {"name": "Palm Beach", "id": "12099", "FIPS": "12099", "FIPS State": 12, "ST": "FL", "County": "Palm Beach County,FL", "State": "Florida"}, "geometry": {"type": "Polygon", "coordinates": [[[-80.885553, 26.961031], [-80.080443, 26.971985], [-80.074966, 26.320229], [-80.250228, 26.33666], [-80.880076, 26.331183], [-80.885553, 26.961031]]]}}, {"type": "Feature", "properties": {"name": "Tarrant", "id": "48439", "FIPS": "48439", "FIPS State": 48, "ST": "TX", "County": "Tarrant County,TX", "State": "Texas"}, "geometry": {"type": "Polygon", "coordinates": [[[-97.535452, 32.996619], [-97.398528, 32.991142], [-97.031573, 32.985665], [-97.03705, 32.54751], [-97.086342, 32.54751], [-97.551882, 32.552987], [-97.546405, 32.996619], [-97.535452, 32.996619]]]}}, {"type": "Feature", "properties": {"name": "Orange", "id": "12095", "FIPS": "12095", "FIPS State": 12, "ST": "FL", "County": "Orange County,FL", "State": "Florida"}, "geometry": {"type": "Polygon", "coordinates": [[[-81.542786, 28.784852], [-81.411339, 28.784852], [-80.989615, 28.615067], [-80.863645, 28.346697], [-81.2306, 28.346697], [-81.657801, 28.346697], [-81.542786, 28.784852]]]}}, {"type": "Feature", "properties": {"name": "Hillsborough", "id": "12057", "FIPS": "12057", "FIPS State": 12, "ST": "FL", "County": "Hillsborough County,FL", "State": "Florida"}, "geometry": {"type": "Polygon", "coordinates": [[[-82.649128, 28.171435], [-82.106911, 28.171435], [-82.052141, 27.645649], [-82.28765, 27.645649], [-82.55602, 27.645649], [-82.649128, 27.968788], [-82.649128, 28.171435]]]}}, {"type": "Feature", "properties": {"name": "Fairfax", "id": "51059", "FIPS": "51059", "FIPS State": 51, "ST": "VA", "County": "Fairfax County,VA", "State": "Virginia"}, "geometry": {"type": "Polygon", "coordinates": [[[-77.331019, 39.059592], [-77.117418, 38.933623], [-77.172187, 38.895284], [-77.15028, 38.878853], [-77.111941, 38.845992], [-77.040741, 38.785745], [-77.084556, 38.709068], [-77.128372, 38.632391], [-77.22148, 38.637868], [-77.533665, 38.845992], [-77.331019, 39.059592]]]}}, {"type": "Feature", "properties": {"name": "Clark", "id": "32003", "FIPS": "32003", "FIPS State": 32, "ST": "NV", "County": "Clark County,NV", "State": "Nevada"}, "geometry": {"type": "Polygon", "coordinates": [[[-114.081288, 36.841432], [-114.048427, 36.841432], [-114.048427, 36.195153], [-114.754952, 36.085614], [-114.634459, 35.00118], [-115.647693, 35.80629], [-115.899633, 36.00346], [-115.894156, 36.841432], [-114.081288, 36.841432]]]}}, {"type": "Feature", "properties": {"name": "Bergen", "id": "34003", "FIPS": "34003", "FIPS State": 34, "ST": "NJ", "County": "Bergen County,NJ", "State": "New Jersey"}, "geometry": {"type": "Polygon", "coordinates": [[[-74.21464, 41.135353], [-73.8915, 40.998429], [-73.918885, 40.916275], [-73.918885, 40.910798], [-73.935316, 40.883413], [-73.984608, 40.795782], [-74.011993, 40.823167], [-74.148916, 40.784829], [-74.132485, 40.81769], [-74.21464, 41.135353]]]}}, {"type": "Feature", "properties": {"name": "Fulton", "id": "13121", "FIPS": "13121", "FIPS State": 13, "ST": "GA", "County": "Fulton County,GA", "State": "Georgia"}, "geometry": {"type": "Polygon", "coordinates": [[[-84.407226, 34.108438], [-84.259348, 34.185115], [-84.09504, 34.048192], [-84.275779, 33.955084], [-84.352456, 33.648375], [-84.456518, 33.54979], [-84.609872, 33.500498], [-84.681073, 33.511452], [-84.850858, 33.511452], [-84.807042, 33.571698], [-84.577011, 33.741483], [-84.418179, 34.075577], [-84.407226, 34.108438]]]}}, {"type": "Feature", "properties": {"name": "Denver", "id": "08031", "FIPS": "08031", "FIPS State": 8, "ST": "CO", "County": "Denver County,CO", "State": "Colorado"}, "geometry": {"type": "Polygon", "coordinates": [[[-104.704767, 39.903041], [-104.885506, 39.738733], [-105.055291, 39.629194], [-105.055291, 39.629194], [-105.055291, 39.623717], [-105.055291, 39.793502], [-104.704767, 39.903041]]]}}, {"type": "Feature", "properties": {"name": "Oakland", "id": "26125", "FIPS": "26125", "FIPS State": 26, "ST": "MI", "County": "Oakland County,MI", "State": "Michigan"}, "geometry": {"type": "Polygon", "coordinates": [[[-83.098237, 42.887974], [-83.081806, 42.449818], [-83.552823, 42.433388], [-83.662362, 42.433388], [-83.684269, 42.783912], [-83.454238, 42.882497], [-83.098237, 42.887974]]]}}, {"type": "Feature", "properties": {"name": "Montgomery", "id": "24031", "FIPS": "24031", "FIPS State": 24, "ST": "MD", "County": "Montgomery County,MD", "State": "Maryland"}, "geometry": {"type": "Polygon", "coordinates": [[[-77.243388, 39.317009], [-77.16671, 39.355347], [-76.887386, 39.130793], [-77.002402, 38.966484], [-77.035264, 38.993869], [-77.117418, 38.933623], [-77.331019, 39.059592], [-77.456988, 39.218424], [-77.243388, 39.317009]]]}}, {"type": "Feature", "properties": {"name": "Williamson", "id": "47187", "FIPS": "47187", "FIPS State": 47, "ST": "TN", "County": "Williamson County,TN", "State": "Tennessee"}, "geometry": {"type": "Polygon", "coordinates": [[[-86.921141, 36.052752], [-86.619909, 35.970598], [-86.685633, 35.707705], [-86.784218, 35.707705], [-87.216896, 35.850105], [-87.205942, 35.959644], [-87.184034, 36.047275], [-87.052588, 36.047275], [-86.921141, 36.052752]]]}}, {"type": "Feature", "properties": {"name": "Sacramento", "id": "06067", "FIPS": "06067", "FIPS State": 6, "ST": "CA", "County": "Sacramento County,CA", "State": "California"}, "geometry": {"type": "Polygon", "coordinates": [[[-121.557312, 38.736453], [-121.486112, 38.736453], [-121.141065, 38.714545], [-121.026049, 38.506421], [-121.026049, 38.298298], [-121.097249, 38.287344], [-121.57922, 38.095651], [-121.628512, 38.101128], [-121.864021, 38.068266], [-121.590174, 38.314728], [-121.601128, 38.736453], [-121.557312, 38.736453]]]}}, {"type": "Feature", "properties": {"name": "San Bernardino", "id": "06071", "FIPS": "06071", "FIPS State": 6, "ST": "CA", "County": "San Bernardino County,CA", "State": "California"}, "geometry": {"type": "Polygon", "coordinates": [[[-117.630346, 35.795336], [-115.647693, 35.80629], [-114.634459, 35.00118], [-114.136058, 34.305608], [-114.43729, 34.081054], [-114.733044, 34.081054], [-117.559146, 34.031761], [-117.674161, 33.87293], [-117.7837, 33.94413], [-117.668684, 34.820441], [-117.630346, 35.795336]]]}}, {"type": "Feature", "properties": {"name": "Hennepin", "id": "27053", "FIPS": "27053", "FIPS State": 27, "ST": "MN", "County": "Hennepin County,MN", "State": "Minnesota"}, "geometry": {"type": "Polygon", "coordinates": [[[-93.520854, 45.248535], [-93.5099, 45.243058], [-93.2251, 45.034934], [-93.175807, 44.887057], [-93.329161, 44.788472], [-93.433223, 44.81038], [-93.520854, 44.804903], [-93.767317, 44.980165], [-93.520854, 45.248535]]]}}, {"type": "Feature", "properties": {"name": "Allegheny", "id": "42003", "FIPS": "42003", "FIPS State": 42, "ST": "PA", "County": "Allegheny County,PA", "State": "Pennsylvania"}, "geometry": {"type": "Polygon", "coordinates": [[[-80.146166, 40.67529], [-79.69158, 40.669813], [-79.69158, 40.669813], [-79.872319, 40.198796], [-80.359767, 40.47812], [-80.146166, 40.67529]]]}}, {"type": "Feature", "properties": {"name": "Salt Lake", "id": "49035", "FIPS": "49035", "FIPS State": 49, "ST": "UT", "County": "Salt Lake County,UT", "State": "Utah"}, "geometry": {"type": "Polygon", "coordinates": [[[-111.98362, 40.921752], [-111.737158, 40.861506], [-111.638573, 40.801259], [-111.550942, 40.609566], [-111.594758, 40.576705], [-111.594758, 40.576705], [-112.175313, 40.467166], [-112.262944, 40.773875], [-111.98362, 40.921752]]]}}, {"type": "Feature", "properties": {"name": "Riverside", "id": "06065", "FIPS": "06065", "FIPS State": 6, "ST": "CA", "County": "Riverside County,CA", "State": "California"}, "geometry": {"type": "Polygon", "coordinates": [[[-114.733044, 34.081054], [-114.43729, 34.081054], [-114.628982, 33.434775], [-114.733044, 33.434775], [-116.085849, 33.423821], [-117.476991, 33.505975], [-117.509853, 33.505975], [-117.674161, 33.87293], [-117.559146, 34.031761], [-114.733044, 34.081054]]]}}, {"type": "Feature", "properties": {"name": "Suffolk", "id": "36103", "FIPS": "36103", "FIPS State": 36, "ST": "NY", "County": "Suffolk County,NY", "State": "New York"}, "geometry": {"type": "Polygon", "coordinates": [[[-73.42596, 40.609566], [-73.49716, 40.921752], [-72.100541, 40.992952], [-73.42596, 40.609566]]]}}, {"type": "Feature", "properties": {"name": "Nassau", "id": "36059", "FIPS": "36059", "FIPS State": 36, "ST": "NY", "County": "Nassau County,NY", "State": "New York"}, "geometry": {"type": "Polygon", "coordinates": [[[-73.49716, 40.921752], [-73.42596, 40.609566], [-73.754577, 40.587659], [-73.76553, 40.801259], [-73.49716, 40.921752]]]}}, {"type": "Feature", "properties": {"name": "Broward", "id": "12011", "FIPS": "12011", "FIPS State": 12, "ST": "FL", "County": "Broward County,FL", "State": "Florida"}, "geometry": {"type": "Polygon", "coordinates": [[[-80.250228, 26.33666], [-80.074966, 26.320229], [-80.118781, 25.975182], [-80.874599, 25.980659], [-80.880076, 26.259983], [-80.880076, 26.331183], [-80.250228, 26.33666]]]}}, {"type": "Feature", "properties": {"name": "Philadelphia", "id": "42101", "FIPS": "42101", "FIPS State": 42, "ST": "PA", "County": "Philadelphia County,PA", "State": "Pennsylvania"}, "geometry": {"type": "Polygon", "coordinates": [[[-75.025227, 40.133073], [-75.014273, 40.13855], [-74.975934, 40.050919], [-75.058088, 39.990672], [-75.140242, 39.88661], [-75.211443, 39.864703], [-75.277166, 39.974241], [-75.025227, 40.133073]]]}}, {"type": "Feature", "properties": {"name": "Alameda", "id": "06001", "FIPS": "06001", "FIPS State": 6, "ST": "CA", "County": "Alameda County,CA", "State": "California"}, "geometry": {"type": "Polygon", "coordinates": [[[-122.269314, 37.903958], [-121.557312, 37.821804], [-121.469681, 37.482234], [-121.475158, 37.482234], [-121.853067, 37.482234], [-122.083098, 37.476757], [-122.11596, 37.504141], [-122.31313, 37.898481], [-122.269314, 37.903958]]]}}, {"type": "Feature", "properties": {"name": "Wayne", "id": "26163", "FIPS": "26163", "FIPS State": 26, "ST": "MI", "County": "Wayne County,MI", "State": "Michigan"}, "geometry": {"type": "Polygon", "coordinates": [[[-82.879159, 42.449818], [-82.868205, 42.449818], [-83.185868, 42.033571], [-83.421376, 42.093817], [-83.541869, 42.082863], [-83.552823, 42.433388], [-83.081806, 42.449818], [-82.879159, 42.449818]]]}}, {"type": "Feature", "properties": {"name": "Santa Clara", "id": "06085", "FIPS": "06085", "FIPS State": 6, "ST": "CA", "County": "Santa Clara County,CA", "State": "California"}, "geometry": {"type": "Polygon", "coordinates": [[[-121.853067, 37.482234], [-121.475158, 37.482234], [-121.228696, 37.137186], [-121.217742, 36.961924], [-121.447773, 36.989309], [-121.57922, 36.901678], [-122.154299, 37.285064], [-122.083098, 37.476757], [-121.853067, 37.482234]]]}}, {"type": "Feature", "properties": {"name": "Dallas", "id": "48113", "FIPS": "48113", "FIPS State": 48, "ST": "TX", "County": "Dallas County,TX", "State": "Texas"}, "geometry": {"type": "Polygon", "coordinates": [[[-96.856311, 32.985665], [-96.845357, 32.985665], [-96.516741, 32.980189], [-96.516741, 32.81588], [-96.527695, 32.54751], [-97.03705, 32.54751], [-97.031573, 32.985665], [-96.856311, 32.985665]]]}}, {"type": "Feature", "properties": {"name": "San Diego", "id": "06073", "FIPS": "06073", "FIPS State": 6, "ST": "CA", "County": "San Diego County,CA", "State": "California"}, "geometry": {"type": "Polygon", "coordinates": [[[-117.476991, 33.505975], [-116.085849, 33.423821], [-116.107756, 32.61871], [-117.126467, 32.536556], [-117.597484, 33.385482], [-117.509853, 33.505975], [-117.476991, 33.505975]]]}}, {"type": "Feature", "properties": {"name": "Middlesex", "id": "25017", "FIPS": "25017", "FIPS State": 25, "ST": "MA", "County": "Middlesex County,MA", "State": "Massachusetts"}, "geometry": {"type": "Polygon", "coordinates": [[[-71.257092, 42.734619], [-71.02706, 42.444341], [-71.158507, 42.329326], [-71.163984, 42.301941], [-71.191368, 42.280033], [-71.262569, 42.329326], [-71.476169, 42.154064], [-71.897894, 42.712712], [-71.257092, 42.734619]]]}}, {"type": "Feature", "properties": {"name": "Miami-Dade", "id": "12086", "FIPS": "12086", "FIPS State": 12, "ST": "FL", "County": "Miami-Dade County,FL", "State": "Florida"}, "geometry": {"type": "Polygon", "coordinates": [[[-80.874599, 25.980659], [-80.118781, 25.975182], [-80.304997, 25.383672], [-80.858168, 25.175549], [-80.874599, 25.805397], [-80.874599, 25.980659]]]}}, {"type": "Feature", "properties": {"name": "Orange", "id": "06059", "FIPS": "06059", "FIPS State": 6, "ST": "CA", "County": "Orange County,CA", "State": "California"}, "geometry": {"type": "Polygon", "coordinates": [[[-117.7837, 33.94413], [-117.674161, 33.87293], [-117.509853, 33.505975], [-117.597484, 33.385482], [-118.117793, 33.741483], [-117.7837, 33.94413]]]}}, {"type": "Feature", "properties": {"name": "Maricopa", "id": "04013", "FIPS": "04013", "FIPS State": 4, "ST": "AZ", "County": "Maricopa County,AZ", "State": "Arizona"}, "geometry": {"type": "Polygon", "coordinates": [[[-111.496173, 33.998899], [-111.041587, 33.467636], [-111.578327, 33.467636], [-111.583804, 33.204743], [-112.202698, 33.308805], [-112.202698, 32.509172], [-113.336425, 32.503695], [-113.336425, 33.380005], [-113.336425, 33.998899], [-112.273898, 33.883884], [-111.496173, 33.998899]]]}}, {"type": "Feature", "properties": {"name": "Harris", "id": "48201", "FIPS": "48201", "FIPS State": 48, "ST": "TX", "County": "Harris County,TX", "State": "Texas"}, "geometry": {"type": "Polygon", "coordinates": [[[-95.218706, 30.066456], [-95.098213, 30.165041], [-94.97772, 29.885717], [-94.928428, 29.672117], [-95.016059, 29.557101], [-95.202275, 29.562578], [-95.218706, 29.557101], [-95.295383, 29.595439], [-95.42683, 29.579009], [-95.826646, 29.787132], [-95.804738, 30.088364], [-95.218706, 30.066456]]]}}, {"type": "Feature", "properties": {"name": "King", "id": "53033", "FIPS": "53033", "FIPS State": 53, "ST": "WA", "County": "King County,WA", "State": "Washington"}, "geometry": {"type": "MultiPolygon", "coordinates": [[[[-121.234173, 47.778881], [-121.119157, 47.778881], [-121.11368, 47.598142], [-121.11368, 47.598142], [-121.38205, 47.088787], [-122.417192, 47.318818], [-122.395284, 47.778881], [-121.234173, 47.778881]]], [[[-122.537684, 47.357157], [-122.537684, 47.400973], [-122.482915, 47.510511], [-122.537684, 47.357157]]]]}}, {"type": "Feature", "properties": {"name": "Cook", "id": "17031", "FIPS": "17031", "FIPS State": 17, "ST": "IL", "County": "Cook County,IL", "State": "Illinois"}, "geometry": {"type": "Polygon", "coordinates": [[[-88.120591, 42.154064], [-87.759113, 42.154064], [-87.523605, 41.710431], [-87.523605, 41.469446], [-88.027483, 41.683047], [-87.928898, 41.995232], [-88.262992, 41.984279], [-88.235607, 42.154064], [-88.197268, 42.154064], [-88.120591, 42.154064]]]}}, {"type": "Feature", "properties": {"name": "Los Angeles", "id": "06037", "FIPS": "06037", "FIPS State": 6, "ST": "CA", "County": "Los Angeles County,CA", "State": "California"}, "geometry": {"type": "Polygon", "coordinates": [[[-117.668684, 34.820441], [-117.7837, 33.94413], [-118.117793, 33.741483], [-118.944811, 34.042715], [-118.638103, 34.289177], [-118.884565, 34.793056], [-117.668684, 34.820441]]]}}]}