{"type": "FeatureCollection", "crs": {"type": "name", "properties": {"name": "urn:ogc:def:crs:OGC:1.3:CRS84"}}, "features": [{"type": "Feature", "properties": {"name": "Guadalupe", "id": "35019", "FIPS": "35019", "FIPS State": 35, "ST": "NM", "County": "Guadalupe County,NM", "State": "New Mexico"}, "geometry": {"type": "Polygon", "coordinates": [[[-104.124211, 35.14358], [-104.129688, 34.776625], [-104.890983, 34.60684], [-104.890983, 34.349424], [-105.312707, 34.349424], [-105.290799, 35.039518], [-105.290799, 35.21478], [-104.124211, 35.14358]]]}}, {"type": "Feature", "properties": {"name": "Scotts Bluff", "id": "31157", "FIPS": "31157", "FIPS State": 31, "ST": "NE", "County": "Scotts Bluff County,NE", "State": "Nebraska"}, "geometry": {"type": "Polygon", "coordinates": [[[-103.456024, 42.006186], [-103.401255, 42.006186], [-103.362916, 42.000709], [-103.368393, 41.699478], [-104.053011, 41.699478], [-104.053011, 42.000709], [-103.456024, 42.006186]]]}}, {"type": "Feature", "properties": {"name": "Keith", "id": "31101", "FIPS": "31101", "FIPS State": 31, "ST": "NE", "County": "Keith County,NE", "State": "Nebraska"}, "geometry": {"type": "Polygon", "coordinates": [[[-101.363833, 41.392769], [-101.270725, 41.392769], [-101.248817, 41.003906], [-101.878665, 41.003906], [-102.053927, 41.003906], [-102.053927, 41.222984], [-101.982727, 41.392769], [-101.407648, 41.392769], [-101.363833, 41.392769]]]}}, {"type": "Feature", "properties": {"name": "Holt", "id": "31089", "FIPS": "31089", "FIPS State": 31, "ST": "NE", "County": "Holt County,NE", "State": "Nebraska"}, "geometry": {"type": "Polygon", "coordinates": [[[-98.997795, 42.887974], [-98.3077, 42.762004], [-98.302223, 42.438865], [-98.302223, 42.08834], [-98.762286, 42.08834], [-99.222349, 42.08834], [-99.233303, 42.08834], [-99.255211, 42.80582], [-98.997795, 42.887974]]]}}, {"type": "Feature", "properties": {"name": "Mineral", "id": "30061", "FIPS": "30061", "FIPS State": 30, "ST": "MT", "County": "Mineral County,MT", "State": "Montana"}, "geometry": {"type": "Polygon", "coordinates": [[[-115.499816, 47.488604], [-114.798768, 47.269526], [-114.672798, 46.738263], [-114.963076, 46.935433], [-115.658647, 47.466696], [-115.499816, 47.488604]]]}}, {"type": "Feature", "properties": {"name": "Jefferson", "id": "30043", "FIPS": "30043", "FIPS State": 30, "ST": "MT", "County": "Jefferson County,MT", "State": "Montana"}, "geometry": {"type": "Polygon", "coordinates": [[[-111.967189, 46.568478], [-111.78645, 46.568478], [-111.660481, 45.834568], [-111.802881, 45.796229], [-111.967189, 45.850998], [-112.191744, 45.746937], [-112.57513, 46.179615], [-112.558699, 46.267246], [-112.312237, 46.4206], [-111.967189, 46.568478]]]}}, {"type": "Feature", "properties": {"name": "Daniels", "id": "30019", "FIPS": "30019", "FIPS State": 30, "ST": "MT", "County": "Daniels County,MT", "State": "Montana"}, "geometry": {"type": "Polygon", "coordinates": [[[-105.055291, 49.000239], [-104.973137, 48.562084], [-105.756339, 48.562084], [-105.805632, 48.562084], [-106.11234, 49.000239], [-105.055291, 49.000239]]]}}, {"type": "Feature", "properties": {"name": "Duplin", "id": "37061", "FIPS": "37061", "FIPS State": 37, "ST": "NC", "County": "Duplin County,NC", "State": "North Carolina"}, "geometry": {"type": "Polygon", "coordinates": [[[-78.043021, 35.192872], [-77.834897, 35.176442], [-77.730835, 35.006656], [-77.676066, 34.973795], [-77.681543, 34.721856], [-78.015636, 34.732809], [-78.114221, 34.721856], [-78.163514, 35.187396], [-78.043021, 35.192872]]]}}, {"type": "Feature", "properties": {"name": "Webster", "id": "29225", "FIPS": "29225", "FIPS State": 29, "ST": "MO", "County": "Webster County,MO", "State": "Missouri"}, "geometry": {"type": "Polygon", "coordinates": [[[-93.071745, 37.48771], [-92.852668, 37.482234], [-92.688359, 37.482234], [-92.688359, 37.065986], [-92.90196, 37.071463], [-93.066268, 37.087894], [-93.071745, 37.41651], [-93.071745, 37.48771]]]}}, {"type": "Feature", "properties": {"name": "Polk", "id": "29167", "FIPS": "29167", "FIPS State": 29, "ST": "MO", "County": "Polk County,MO", "State": "Missouri"}, "geometry": {"type": "Polygon", "coordinates": [[[-93.630393, 37.827281], [-93.575624, 37.827281], [-93.186761, 37.805373], [-93.181284, 37.41651], [-93.619439, 37.427464], [-93.613962, 37.575342], [-93.630393, 37.827281]]]}}, {"type": "Feature", "properties": {"name": "Phelps", "id": "29161", "FIPS": "29161", "FIPS State": 29, "ST": "MO", "County": "Phelps County,MO", "State": "Missouri"}, "geometry": {"type": "Polygon", "coordinates": [[[-91.63131, 38.155897], [-91.532725, 38.15042], [-91.527248, 37.788942], [-91.806572, 37.597249], [-92.031127, 37.602726], [-92.020173, 38.00802], [-91.63131, 38.155897]]]}}, {"type": "Feature", "properties": {"name": "Pettis", "id": "29159", "FIPS": "29159", "FIPS State": 29, "ST": "MO", "County": "Pettis County,MO", "State": "Missouri"}, "geometry": {"type": "Polygon", "coordinates": [[[-93.498947, 38.944577], [-93.049837, 38.928146], [-93.060791, 38.692637], [-93.066268, 38.528329], [-93.159376, 38.533806], [-93.515377, 38.511898], [-93.5099, 38.555714], [-93.498947, 38.928146], [-93.498947, 38.944577]]]}}, {"type": "Feature", "properties": {"name": "Livingston", "id": "29117", "FIPS": "29117", "FIPS State": 29, "ST": "MO", "County": "Livingston County,MO", "State": "Missouri"}, "geometry": {"type": "Polygon", "coordinates": [[[-93.362023, 39.968764], [-93.268915, 39.705871], [-93.279869, 39.61824], [-93.422269, 39.612763], [-93.756363, 39.612763], [-93.756363, 39.782548], [-93.76184, 39.957811], [-93.362023, 39.968764]]]}}, {"type": "Feature", "properties": {"name": "Lafayette", "id": "29107", "FIPS": "29107", "FIPS State": 29, "ST": "MO", "County": "Lafayette County,MO", "State": "Missouri"}, "geometry": {"type": "Polygon", "coordinates": [[[-93.597531, 39.240331], [-93.477039, 39.295101], [-93.498947, 38.944577], [-93.498947, 38.928146], [-93.800178, 38.9391], [-94.112364, 38.917192], [-94.106887, 39.141746], [-93.756363, 39.20747], [-93.597531, 39.240331]]]}}, {"type": "Feature", "properties": {"name": "Laclede", "id": "29105", "FIPS": "29105", "FIPS State": 29, "ST": "MO", "County": "Laclede County,MO", "State": "Missouri"}, "geometry": {"type": "Polygon", "coordinates": [[[-92.852668, 37.893004], [-92.409035, 37.860142], [-92.250204, 37.602726], [-92.250204, 37.47128], [-92.688359, 37.482234], [-92.852668, 37.482234], [-92.852668, 37.893004]]]}}, {"type": "Feature", "properties": {"name": "Washington", "id": "28151", "FIPS": "28151", "FIPS State": 28, "ST": "MS", "County": "Washington County,MS", "State": "Mississippi"}, "geometry": {"type": "Polygon", "coordinates": [[[-91.001462, 33.527883], [-90.765953, 33.527883], [-90.716661, 33.270466], [-90.70023, 33.095204], [-90.913831, 33.095204], [-90.913831, 33.007573], [-91.16577, 33.01305], [-91.215062, 33.527883], [-91.001462, 33.527883]]]}}, {"type": "Feature", "properties": {"name": "Tippah", "id": "28139", "FIPS": "28139", "FIPS State": 28, "ST": "MS", "County": "Tippah County,MS", "State": "Mississippi"}, "geometry": {"type": "Polygon", "coordinates": [[[-89.018809, 34.995703], [-88.821639, 34.995703], [-88.717578, 34.754717], [-88.734008, 34.595886], [-89.09001, 34.595886], [-89.018809, 34.995703]]]}}, {"type": "Feature", "properties": {"name": "Newton", "id": "28101", "FIPS": "28101", "FIPS State": 28, "ST": "MS", "County": "Newton County,MS", "State": "Mississippi"}, "geometry": {"type": "Polygon", "coordinates": [[[-89.133825, 32.574895], [-88.914747, 32.574895], [-88.914747, 32.224371], [-89.018809, 32.224371], [-89.320041, 32.224371], [-89.320041, 32.574895], [-89.320041, 32.574895], [-89.133825, 32.574895]]]}}, {"type": "Feature", "properties": {"name": "Lincoln", "id": "28085", "FIPS": "28085", "FIPS State": 28, "ST": "MS", "County": "Lincoln County,MS", "State": "Mississippi"}, "geometry": {"type": "Polygon", "coordinates": [[[-90.311367, 31.698584], [-90.245644, 31.715015], [-90.245644, 31.34806], [-90.262075, 31.34806], [-90.355183, 31.34806], [-90.546876, 31.34806], [-90.634507, 31.34806], [-90.738569, 31.610953], [-90.738569, 31.698584], [-90.311367, 31.698584]]]}}, {"type": "Feature", "properties": {"name": "Leflore", "id": "28083", "FIPS": "28083", "FIPS State": 28, "ST": "MS", "County": "Leflore County,MS", "State": "Mississippi"}, "geometry": {"type": "Polygon", "coordinates": [[[-90.453768, 33.812683], [-90.136105, 33.719575], [-90.130628, 33.67576], [-90.174444, 33.330713], [-90.333275, 33.303328], [-90.453768, 33.330713], [-90.453768, 33.812683]]]}}, {"type": "Feature", "properties": {"name": "Steele", "id": "27147", "FIPS": "27147", "FIPS State": 27, "ST": "MN", "County": "Steele County,MN", "State": "Minnesota"}, "geometry": {"type": "Polygon", "coordinates": [[[-93.164853, 44.196962], [-93.04436, 44.196962], [-93.04436, 43.846438], [-93.049837, 43.846438], [-93.164853, 43.846438], [-93.405839, 43.846438], [-93.405839, 44.196962], [-93.164853, 44.196962]]]}}, {"type": "Feature", "properties": {"name": "Sibley", "id": "27143", "FIPS": "27143", "FIPS State": 27, "ST": "MN", "County": "Sibley County,MN", "State": "Minnesota"}, "geometry": {"type": "Polygon", "coordinates": [[[-94.134272, 44.717272], [-94.008302, 44.717272], [-93.767317, 44.640595], [-93.909717, 44.54201], [-93.931625, 44.454379], [-94.112364, 44.454379], [-94.621719, 44.454379], [-94.49575, 44.717272], [-94.134272, 44.717272]]]}}, {"type": "Feature", "properties": {"name": "Ray", "id": "29177", "FIPS": "29177", "FIPS State": 29, "ST": "MO", "County": "Ray County,MO", "State": "Missouri"}, "geometry": {"type": "Polygon", "coordinates": [[[-94.10141, 39.525132], [-93.76184, 39.525132], [-93.756363, 39.20747], [-94.106887, 39.141746], [-94.210949, 39.20747], [-94.210949, 39.453932], [-94.210949, 39.525132], [-94.10141, 39.525132]]]}}, {"type": "Feature", "properties": {"name": "Gates", "id": "37073", "FIPS": "37073", "FIPS State": 37, "ST": "NC", "County": "Gates County,NC", "State": "North Carolina"}, "geometry": {"type": "Polygon", "coordinates": [[[-76.914771, 36.551154], [-76.542339, 36.551154], [-76.493047, 36.512815], [-76.454708, 36.375892], [-76.55877, 36.353984], [-76.695693, 36.293737], [-76.914771, 36.545677], [-76.914771, 36.551154]]]}}, {"type": "Feature", "properties": {"name": "Pender", "id": "37141", "FIPS": "37141", "FIPS State": 37, "ST": "NC", "County": "Pender County,NC", "State": "North Carolina"}, "geometry": {"type": "Polygon", "coordinates": [[[-78.015636, 34.732809], [-77.681543, 34.721856], [-77.517235, 34.442532], [-77.714404, 34.294654], [-77.960867, 34.376808], [-78.032067, 34.332993], [-78.125175, 34.365854], [-78.163514, 34.354901], [-78.256622, 34.398716], [-78.256622, 34.55207], [-78.114221, 34.721856], [-78.015636, 34.732809]]]}}, {"type": "Feature", "properties": {"name": "Person", "id": "37145", "FIPS": "37145", "FIPS State": 37, "ST": "NC", "County": "Person County,NC", "State": "North Carolina"}, "geometry": {"type": "Polygon", "coordinates": [[[-79.138409, 36.5402], [-78.798839, 36.5402], [-78.804316, 36.233491], [-78.952193, 36.238968], [-79.15484, 36.244445], [-79.138409, 36.5402]]]}}, {"type": "Feature", "properties": {"name": "Kershaw", "id": "45055", "FIPS": "45055", "FIPS State": 45, "ST": "SC", "County": "Kershaw County,SC", "State": "South Carolina"}, "geometry": {"type": "Polygon", "coordinates": [[[-80.387151, 34.595886], [-80.288566, 34.365854], [-80.288566, 34.365854], [-80.480259, 34.168685], [-80.617183, 34.097484], [-80.825307, 34.26727], [-80.880076, 34.458962], [-80.409059, 34.612317], [-80.387151, 34.595886]]]}}, {"type": "Feature", "properties": {"name": "Susquehanna", "id": "42115", "FIPS": "42115", "FIPS State": 42, "ST": "PA", "County": "Susquehanna County,PA", "State": "Pennsylvania"}, "geometry": {"type": "Polygon", "coordinates": [[[-75.890583, 42.000709], [-75.48529, 42.000709], [-75.463382, 41.639231], [-75.720798, 41.644708], [-76.115138, 41.650185], [-76.147999, 42.000709], [-76.104184, 42.000709], [-75.890583, 42.000709]]]}}, {"type": "Feature", "properties": {"name": "Juniata", "id": "42067", "FIPS": "42067", "FIPS State": 42, "ST": "PA", "County": "Juniata County,PA", "State": "Pennsylvania"}, "geometry": {"type": "Polygon", "coordinates": [[[-77.133849, 40.686244], [-76.936679, 40.636951], [-76.947633, 40.625997], [-77.670589, 40.291904], [-77.703451, 40.264519], [-77.752743, 40.379535], [-77.287203, 40.691721], [-77.133849, 40.686244]]]}}, {"type": "Feature", "properties": {"name": "Fulton", "id": "42057", "FIPS": "42057", "FIPS State": 42, "ST": "PA", "County": "Fulton County,PA", "State": "Pennsylvania"}, "geometry": {"type": "Polygon", "coordinates": [[[-78.136129, 40.165934], [-77.862282, 40.061872], [-78.09779, 39.722302], [-78.284006, 39.722302], [-78.344253, 39.722302], [-78.382591, 39.722302], [-78.136129, 40.165934]]]}}, {"type": "Feature", "properties": {"name": "Union", "id": "41061", "FIPS": "41061", "FIPS State": 41, "ST": "OR", "County": "Union County,OR", "State": "Oregon"}, "geometry": {"type": "Polygon", "coordinates": [[[-117.898716, 45.861952], [-117.268868, 45.07875], [-117.778223, 44.991119], [-118.243763, 44.958257], [-118.51761, 44.996596], [-118.698349, 45.34712], [-118.117793, 45.47309], [-117.975393, 45.861952], [-117.898716, 45.861952]]]}}, {"type": "Feature", "properties": {"name": "Jefferson", "id": "41031", "FIPS": "41031", "FIPS State": 41, "ST": "OR", "County": "Jefferson County,OR", "State": "Oregon"}, "geometry": {"type": "Polygon", "coordinates": [[[-120.998664, 44.821334], [-120.374293, 44.821334], [-120.385247, 44.563917], [-121.108203, 44.388655], [-121.842113, 44.394132], [-121.79282, 44.68441], [-121.759959, 44.826811], [-120.998664, 44.821334]]]}}, {"type": "Feature", "properties": {"name": "Curry", "id": "41015", "FIPS": "41015", "FIPS State": 41, "ST": "OR", "County": "Curry County,OR", "State": "Oregon"}, "geometry": {"type": "Polygon", "coordinates": [[[-124.295782, 42.953697], [-123.813811, 42.789389], [-123.715227, 42.783912], [-124.027412, 42.35671], [-123.819288, 41.995232], [-124.213628, 42.000709], [-124.481998, 42.953697], [-124.295782, 42.953697]]]}}, {"type": "Feature", "properties": {"name": "Sequoyah", "id": "40135", "FIPS": "40135", "FIPS State": 40, "ST": "OK", "County": "Sequoyah County,OK", "State": "Oklahoma"}, "geometry": {"type": "Polygon", "coordinates": [[[-94.851751, 35.636505], [-94.807935, 35.636505], [-94.473842, 35.636505], [-94.430026, 35.395519], [-94.430026, 35.379088], [-94.813412, 35.324319], [-95.048921, 35.461243], [-95.125598, 35.636505], [-94.851751, 35.636505]]]}}, {"type": "Feature", "properties": {"name": "Rogers", "id": "40131", "FIPS": "40131", "FIPS State": 40, "ST": "OK", "County": "Rogers County,OK", "State": "Oklahoma"}, "geometry": {"type": "Polygon", "coordinates": [[[-95.810215, 36.594969], [-95.432306, 36.594969], [-95.328245, 36.512815], [-95.437783, 36.07466], [-95.618522, 36.162291], [-95.760923, 36.162291], [-95.810215, 36.425184], [-95.810215, 36.594969]]]}}, {"type": "Feature", "properties": {"name": "Payne", "id": "40119", "FIPS": "40119", "FIPS State": 40, "ST": "OK", "County": "Payne County,OK", "State": "Oklahoma"}, "geometry": {"type": "Polygon", "coordinates": [[[-97.031573, 36.244445], [-96.927511, 36.244445], [-96.620803, 36.162291], [-96.620803, 35.943213], [-97.080866, 35.943213], [-97.141112, 35.943213], [-97.354713, 36.156814], [-97.031573, 36.244445]]]}}, {"type": "Feature", "properties": {"name": "Muskogee", "id": "40101", "FIPS": "40101", "FIPS State": 40, "ST": "OK", "County": "Muskogee County,OK", "State": "Oklahoma"}, "geometry": {"type": "Polygon", "coordinates": [[[-95.656861, 35.855582], [-95.267998, 35.811767], [-95.125598, 35.636505], [-95.048921, 35.461243], [-95.344675, 35.291457], [-95.476122, 35.554351], [-95.71163, 35.554351], [-95.7664, 35.855582], [-95.656861, 35.855582]]]}}, {"type": "Feature", "properties": {"name": "Kay", "id": "40071", "FIPS": "40071", "FIPS State": 40, "ST": "OK", "County": "Kay County,OK", "State": "Oklahoma"}, "geometry": {"type": "Polygon", "coordinates": [[[-96.867265, 37.000263], [-96.752249, 37.000263], [-97.058958, 36.594969], [-97.464251, 36.594969], [-97.464251, 36.594969], [-97.464251, 37.000263], [-97.146589, 37.000263], [-96.867265, 37.000263]]]}}, {"type": "Feature", "properties": {"name": "Grant", "id": "40053", "FIPS": "40053", "FIPS State": 40, "ST": "OK", "County": "Grant County,OK", "State": "Oklahoma"}, "geometry": {"type": "Polygon", "coordinates": [[[-97.650467, 37.000263], [-97.464251, 37.000263], [-97.464251, 36.594969], [-97.984561, 36.594969], [-98.105053, 36.594969], [-98.11053, 37.000263], [-97.803822, 37.000263], [-97.650467, 37.000263]]]}}, {"type": "Feature", "properties": {"name": "Garfield", "id": "40047", "FIPS": "40047", "FIPS State": 40, "ST": "OK", "County": "Garfield County,OK", "State": "Oklahoma"}, "geometry": {"type": "Polygon", "coordinates": [[[-97.984561, 36.594969], [-97.464251, 36.594969], [-97.464251, 36.594969], [-97.458774, 36.162291], [-97.677852, 36.162291], [-98.0941, 36.167768], [-98.105053, 36.162291], [-98.105053, 36.463523], [-98.105053, 36.594969], [-97.984561, 36.594969]]]}}, {"type": "Feature", "properties": {"name": "Delaware", "id": "40041", "FIPS": "40041", "FIPS State": 40, "ST": "OK", "County": "Delaware County,OK", "State": "Oklahoma"}, "geometry": {"type": "Polygon", "coordinates": [[[-94.890089, 36.671646], [-94.616242, 36.666169], [-94.616242, 36.501861], [-94.561473, 36.162291], [-94.769597, 36.162291], [-94.796981, 36.162291], [-95.010582, 36.162291], [-95.005105, 36.507338], [-94.999628, 36.671646], [-94.890089, 36.671646]]]}}, {"type": "Feature", "properties": {"name": "Adair", "id": "40001", "FIPS": "40001", "FIPS State": 40, "ST": "OK", "County": "Adair County,OK", "State": "Oklahoma"}, "geometry": {"type": "Polygon", "coordinates": [[[-94.769597, 36.162291], [-94.561473, 36.162291], [-94.550519, 36.102045], [-94.490273, 35.756997], [-94.473842, 35.636505], [-94.807935, 35.636505], [-94.796981, 36.162291], [-94.769597, 36.162291]]]}}, {"type": "Feature", "properties": {"name": "Sandusky", "id": "39143", "FIPS": "39143", "FIPS State": 39, "ST": "OH", "County": "Sandusky County,OH", "State": "Ohio"}, "geometry": {"type": "Polygon", "coordinates": [[[-83.415899, 41.502308], [-82.955836, 41.458492], [-82.840821, 41.288707], [-82.840821, 41.255845], [-83.070852, 41.255845], [-83.421376, 41.255845], [-83.415899, 41.502308]]]}}, {"type": "Feature", "properties": {"name": "Ross", "id": "39141", "FIPS": "39141", "FIPS State": 39, "ST": "OH", "County": "Ross County,OH", "State": "Ohio"}, "geometry": {"type": "Polygon", "coordinates": [[[-83.268022, 39.514178], [-82.742236, 39.470363], [-82.747713, 39.366301], [-82.764143, 39.20747], [-82.786051, 39.169131], [-83.355653, 39.196516], [-83.372084, 39.377255], [-83.268022, 39.514178]]]}}, {"type": "Feature", "properties": {"name": "Preble", "id": "39135", "FIPS": "39135", "FIPS State": 39, "ST": "OH", "County": "Preble County,OH", "State": "Ohio"}, "geometry": {"type": "Polygon", "coordinates": [[[-84.483903, 39.919472], [-84.478426, 39.590856], [-84.812519, 39.568948], [-84.812519, 39.727779], [-84.812519, 39.919472], [-84.483903, 39.919472]]]}}, {"type": "Feature", "properties": {"name": "Paulding", "id": "39125", "FIPS": "39125", "FIPS State": 39, "ST": "OH", "County": "Paulding County,OH", "State": "Ohio"}, "geometry": {"type": "Polygon", "coordinates": [[[-84.577011, 41.250368], [-84.341502, 41.162737], [-84.401749, 40.992952], [-84.456518, 40.987475], [-84.801565, 40.987475], [-84.801565, 41.250368], [-84.577011, 41.250368]]]}}, {"type": "Feature", "properties": {"name": "Lawrence", "id": "39087", "FIPS": "39087", "FIPS State": 39, "ST": "OH", "County": "Lawrence County,OH", "State": "Ohio"}, "geometry": {"type": "Polygon", "coordinates": [[[-82.649128, 38.851469], [-82.577927, 38.845992], [-82.28765, 38.583099], [-82.506727, 38.413313], [-82.561497, 38.40236], [-82.594358, 38.424267], [-82.665558, 38.506421], [-82.813436, 38.572145], [-82.649128, 38.851469]]]}}, {"type": "Feature", "properties": {"name": "Hocking", "id": "39073", "FIPS": "39073", "FIPS State": 39, "ST": "OH", "County": "Hocking County,OH", "State": "Ohio"}, "geometry": {"type": "Polygon", "coordinates": [[[-82.375281, 39.656579], [-82.16168, 39.557994], [-82.28765, 39.382732], [-82.747713, 39.366301], [-82.742236, 39.470363], [-82.731282, 39.552517], [-82.375281, 39.656579]]]}}, {"type": "Feature", "properties": {"name": "Guernsey", "id": "39059", "FIPS": "39059", "FIPS State": 39, "ST": "OH", "County": "Guernsey County,OH", "State": "Ohio"}, "geometry": {"type": "Polygon", "coordinates": [[[-81.652325, 40.220704], [-81.62494, 40.220704], [-81.340139, 40.215227], [-81.225123, 40.171411], [-81.236077, 39.952334], [-81.471585, 39.892087], [-81.69614, 39.842795], [-81.718048, 40.149503], [-81.652325, 40.220704]]]}}, {"type": "Feature", "properties": {"name": "Coshocton", "id": "39031", "FIPS": "39031", "FIPS State": 39, "ST": "OH", "County": "Coshocton County,OH", "State": "Ohio"}, "geometry": {"type": "Polygon", "coordinates": [[[-82.183588, 40.456212], [-81.707094, 40.445258], [-81.62494, 40.220704], [-81.652325, 40.220704], [-81.718048, 40.149503], [-82.189065, 40.165934], [-82.194542, 40.237135], [-82.183588, 40.456212]]]}}, {"type": "Feature", "properties": {"name": "Champaign", "id": "39021", "FIPS": "39021", "FIPS State": 39, "ST": "OH", "County": "Champaign County,OH", "State": "Ohio"}, "geometry": {"type": "Polygon", "coordinates": [[[-83.881439, 40.264519], [-83.552823, 40.231658], [-83.50353, 40.111165], [-83.514484, 40.01258], [-84.034794, 40.039965], [-84.02384, 40.182365], [-84.012886, 40.275473], [-83.881439, 40.264519]]]}}, {"type": "Feature", "properties": {"name": "Ashland", "id": "39005", "FIPS": "39005", "FIPS State": 39, "ST": "OH", "County": "Ashland County,OH", "State": "Ohio"}, "geometry": {"type": "Polygon", "coordinates": [[[-82.375281, 41.064153], [-82.336942, 41.064153], [-82.172634, 41.064153], [-82.128818, 40.992952], [-82.128818, 40.669813], [-82.221926, 40.565751], [-82.336942, 40.554797], [-82.435527, 40.992952], [-82.375281, 41.064153]]]}}, {"type": "Feature", "properties": {"name": "Stutsman", "id": "38093", "FIPS": "38093", "FIPS State": 38, "ST": "ND", "County": "Stutsman County,ND", "State": "North Dakota"}, "geometry": {"type": "Polygon", "coordinates": [[[-99.479765, 47.329772], [-99.266165, 47.329772], [-98.499393, 47.324295], [-98.466531, 47.242141], [-98.439147, 46.628724], [-99.036133, 46.628724], [-99.452381, 46.634201], [-99.479765, 47.329772]]]}}, {"type": "Feature", "properties": {"name": "Oliver", "id": "38065", "FIPS": "38065", "FIPS State": 38, "ST": "ND", "County": "Oliver County,ND", "State": "North Dakota"}, "geometry": {"type": "Polygon", "coordinates": [[[-101.254294, 47.264049], [-100.964016, 47.15451], [-100.936632, 46.984725], [-101.76365, 46.979248], [-101.254294, 47.264049]]]}}, {"type": "Feature", "properties": {"name": "Morton", "id": "38059", "FIPS": "38059", "FIPS State": 38, "ST": "ND", "County": "Morton County,ND", "State": "North Dakota"}, "geometry": {"type": "Polygon", "coordinates": [[[-100.936632, 46.984725], [-100.662785, 46.634201], [-100.591584, 46.426077], [-101.024263, 46.283677], [-101.29811, 46.628724], [-102.097743, 46.716355], [-102.097743, 46.979248], [-101.76365, 46.979248], [-100.936632, 46.984725]]]}}, {"type": "Feature", "properties": {"name": "Nobles", "id": "27105", "FIPS": "27105", "FIPS State": 27, "ST": "MN", "County": "Nobles County,MN", "State": "Minnesota"}, "geometry": {"type": "Polygon", "coordinates": [[[-96.051201, 43.846438], [-95.465168, 43.846438], [-95.454214, 43.846438], [-95.454214, 43.501391], [-95.859508, 43.501391], [-96.051201, 43.501391], [-96.051201, 43.846438]]]}}, {"type": "Feature", "properties": {"name": "Washington", "id": "19183", "FIPS": "19183", "FIPS State": 19, "ST": "IA", "County": "Washington County,IA", "State": "Iowa"}, "geometry": {"type": "Polygon", "coordinates": [[[-91.790141, 41.513262], [-91.483432, 41.425631], [-91.483432, 41.162737], [-91.598448, 41.162737], [-91.713464, 41.162737], [-91.943495, 41.162737], [-91.943495, 41.513262], [-91.82848, 41.513262], [-91.790141, 41.513262]]]}}, {"type": "Feature", "properties": {"name": "Weston", "id": "56045", "FIPS": "56045", "FIPS State": 56, "ST": "WY", "County": "Weston County,WY", "State": "Wyoming"}, "geometry": {"type": "Polygon", "coordinates": [[[-104.392581, 44.180532], [-104.053011, 44.180532], [-104.053011, 44.142193], [-104.053011, 43.851915], [-104.053011, 43.501391], [-104.901936, 43.501391], [-105.077198, 43.495914], [-105.077198, 44.175055], [-104.392581, 44.180532]]]}}, {"type": "Feature", "properties": {"name": "Harrison", "id": "18061", "FIPS": "18061", "FIPS State": 18, "ST": "IN", "County": "Harrison County,IN", "State": "Indiana"}, "geometry": {"type": "Polygon", "coordinates": [[[-86.198185, 38.424267], [-86.033877, 38.41879], [-85.90243, 38.177805], [-85.946246, 38.00802], [-86.001015, 37.997066], [-86.307724, 38.166851], [-86.252954, 38.424267], [-86.198185, 38.424267]]]}}, {"type": "Feature", "properties": {"name": "Pickens", "id": "13227", "FIPS": "13227", "FIPS State": 13, "ST": "GA", "County": "Pickens County,GA", "State": "Georgia"}, "geometry": {"type": "Polygon", "coordinates": [[[-84.346979, 34.563024], [-84.259348, 34.382285], [-84.582488, 34.387762], [-84.653688, 34.415147], [-84.653688, 34.546593], [-84.346979, 34.563024]]]}}, {"type": "Feature", "properties": {"name": "Clinton", "id": "19045", "FIPS": "19045", "FIPS State": 19, "ST": "IA", "County": "Clinton County,IA", "State": "Iowa"}, "geometry": {"type": "Polygon", "coordinates": [[[-90.366137, 42.033571], [-90.152536, 42.033571], [-90.152536, 41.929509], [-90.240167, 41.781632], [-90.316844, 41.726862], [-90.798815, 41.770678], [-90.8974, 41.770678], [-90.8974, 41.94594], [-90.8974, 42.033571], [-90.366137, 42.033571]]]}}, {"type": "Feature", "properties": {"name": "Davis", "id": "19051", "FIPS": "19051", "FIPS State": 19, "ST": "IA", "County": "Davis County,IA", "State": "Iowa"}, "geometry": {"type": "Polygon", "coordinates": [[[-92.179004, 40.899844], [-92.179004, 40.598613], [-92.348789, 40.598613], [-92.452851, 40.593136], [-92.639067, 40.593136], [-92.639067, 40.899844], [-92.179004, 40.899844]]]}}, {"type": "Feature", "properties": {"name": "Delaware", "id": "19055", "FIPS": "19055", "FIPS State": 19, "ST": "IA", "County": "Delaware County,IA", "State": "Iowa"}, "geometry": {"type": "Polygon", "coordinates": [[[-91.204109, 42.646988], [-91.132908, 42.646988], [-91.127431, 42.296464], [-91.36294, 42.296464], [-91.598448, 42.296464], [-91.609402, 42.641511], [-91.204109, 42.646988]]]}}, {"type": "Feature", "properties": {"name": "Siskiyou", "id": "06093", "FIPS": "06093", "FIPS State": 6, "ST": "CA", "County": "Siskiyou County,CA", "State": "California"}, "geometry": {"type": "Polygon", "coordinates": [[[-123.233256, 42.006186], [-122.291222, 42.006186], [-121.447773, 41.995232], [-121.447773, 41.184645], [-122.499346, 41.184645], [-122.586977, 41.35443], [-122.915593, 40.992952], [-123.408518, 41.179168], [-123.660457, 41.381815], [-123.518057, 42.000709], [-123.233256, 42.006186]]]}}, {"type": "Feature", "properties": {"name": "Thomas", "id": "13275", "FIPS": "13275", "FIPS State": 13, "ST": "GA", "County": "Thomas County,GA", "State": "Georgia"}, "geometry": {"type": "Polygon", "coordinates": [[[-84.100517, 31.07969], [-84.001932, 31.07969], [-83.739039, 31.035875], [-83.744516, 30.657966], [-84.007409, 30.674397], [-84.084086, 30.674397], [-84.116948, 31.07969], [-84.100517, 31.07969]]]}}, {"type": "Feature", "properties": {"name": "Steuben", "id": "18151", "FIPS": "18151", "FIPS State": 18, "ST": "IN", "County": "Steuben County,IN", "State": "Indiana"}, "geometry": {"type": "Polygon", "coordinates": [[[-84.823473, 41.759724], [-84.807042, 41.694001], [-84.807042, 41.529692], [-84.916581, 41.529692], [-85.195905, 41.524216], [-85.195905, 41.759724], [-84.823473, 41.759724]]]}}, {"type": "Feature", "properties": {"name": "Fayette", "id": "19065", "FIPS": "19065", "FIPS State": 19, "ST": "IA", "County": "Fayette County,IA", "State": "Iowa"}, "geometry": {"type": "Polygon", "coordinates": [[[-92.080419, 43.085144], [-91.603925, 43.079667], [-91.609402, 42.641511], [-91.905157, 42.641511], [-92.080419, 42.641511], [-92.080419, 42.904404], [-92.080419, 43.085144]]]}}, {"type": "Feature", "properties": {"name": "Greene", "id": "19073", "FIPS": "19073", "FIPS State": 19, "ST": "IA", "County": "Greene County,IA", "State": "Iowa"}, "geometry": {"type": "Polygon", "coordinates": [[[-94.167133, 42.208833], [-94.161656, 41.863786], [-94.282149, 41.863786], [-94.484796, 41.863786], [-94.627196, 41.863786], [-94.627196, 42.208833], [-94.397165, 42.208833], [-94.167133, 42.208833]]]}}, {"type": "Feature", "properties": {"name": "Bonner", "id": "16017", "FIPS": "16017", "FIPS State": 16, "ST": "ID", "County": "Bonner County,ID", "State": "Idaho"}, "geometry": {"type": "Polygon", "coordinates": [[[-116.836189, 48.846885], [-116.786897, 48.501838], [-116.04751, 48.501838], [-116.04751, 48.217037], [-116.04751, 47.976051], [-116.310403, 48.030821], [-116.321357, 47.88842], [-116.567819, 47.992482], [-117.044313, 47.976051], [-117.044313, 48.047251], [-117.033359, 48.846885], [-116.836189, 48.846885]]]}}, {"type": "Feature", "properties": {"name": "Harrison", "id": "19085", "FIPS": "19085", "FIPS State": 19, "ST": "IA", "County": "Harrison County,IA", "State": "Iowa"}, "geometry": {"type": "Polygon", "coordinates": [[[-96.122401, 41.863786], [-95.673292, 41.863786], [-95.558276, 41.863786], [-95.49803, 41.507785], [-95.848554, 41.507785], [-95.996431, 41.507785], [-96.122401, 41.683047], [-96.138832, 41.863786], [-96.122401, 41.863786]]]}}, {"type": "Feature", "properties": {"name": "Glenn", "id": "06021", "FIPS": "06021", "FIPS State": 6, "ST": "CA", "County": "Glenn County,CA", "State": "California"}, "geometry": {"type": "Polygon", "coordinates": [[[-122.937501, 39.798979], [-122.04476, 39.798979], [-121.891405, 39.382732], [-122.077621, 39.415593], [-122.740331, 39.382732], [-122.882732, 39.579902], [-122.937501, 39.798979]]]}}, {"type": "Feature", "properties": {"name": "Minidoka", "id": "16067", "FIPS": "16067", "FIPS State": 16, "ST": "ID", "County": "Minidoka County,ID", "State": "Idaho"}, "geometry": {"type": "Polygon", "coordinates": [[[-113.714333, 43.200159], [-113.413102, 43.200159], [-113.473348, 42.668896], [-113.933411, 42.537449], [-113.933411, 42.767481], [-113.714333, 43.200159]]]}}, {"type": "Feature", "properties": {"name": "Nez Perce", "id": "16069", "FIPS": "16069", "FIPS State": 16, "ST": "ID", "County": "Nez Perce County,ID", "State": "Idaho"}, "geometry": {"type": "Polygon", "coordinates": [[[-116.644497, 46.61777], [-116.458281, 46.628724], [-116.37065, 46.464416], [-116.699266, 45.998876], [-116.792374, 45.856475], [-116.918344, 45.993399], [-117.038836, 46.426077], [-117.038836, 46.541093], [-116.644497, 46.61777]]]}}, {"type": "Feature", "properties": {"name": "Union", "id": "05139", "FIPS": "05139", "FIPS State": 5, "ST": "AR", "County": "Union County,AR", "State": "Arkansas"}, "geometry": {"type": "Polygon", "coordinates": [[[-92.737652, 33.385482], [-92.567867, 33.369051], [-92.348789, 33.297851], [-92.135188, 33.160928], [-92.069465, 33.007573], [-92.710267, 33.01305], [-92.726698, 33.01305], [-92.989591, 33.018527], [-92.978637, 33.380005], [-92.737652, 33.385482]]]}}, {"type": "Feature", "properties": {"name": "Phillips", "id": "08095", "FIPS": "08095", "FIPS State": 8, "ST": "CO", "County": "Phillips County,CO", "State": "Colorado"}, "geometry": {"type": "Polygon", "coordinates": [[[-102.327774, 40.74649], [-102.053927, 40.751967], [-102.053927, 40.697198], [-102.053927, 40.439781], [-102.426359, 40.439781], [-102.667345, 40.439781], [-102.650914, 40.751967], [-102.327774, 40.74649]]]}}, {"type": "Feature", "properties": {"name": "Buena Vista", "id": "19021", "FIPS": "19021", "FIPS State": 19, "ST": "IA", "County": "Buena Vista County,IA", "State": "Iowa"}, "geometry": {"type": "Polygon", "coordinates": [[[-95.251567, 42.909881], [-94.911997, 42.909881], [-94.911997, 42.559357], [-95.388491, 42.559357], [-95.388491, 42.909881], [-95.251567, 42.909881]]]}}, {"type": "Feature", "properties": {"name": "Lumpkin", "id": "13187", "FIPS": "13187", "FIPS State": 13, "ST": "GA", "County": "Lumpkin County,GA", "State": "Georgia"}, "geometry": {"type": "Polygon", "coordinates": [[[-83.854055, 34.721856], [-83.843101, 34.502778], [-83.980024, 34.420624], [-84.188148, 34.601363], [-84.155286, 34.650655], [-83.854055, 34.721856]]]}}, {"type": "Feature", "properties": {"name": "Rio Grande", "id": "08105", "FIPS": "08105", "FIPS State": 8, "ST": "CO", "County": "Rio Grande County,CO", "State": "Colorado"}, "geometry": {"type": "Polygon", "coordinates": [[[-106.692896, 37.832758], [-106.04114, 37.750604], [-106.04114, 37.400079], [-106.523111, 37.400079], [-106.676465, 37.405556], [-106.709327, 37.405556], [-106.692896, 37.832758]]]}}, {"type": "Feature", "properties": {"name": "Starke", "id": "18149", "FIPS": "18149", "FIPS State": 18, "ST": "IN", "County": "Starke County,IN", "State": "Indiana"}, "geometry": {"type": "Polygon", "coordinates": [[[-86.466555, 41.431108], [-86.466555, 41.173691], [-86.669202, 41.173691], [-86.932095, 41.173691], [-86.932095, 41.239415], [-86.526801, 41.431108], [-86.466555, 41.431108]]]}}, {"type": "Feature", "properties": {"name": "Ben Hill", "id": "13017", "FIPS": "13017", "FIPS State": 13, "ST": "GA", "County": "Ben Hill County,GA", "State": "Georgia"}, "geometry": {"type": "Polygon", "coordinates": [[[-83.481623, 31.846462], [-83.180391, 31.846462], [-82.994175, 31.780739], [-82.999652, 31.6712], [-83.454238, 31.758831], [-83.481623, 31.846462]]]}}, {"type": "Feature", "properties": {"name": "Taylor", "id": "12123", "FIPS": "12123", "FIPS State": 12, "ST": "FL", "County": "Taylor County,FL", "State": "Florida"}, "geometry": {"type": "Polygon", "coordinates": [[[-83.509007, 30.301965], [-83.366607, 30.258149], [-83.317314, 29.819994], [-83.410422, 29.66664], [-83.990978, 30.082887], [-83.821193, 30.301965], [-83.509007, 30.301965]]]}}, {"type": "Feature", "properties": {"name": "Berrien", "id": "13019", "FIPS": "13019", "FIPS State": 13, "ST": "GA", "County": "Berrien County,GA", "State": "Georgia"}, "geometry": {"type": "Polygon", "coordinates": [[[-83.240637, 31.47403], [-83.147529, 31.47403], [-83.142052, 31.419261], [-83.048944, 31.183752], [-83.196822, 31.024921], [-83.295407, 31.024921], [-83.43233, 31.34806], [-83.339222, 31.47403], [-83.240637, 31.47403]]]}}, {"type": "Feature", "properties": {"name": "Brantley", "id": "13025", "FIPS": "13025", "FIPS State": 13, "ST": "GA", "County": "Brantley County,GA", "State": "Georgia"}, "geometry": {"type": "Polygon", "coordinates": [[[-82.041187, 31.369968], [-82.041187, 31.375445], [-81.729002, 31.331629], [-81.76734, 31.167321], [-81.937125, 31.046829], [-81.986418, 31.057782], [-82.134295, 31.00849], [-82.282173, 31.227568], [-82.041187, 31.369968]]]}}, {"type": "Feature", "properties": {"name": "Pulaski", "id": "18131", "FIPS": "18131", "FIPS State": 18, "ST": "IN", "County": "Pulaski County,IN", "State": "Indiana"}, "geometry": {"type": "Polygon", "coordinates": [[[-86.669202, 41.173691], [-86.466555, 41.173691], [-86.466555, 40.910798], [-86.581571, 40.910798], [-86.877326, 40.910798], [-86.932095, 40.910798], [-86.932095, 41.173691], [-86.669202, 41.173691]]]}}, {"type": "Feature", "properties": {"name": "Butts", "id": "13035", "FIPS": "13035", "FIPS State": 13, "ST": "GA", "County": "Butts County,GA", "State": "Georgia"}, "geometry": {"type": "Polygon", "coordinates": [[[-83.925255, 33.451205], [-83.865008, 33.369051], [-83.821193, 33.182835], [-84.001932, 33.204743], [-84.040271, 33.204743], [-84.122425, 33.204743], [-84.100517, 33.297851], [-83.925255, 33.451205]]]}}, {"type": "Feature", "properties": {"name": "Clark", "id": "17023", "FIPS": "17023", "FIPS State": 17, "ST": "IL", "County": "Clark County,IL", "State": "Illinois"}, "geometry": {"type": "Polygon", "coordinates": [[[-87.76459, 39.486794], [-87.529082, 39.47584], [-87.605759, 39.256762], [-87.644097, 39.158177], [-87.786498, 39.180085], [-87.950806, 39.174608], [-88.005575, 39.174608], [-88.011052, 39.377255], [-87.96176, 39.481317], [-87.76459, 39.486794]]]}}, {"type": "Feature", "properties": {"name": "Vermillion", "id": "18165", "FIPS": "18165", "FIPS State": 18, "ST": "IN", "County": "Vermillion County,IN", "State": "Indiana"}, "geometry": {"type": "Polygon", "coordinates": [[[-87.408589, 40.127596], [-87.419543, 39.952334], [-87.381204, 39.607286], [-87.534558, 39.607286], [-87.534558, 39.881133], [-87.529082, 40.149503], [-87.408589, 40.127596]]]}}, {"type": "Feature", "properties": {"name": "Parke", "id": "18121", "FIPS": "18121", "FIPS State": 18, "ST": "IN", "County": "Parke County,IN", "State": "Indiana"}, "geometry": {"type": "Polygon", "coordinates": [[[-87.205942, 39.952334], [-87.090926, 39.952334], [-87.008772, 39.864703], [-87.014249, 39.607286], [-87.200465, 39.607286], [-87.331912, 39.607286], [-87.381204, 39.607286], [-87.419543, 39.952334], [-87.205942, 39.952334]]]}}, {"type": "Feature", "properties": {"name": "Gulf", "id": "12045", "FIPS": "12045", "FIPS State": 12, "ST": "FL", "County": "Gulf County,FL", "State": "Florida"}, "geometry": {"type": "Polygon", "coordinates": [[[-85.22329, 30.20338], [-85.113751, 30.197903], [-85.02612, 29.973348], [-85.217813, 29.694024], [-85.387598, 29.924056], [-85.387598, 30.20338], [-85.22329, 30.20338]]]}}, {"type": "Feature", "properties": {"name": "Orange", "id": "18117", "FIPS": "18117", "FIPS State": 18, "ST": "IN", "County": "Orange County,IN", "State": "Indiana"}, "geometry": {"type": "Polygon", "coordinates": [[[-86.307724, 38.68716], [-86.307724, 38.424267], [-86.680156, 38.396883], [-86.680156, 38.528329], [-86.685633, 38.68716], [-86.307724, 38.68716]]]}}, {"type": "Feature", "properties": {"name": "Coffee", "id": "13069", "FIPS": "13069", "FIPS State": 13, "ST": "GA", "County": "Coffee County,GA", "State": "Georgia"}, "geometry": {"type": "Polygon", "coordinates": [[[-82.994175, 31.780739], [-82.835344, 31.8136], [-82.62722, 31.6712], [-82.599835, 31.468553], [-82.62722, 31.364491], [-83.142052, 31.419261], [-83.147529, 31.47403], [-82.999652, 31.6712], [-82.994175, 31.780739]]]}}, {"type": "Feature", "properties": {"name": "Gordon", "id": "13129", "FIPS": "13129", "FIPS State": 13, "ST": "GA", "County": "Gordon County,GA", "State": "Georgia"}, "geometry": {"type": "Polygon", "coordinates": [[[-84.916581, 34.634225], [-84.653688, 34.584932], [-84.653688, 34.546593], [-84.653688, 34.415147], [-84.933012, 34.398716], [-85.004212, 34.393239], [-85.069935, 34.584932], [-85.048028, 34.623271], [-84.916581, 34.634225]]]}}, {"type": "Feature", "properties": {"name": "Calhoun", "id": "12013", "FIPS": "12013", "FIPS State": 12, "ST": "FL", "County": "Calhoun County,FL", "State": "Florida"}, "geometry": {"type": "Polygon", "coordinates": [[[-85.16852, 30.608673], [-84.933012, 30.608673], [-85.113751, 30.197903], [-85.22329, 30.20338], [-85.387598, 30.20338], [-85.382121, 30.564858], [-85.16852, 30.608673]]]}}, {"type": "Feature", "properties": {"name": "Jeff Davis", "id": "13161", "FIPS": "13161", "FIPS State": 13, "ST": "GA", "County": "Jeff Davis County,GA", "State": "Georgia"}, "geometry": {"type": "Polygon", "coordinates": [[[-82.468389, 31.966955], [-82.43005, 31.966955], [-82.523158, 31.709538], [-82.62722, 31.6712], [-82.835344, 31.8136], [-82.643651, 31.917662], [-82.545066, 31.961478], [-82.479343, 31.972432], [-82.468389, 31.966955]]]}}, {"type": "Feature", "properties": {"name": "Jackson", "id": "12063", "FIPS": "12063", "FIPS State": 12, "ST": "FL", "County": "Jackson County,FL", "State": "Florida"}, "geometry": {"type": "Polygon", "coordinates": [[[-85.486183, 30.997536], [-85.004212, 31.003013], [-84.867289, 30.712735], [-84.933012, 30.608673], [-85.16852, 30.608673], [-85.382121, 30.564858], [-85.43689, 30.570335], [-85.601199, 30.833228], [-85.497137, 30.997536], [-85.486183, 30.997536]]]}}, {"type": "Feature", "properties": {"name": "Searcy", "id": "05129", "FIPS": "05129", "FIPS State": 5, "ST": "AR", "County": "Searcy County,AR", "State": "Arkansas"}, "geometry": {"type": "Polygon", "coordinates": [[[-92.945776, 36.112998], [-92.891006, 36.112998], [-92.409035, 36.063706], [-92.414512, 35.976075], [-92.414512, 35.789859], [-92.611682, 35.789859], [-92.808852, 35.724136], [-92.951253, 35.724136], [-92.945776, 36.112998]]]}}, {"type": "Feature", "properties": {"name": "Appling", "id": "13001", "FIPS": "13001", "FIPS State": 13, "ST": "GA", "County": "Appling County,GA", "State": "Georgia"}, "geometry": {"type": "Polygon", "coordinates": [[[-82.43005, 31.966955], [-82.227403, 31.912185], [-82.046664, 31.824554], [-82.134295, 31.632861], [-82.134295, 31.468553], [-82.227403, 31.528799], [-82.523158, 31.709538], [-82.43005, 31.966955]]]}}, {"type": "Feature", "properties": {"name": "Richland", "id": "17159", "FIPS": "17159", "FIPS State": 17, "ST": "IL", "County": "Richland County,IL", "State": "Illinois"}, "geometry": {"type": "Polygon", "coordinates": [[[-87.90699, 38.851469], [-87.912467, 38.572145], [-87.956283, 38.572145], [-88.005575, 38.572145], [-88.147976, 38.566668], [-88.252038, 38.599529], [-88.257515, 38.845992], [-87.945329, 38.851469], [-87.90699, 38.851469]]]}}, {"type": "Feature", "properties": {"name": "Macon", "id": "01087", "FIPS": "01087", "FIPS State": 1, "ST": "AL", "County": "Macon County,AL", "State": "Alabama"}, "geometry": {"type": "Polygon", "coordinates": [[[-85.694307, 32.580372], [-85.431413, 32.410587], [-85.431413, 32.235325], [-85.918861, 32.273663], [-86.022923, 32.421541], [-85.885999, 32.492741], [-85.694307, 32.596803], [-85.694307, 32.580372]]]}}, {"type": "Feature", "properties": {"name": "Clay", "id": "17025", "FIPS": "17025", "FIPS State": 17, "ST": "IL", "County": "Clay County,IL", "State": "Illinois"}, "geometry": {"type": "Polygon", "coordinates": [[[-88.613516, 38.917192], [-88.361576, 38.911715], [-88.257515, 38.845992], [-88.252038, 38.599529], [-88.586131, 38.605006], [-88.701147, 38.605006], [-88.69567, 38.824084], [-88.69567, 38.917192], [-88.613516, 38.917192]]]}}, {"type": "Feature", "properties": {"name": "Walker", "id": "01127", "FIPS": "01127", "FIPS State": 1, "ST": "AL", "County": "Walker County,AL", "State": "Alabama"}, "geometry": {"type": "Polygon", "coordinates": [[[-87.627666, 34.004376], [-87.151173, 33.993423], [-86.964957, 33.856499], [-86.954003, 33.812683], [-87.266188, 33.511452], [-87.42502, 33.60456], [-87.63862, 33.916745], [-87.63862, 34.004376], [-87.627666, 34.004376]]]}}, {"type": "Feature", "properties": {"name": "Winston", "id": "01133", "FIPS": "01133", "FIPS State": 1, "ST": "AL", "County": "Winston County,AL", "State": "Alabama"}, "geometry": {"type": "Polygon", "coordinates": [[[-87.633143, 34.305608], [-87.529082, 34.305608], [-87.107357, 34.300131], [-87.151173, 33.993423], [-87.627666, 34.004376], [-87.63862, 34.004376], [-87.633143, 34.305608]]]}}, {"type": "Feature", "properties": {"name": "Limestone", "id": "01083", "FIPS": "01083", "FIPS State": 1, "ST": "AL", "County": "Limestone County,AL", "State": "Alabama"}, "geometry": {"type": "Polygon", "coordinates": [[[-87.211419, 35.00118], [-86.838987, 34.990226], [-86.784218, 34.990226], [-86.789695, 34.55207], [-87.03068, 34.650655], [-87.107357, 34.683517], [-87.260711, 34.760194], [-87.211419, 35.00118]]]}}, {"type": "Feature", "properties": {"name": "Apache", "id": "04001", "FIPS": "04001", "FIPS State": 4, "ST": "AZ", "County": "Apache County,AZ", "State": "Arizona"}, "geometry": {"type": "Polygon", "coordinates": [[[-110.000968, 37.000263], [-109.042503, 37.000263], [-109.04798, 36.00346], [-109.04798, 34.957364], [-109.04798, 34.579455], [-109.04798, 33.779822], [-109.497089, 33.653852], [-109.743552, 33.500498], [-109.891429, 33.566221], [-109.842137, 35.516012], [-110.000968, 35.663889], [-110.000968, 37.000263]]]}}, {"type": "Feature", "properties": {"name": "Ogle", "id": "17141", "FIPS": "17141", "FIPS State": 17, "ST": "IL", "County": "Ogle County,IL", "State": "Illinois"}, "geometry": {"type": "Polygon", "coordinates": [[[-89.281702, 42.203356], [-88.942132, 42.154064], [-88.942132, 41.891171], [-89.544596, 41.902124], [-89.632227, 41.902124], [-89.686996, 41.929509], [-89.686996, 42.197879], [-89.396718, 42.203356], [-89.281702, 42.203356]]]}}, {"type": "Feature", "properties": {"name": "Lauderdale", "id": "01077", "FIPS": "01077", "FIPS State": 1, "ST": "AL", "County": "Lauderdale County,AL", "State": "Alabama"}, "geometry": {"type": "Polygon", "coordinates": [[[-87.983668, 35.006656], [-87.605759, 35.00118], [-87.222373, 35.00118], [-87.211419, 35.00118], [-87.260711, 34.760194], [-87.42502, 34.798533], [-88.098683, 34.891641], [-88.202745, 34.995703], [-87.983668, 35.006656]]]}}, {"type": "Feature", "properties": {"name": "Montgomery", "id": "17135", "FIPS": "17135", "FIPS State": 17, "ST": "IL", "County": "Montgomery County,IL", "State": "Illinois"}, "geometry": {"type": "Polygon", "coordinates": [[[-89.588411, 39.525132], [-89.533642, 39.525132], [-89.139302, 39.34987], [-89.139302, 39.218424], [-89.248841, 39.026731], [-89.637704, 38.999346], [-89.69795, 38.999346], [-89.703427, 39.525132], [-89.588411, 39.525132]]]}}, {"type": "Feature", "properties": {"name": "Jackson", "id": "01071", "FIPS": "01071", "FIPS State": 1, "ST": "AL", "County": "Jackson County,AL", "State": "Alabama"}, "geometry": {"type": "Polygon", "coordinates": [[[-85.864092, 34.990226], [-85.606675, 34.984749], [-85.584768, 34.858779], [-86.055785, 34.475393], [-86.329632, 34.601363], [-86.313201, 34.990226], [-85.864092, 34.990226]]]}}, {"type": "Feature", "properties": {"name": "Shelby", "id": "17173", "FIPS": "17173", "FIPS State": 17, "ST": "IL", "County": "Shelby County,IL", "State": "Illinois"}, "geometry": {"type": "Polygon", "coordinates": [[[-89.024286, 39.656579], [-88.810686, 39.651102], [-88.471115, 39.448455], [-88.471115, 39.371778], [-88.471115, 39.212947], [-88.580654, 39.212947], [-88.805209, 39.218424], [-89.139302, 39.218424], [-89.139302, 39.34987], [-89.024286, 39.656579]]]}}, {"type": "Feature", "properties": {"name": "Baxter", "id": "05005", "FIPS": "05005", "FIPS State": 5, "ST": "AR", "County": "Baxter County,AR", "State": "Arkansas"}, "geometry": {"type": "Polygon", "coordinates": [[[-92.529528, 36.496384], [-92.151619, 36.496384], [-92.157096, 36.260876], [-92.195435, 36.134906], [-92.414512, 35.976075], [-92.409035, 36.063706], [-92.529528, 36.496384]]]}}, {"type": "Feature", "properties": {"name": "Menard", "id": "17129", "FIPS": "17129", "FIPS State": 17, "ST": "IL", "County": "Menard County,IL", "State": "Illinois"}, "geometry": {"type": "Polygon", "coordinates": [[[-89.670565, 40.160457], [-89.599365, 40.122119], [-89.577457, 39.974241], [-89.993705, 39.903041], [-89.993705, 40.105688], [-89.670565, 40.160457]]]}}, {"type": "Feature", "properties": {"name": "Craighead", "id": "05031", "FIPS": "05031", "FIPS State": 5, "ST": "AR", "County": "Craighead County,AR", "State": "Arkansas"}, "geometry": {"type": "Polygon", "coordinates": [[[-90.289459, 35.997983], [-90.289459, 35.702228], [-90.930262, 35.707705], [-91.034323, 35.707705], [-91.034323, 35.882967], [-90.853584, 35.970598], [-90.377091, 35.997983], [-90.289459, 35.997983]]]}}, {"type": "Feature", "properties": {"name": "Shelby", "id": "19165", "FIPS": "19165", "FIPS State": 19, "ST": "IA", "County": "Shelby County,IA", "State": "Iowa"}, "geometry": {"type": "Polygon", "coordinates": [[[-95.322768, 41.863786], [-95.092736, 41.863786], [-95.043444, 41.502308], [-95.152983, 41.507785], [-95.49803, 41.507785], [-95.558276, 41.863786], [-95.322768, 41.863786]]]}}, {"type": "Feature", "properties": {"name": "Grant", "id": "18053", "FIPS": "18053", "FIPS State": 18, "ST": "IN", "County": "Grant County,IN", "State": "Indiana"}, "geometry": {"type": "Polygon", "coordinates": [[[-85.447844, 40.653382], [-85.447844, 40.565751], [-85.442367, 40.379535], [-85.513567, 40.379535], [-85.579291, 40.379535], [-85.672399, 40.379535], [-85.864092, 40.379535], [-85.864092, 40.40692], [-85.864092, 40.565751], [-85.864092, 40.653382], [-85.639537, 40.653382], [-85.447844, 40.653382]]]}}, {"type": "Feature", "properties": {"name": "Marion", "id": "19125", "FIPS": "19125", "FIPS State": 19, "ST": "IA", "County": "Marion County,IA", "State": "Iowa"}, "geometry": {"type": "Polygon", "coordinates": [[[-92.869098, 41.507785], [-92.869098, 41.162737], [-93.09913, 41.162737], [-93.329161, 41.162737], [-93.329161, 41.491354], [-93.329161, 41.507785], [-92.869098, 41.507785]]]}}, {"type": "Feature", "properties": {"name": "Macoupin", "id": "17117", "FIPS": "17117", "FIPS State": 17, "ST": "IL", "County": "Macoupin County,IL", "State": "Illinois"}, "geometry": {"type": "Polygon", "coordinates": [[[-89.758196, 39.525132], [-89.703427, 39.525132], [-89.69795, 38.999346], [-90.147059, 38.999346], [-90.147059, 39.262239], [-90.152536, 39.519655], [-89.927981, 39.519655], [-89.758196, 39.525132]]]}}, {"type": "Feature", "properties": {"name": "Elmore", "id": "01051", "FIPS": "01051", "FIPS State": 1, "ST": "AL", "County": "Elmore County,AL", "State": "Alabama"}, "geometry": {"type": "Polygon", "coordinates": [[[-86.006492, 32.755634], [-85.885999, 32.492741], [-86.022923, 32.421541], [-86.307724, 32.416064], [-86.411786, 32.410587], [-86.411786, 32.706342], [-86.378924, 32.755634], [-86.006492, 32.755634]]]}}, {"type": "Feature", "properties": {"name": "Lonoke", "id": "05085", "FIPS": "05085", "FIPS State": 5, "ST": "AR", "County": "Lonoke County,AR", "State": "Arkansas"}, "geometry": {"type": "Polygon", "coordinates": [[[-91.801095, 35.028564], [-91.680602, 34.48087], [-91.70251, 34.48087], [-92.031127, 34.491824], [-92.118758, 35.012133], [-92.118758, 35.066903], [-91.801095, 35.028564]]]}}, {"type": "Feature", "properties": {"name": "Lafayette", "id": "05073", "FIPS": "05073", "FIPS State": 5, "ST": "AR", "County": "Lafayette County,AR", "State": "Arkansas"}, "geometry": {"type": "Polygon", "coordinates": [[[-93.723501, 33.484067], [-93.482516, 33.47859], [-93.3675, 33.445728], [-93.487993, 33.018527], [-93.49347, 33.018527], [-93.520854, 33.018527], [-93.805655, 33.018527], [-93.723501, 33.484067]]]}}, {"type": "Feature", "properties": {"name": "Warren", "id": "19181", "FIPS": "19181", "FIPS State": 19, "ST": "IA", "County": "Warren County,IA", "State": "Iowa"}, "geometry": {"type": "Polygon", "coordinates": [[[-93.70707, 41.513262], [-93.329161, 41.491354], [-93.329161, 41.162737], [-93.559193, 41.162737], [-93.674209, 41.162737], [-93.789224, 41.162737], [-93.789224, 41.513262], [-93.70707, 41.513262]]]}}]}