{"type": "FeatureCollection", "crs": {"type": "name", "properties": {"name": "urn:ogc:def:crs:OGC:1.3:CRS84"}}, "features": [{"type": "Feature", "properties": {"name": "Weakley", "id": "47183", "FIPS": "47183", "FIPS State": 47, "ST": "TN", "County": "Weakley County,TN", "State": "Tennessee"}, "geometry": {"type": "Polygon", "coordinates": [[[-88.827116, 36.501861], [-88.816163, 36.501861], [-88.514931, 36.501861], [-88.531362, 36.151337], [-88.690193, 36.063706], [-88.958563, 36.222537], [-88.827116, 36.501861]]]}}, {"type": "Feature", "properties": {"name": "Okanogan", "id": "53047", "FIPS": "53047", "FIPS State": 53, "ST": "WA", "County": "Okanogan County,WA", "State": "Washington"}, "geometry": {"type": "Polygon", "coordinates": [[[-118.835273, 49.000239], [-118.851704, 47.95962], [-118.972196, 47.94319], [-118.98315, 47.95962], [-119.021489, 48.069159], [-119.870414, 47.95962], [-120.702909, 48.529222], [-120.752202, 48.655192], [-120.850787, 49.000239], [-118.835273, 49.000239]]]}}, {"type": "Feature", "properties": {"name": "Carver", "id": "27019", "FIPS": "27019", "FIPS State": 27, "ST": "MN", "County": "Carver County,MN", "State": "Minnesota"}, "geometry": {"type": "Polygon", "coordinates": [[[-94.013779, 44.980165], [-93.767317, 44.980165], [-93.520854, 44.804903], [-93.767317, 44.640595], [-94.008302, 44.717272], [-94.013779, 44.980165]]]}}, {"type": "Feature", "properties": {"name": "Cullman", "id": "01043", "FIPS": "01043", "FIPS State": 1, "ST": "AL", "County": "Cullman County,AL", "State": "Alabama"}, "geometry": {"type": "Polygon", "coordinates": [[[-86.986864, 34.311085], [-86.581571, 34.305608], [-86.455601, 34.261793], [-86.488463, 34.261793], [-86.964957, 33.856499], [-87.151173, 33.993423], [-87.107357, 34.300131], [-87.112834, 34.311085], [-86.986864, 34.311085]]]}}, {"type": "Feature", "properties": {"name": "Van Buren", "id": "26159", "FIPS": "26159", "FIPS State": 26, "ST": "MI", "County": "Van Buren County,MI", "State": "Michigan"}, "geometry": {"type": "Polygon", "coordinates": [[[-85.776461, 42.422434], [-85.765507, 42.422434], [-85.765507, 42.07191], [-86.22557, 42.07191], [-86.302247, 42.241695], [-86.362493, 42.241695], [-86.274862, 42.416957], [-85.776461, 42.422434]]]}}, {"type": "Feature", "properties": {"name": "Shiawassee", "id": "26155", "FIPS": "26155", "FIPS State": 26, "ST": "MI", "County": "Shiawassee County,MI", "State": "Michigan"}, "geometry": {"type": "Polygon", "coordinates": [[[-83.941686, 43.134436], [-83.930732, 43.134436], [-83.925255, 42.778435], [-84.160763, 42.778435], [-84.270302, 42.778435], [-84.36341, 42.778435], [-84.368887, 43.118005], [-84.368887, 43.128959], [-83.941686, 43.134436]]]}}, {"type": "Feature", "properties": {"name": "Stephenson", "id": "17177", "FIPS": "17177", "FIPS State": 17, "ST": "IL", "County": "Stephenson County,IL", "State": "Illinois"}, "geometry": {"type": "Polygon", "coordinates": [[[-89.927981, 42.504588], [-89.84035, 42.504588], [-89.402195, 42.499111], [-89.396718, 42.203356], [-89.686996, 42.197879], [-89.917028, 42.197879], [-89.927981, 42.504588]]]}}, {"type": "Feature", "properties": {"name": "Jefferson", "id": "54037", "FIPS": "54037", "FIPS State": 54, "ST": "WV", "County": "Jefferson County,WV", "State": "West Virginia"}, "geometry": {"type": "Polygon", "coordinates": [[[-77.823943, 39.492271], [-77.823943, 39.492271], [-77.719881, 39.322485], [-77.82942, 39.130793], [-78.032067, 39.262239], [-77.823943, 39.492271]]]}}, {"type": "Feature", "properties": {"name": "Winona", "id": "27169", "FIPS": "27169", "FIPS State": 27, "ST": "MN", "County": "Winona County,MN", "State": "Minnesota"}, "geometry": {"type": "Polygon", "coordinates": [[[-92.069465, 44.191485], [-91.855864, 44.191485], [-91.56011, 44.027177], [-91.423186, 43.983362], [-91.286263, 43.846438], [-91.373894, 43.846438], [-91.729895, 43.846438], [-92.080419, 43.846438], [-92.080419, 44.109331], [-92.069465, 44.191485]]]}}, {"type": "Feature", "properties": {"name": "Lowndes", "id": "13185", "FIPS": "13185", "FIPS State": 13, "ST": "GA", "County": "Lowndes County,GA", "State": "Georgia"}, "geometry": {"type": "Polygon", "coordinates": [[[-83.383038, 31.030398], [-83.295407, 31.024921], [-83.196822, 31.024921], [-83.02156, 30.849659], [-83.136575, 30.625104], [-83.311837, 30.636058], [-83.355653, 30.636058], [-83.476146, 31.030398], [-83.383038, 31.030398]]]}}, {"type": "Feature", "properties": {"name": "Hancock", "id": "28045", "FIPS": "28045", "FIPS State": 28, "ST": "MS", "County": "Hancock County,MS", "State": "Mississippi"}, "geometry": {"type": "Polygon", "coordinates": [[[-89.495303, 30.647012], [-89.341949, 30.647012], [-89.341949, 30.373165], [-89.522688, 30.181472], [-89.686996, 30.460796], [-89.495303, 30.647012]]]}}, {"type": "Feature", "properties": {"name": "Lafayette", "id": "28071", "FIPS": "28071", "FIPS State": 28, "ST": "MS", "County": "Lafayette County,MS", "State": "Mississippi"}, "geometry": {"type": "Polygon", "coordinates": [[[-89.62675, 34.557547], [-89.248841, 34.497301], [-89.248841, 34.376808], [-89.243364, 34.163208], [-89.511734, 34.163208], [-89.719858, 34.190592], [-89.719858, 34.55207], [-89.670565, 34.55207], [-89.62675, 34.557547]]]}}, {"type": "Feature", "properties": {"name": "Worcester", "id": "24047", "FIPS": "24047", "FIPS State": 24, "ST": "MD", "County": "Worcester County,MD", "State": "Maryland"}, "geometry": {"type": "Polygon", "coordinates": [[[-75.342889, 38.451652], [-75.047134, 38.451652], [-75.244304, 38.029928], [-75.397659, 38.013497], [-75.622213, 37.991589], [-75.611259, 38.27639], [-75.342889, 38.451652]]]}}, {"type": "Feature", "properties": {"name": "Paulding", "id": "13223", "FIPS": "13223", "FIPS State": 13, "ST": "GA", "County": "Paulding County,GA", "State": "Georgia"}, "geometry": {"type": "Polygon", "coordinates": [[[-84.922058, 34.081054], [-84.735842, 34.081054], [-84.724888, 33.807207], [-84.90015, 33.779822], [-85.037074, 33.812683], [-85.048028, 33.905791], [-84.922058, 34.081054]]]}}, {"type": "Feature", "properties": {"name": "Christian", "id": "29043", "FIPS": "29043", "FIPS State": 29, "ST": "MO", "County": "Christian County,MO", "State": "Missouri"}, "geometry": {"type": "Polygon", "coordinates": [[[-93.482516, 37.098848], [-93.066268, 37.087894], [-92.90196, 37.071463], [-92.907437, 36.80857], [-93.301777, 36.819524], [-93.592055, 36.994786], [-93.608485, 36.994786], [-93.608485, 37.098848], [-93.482516, 37.098848]]]}}, {"type": "Feature", "properties": {"name": "Sawyer", "id": "55113", "FIPS": "55113", "FIPS State": 55, "ST": "WI", "County": "Sawyer County,WI", "State": "Wisconsin"}, "geometry": {"type": "Polygon", "coordinates": [[[-91.302693, 46.157707], [-90.924785, 46.15223], [-90.678322, 45.982445], [-90.678322, 45.637398], [-91.538202, 45.637398], [-91.549156, 46.157707], [-91.302693, 46.157707]]]}}, {"type": "Feature", "properties": {"name": "Cooper", "id": "29053", "FIPS": "29053", "FIPS State": 29, "ST": "MO", "County": "Cooper County,MO", "State": "Missouri"}, "geometry": {"type": "Polygon", "coordinates": [[[-92.918391, 39.032208], [-92.556913, 38.971961], [-92.496666, 38.922669], [-92.841714, 38.681683], [-93.060791, 38.692637], [-93.049837, 38.928146], [-92.934822, 39.065069], [-92.918391, 39.032208]]]}}, {"type": "Feature", "properties": {"name": "Twin Falls", "id": "16083", "FIPS": "16083", "FIPS State": 16, "ST": "ID", "County": "Twin Falls County,ID", "State": "Idaho"}, "geometry": {"type": "Polygon", "coordinates": [[[-115.039753, 42.909881], [-114.618029, 42.646988], [-113.999134, 42.526496], [-114.283935, 41.995232], [-115.039753, 41.995232], [-115.039753, 42.767481], [-115.039753, 42.909881]]]}}, {"type": "Feature", "properties": {"name": "Walker", "id": "13295", "FIPS": "13295", "FIPS State": 13, "ST": "GA", "County": "Walker County,GA", "State": "Georgia"}, "geometry": {"type": "Polygon", "coordinates": [[[-85.272582, 34.984749], [-85.267105, 34.984749], [-85.146612, 34.765671], [-85.048028, 34.623271], [-85.069935, 34.584932], [-85.09732, 34.584932], [-85.108274, 34.584932], [-85.529998, 34.590409], [-85.535475, 34.623271], [-85.36569, 34.984749], [-85.272582, 34.984749]]]}}, {"type": "Feature", "properties": {"name": "Douglas", "id": "55031", "FIPS": "55031", "FIPS State": 55, "ST": "WI", "County": "Douglas County,WI", "State": "Wisconsin"}, "geometry": {"type": "Polygon", "coordinates": [[[-91.549156, 46.754694], [-91.549156, 46.157707], [-92.020173, 46.157707], [-92.047557, 46.157707], [-92.29402, 46.157707], [-92.29402, 46.415123], [-92.29402, 46.661586], [-92.014696, 46.705401], [-91.549156, 46.754694]]]}}, {"type": "Feature", "properties": {"name": "Jackson", "id": "18071", "FIPS": "18071", "FIPS State": 18, "ST": "IN", "County": "Jackson County,IN", "State": "Indiana"}, "geometry": {"type": "Polygon", "coordinates": [[[-85.798368, 39.070546], [-85.792891, 38.807653], [-85.885999, 38.736453], [-86.274862, 38.763838], [-86.318678, 38.988392], [-86.318678, 39.048638], [-86.077692, 39.048638], [-85.798368, 39.070546]]]}}, {"type": "Feature", "properties": {"name": "Crook", "id": "56011", "FIPS": "56011", "FIPS State": 56, "ST": "WY", "County": "Crook County,WY", "State": "Wyoming"}, "geometry": {"type": "Polygon", "coordinates": [[[-105.088152, 45.002073], [-105.03886, 45.002073], [-104.058488, 44.996596], [-104.058488, 44.569394], [-104.053011, 44.180532], [-104.392581, 44.180532], [-105.077198, 44.175055], [-105.088152, 45.002073]]]}}, {"type": "Feature", "properties": {"name": "Brown", "id": "20013", "FIPS": "20013", "FIPS State": 20, "ST": "KS", "County": "Brown County,KS", "State": "Kansas"}, "geometry": {"type": "Polygon", "coordinates": [[[-95.788308, 40.001626], [-95.339199, 40.001626], [-95.339199, 39.651102], [-95.393968, 39.651102], [-95.563753, 39.651102], [-95.728061, 39.651102], [-95.788308, 39.651102], [-95.788308, 40.001626]]]}}, {"type": "Feature", "properties": {"name": "Flathead", "id": "30029", "FIPS": "30029", "FIPS State": 30, "ST": "MT", "County": "Flathead County,MT", "State": "Montana"}, "geometry": {"type": "Polygon", "coordinates": [[[-114.070335, 49.000239], [-113.347378, 48.310145], [-113.018762, 48.134883], [-112.9859, 47.954144], [-113.144732, 47.598142], [-113.467871, 47.598142], [-113.632179, 47.598142], [-114.010088, 48.052728], [-114.601598, 47.789835], [-115.012368, 48.019867], [-114.727567, 49.000239], [-114.070335, 49.000239]]]}}, {"type": "Feature", "properties": {"name": "Noble", "id": "18113", "FIPS": "18113", "FIPS State": 18, "ST": "IN", "County": "Noble County,IN", "State": "Indiana"}, "geometry": {"type": "Polygon", "coordinates": [[[-85.195905, 41.524216], [-85.190428, 41.266799], [-85.305444, 41.266799], [-85.650491, 41.294184], [-85.655968, 41.436584], [-85.655968, 41.524216], [-85.195905, 41.524216]]]}}, {"type": "Feature", "properties": {"name": "Knox", "id": "23013", "FIPS": "23013", "FIPS State": 23, "ST": "ME", "County": "Knox County,ME", "State": "Maine"}, "geometry": {"type": "Polygon", "coordinates": [[[-69.411363, 44.328409], [-69.027977, 44.251732], [-69.373024, 43.966931], [-69.411363, 44.328409]]]}}, {"type": "Feature", "properties": {"name": "Tom Green", "id": "48451", "FIPS": "48451", "FIPS State": 48, "ST": "TX", "County": "Tom Green County,TX", "State": "Texas"}, "geometry": {"type": "Polygon", "coordinates": [[[-100.827093, 31.698584], [-100.235583, 31.693108], [-100.109614, 31.578092], [-100.115091, 31.090644], [-100.690169, 31.085167], [-100.695646, 31.523322], [-101.265248, 31.528799], [-101.265248, 31.556184], [-100.827093, 31.698584]]]}}, {"type": "Feature", "properties": {"name": "Erie", "id": "39043", "FIPS": "39043", "FIPS State": 39, "ST": "OH", "County": "Erie County,OH", "State": "Ohio"}, "geometry": {"type": "Polygon", "coordinates": [[[-82.775097, 41.4804], [-82.692943, 41.491354], [-82.347896, 41.431108], [-82.342419, 41.28323], [-82.840821, 41.288707], [-82.955836, 41.458492], [-82.775097, 41.4804]]]}}, {"type": "Feature", "properties": {"name": "Beauregard", "id": "22011", "FIPS": "22011", "FIPS State": 22, "ST": "LA", "County": "Beauregard County,LA", "State": "Louisiana"}, "geometry": {"type": "Polygon", "coordinates": [[[-93.011499, 30.877043], [-92.978637, 30.877043], [-93.131992, 30.422457], [-93.131992, 30.40055], [-93.460608, 30.488181], [-93.739932, 30.40055], [-93.559193, 30.86609], [-93.011499, 30.877043]]]}}, {"type": "Feature", "properties": {"name": "Coos", "id": "41011", "FIPS": "41011", "FIPS State": 41, "ST": "OR", "County": "Coos County,OR", "State": "Oregon"}, "geometry": {"type": "Polygon", "coordinates": [[[-124.147905, 43.61093], [-123.874058, 43.61093], [-123.813811, 42.789389], [-124.295782, 42.953697], [-124.481998, 42.953697], [-124.219105, 43.61093], [-124.147905, 43.61093]]]}}, {"type": "Feature", "properties": {"name": "Wabasha", "id": "27157", "FIPS": "27157", "FIPS State": 27, "ST": "MN", "County": "Wabasha County,MN", "State": "Minnesota"}, "geometry": {"type": "Polygon", "coordinates": [[[-92.430943, 44.454379], [-92.244727, 44.454379], [-92.085896, 44.405086], [-91.855864, 44.191485], [-92.069465, 44.191485], [-92.080419, 44.109331], [-92.551436, 44.196962], [-92.430943, 44.454379]]]}}, {"type": "Feature", "properties": {"name": "Becker", "id": "27005", "FIPS": "27005", "FIPS State": 27, "ST": "MN", "County": "Becker County,MN", "State": "Minnesota"}, "geometry": {"type": "Polygon", "coordinates": [[[-95.169413, 47.15451], [-95.163936, 46.803986], [-95.163936, 46.716355], [-96.17717, 46.716355], [-96.193601, 47.149033], [-96.067632, 47.149033], [-95.552799, 47.149033], [-95.169413, 47.15451]]]}}, {"type": "Feature", "properties": {"name": "Madison", "id": "21151", "FIPS": "21151", "FIPS State": 21, "ST": "KY", "County": "Madison County,KY", "State": "Kentucky"}, "geometry": {"type": "Polygon", "coordinates": [[[-84.270302, 37.914912], [-84.078609, 37.854665], [-84.089563, 37.564388], [-84.199102, 37.520572], [-84.231963, 37.520572], [-84.346979, 37.537003], [-84.527718, 37.767034], [-84.43461, 37.849189], [-84.336025, 37.893004], [-84.270302, 37.914912]]]}}, {"type": "Feature", "properties": {"name": "San Jacinto", "id": "48407", "FIPS": "48407", "FIPS State": 48, "ST": "TX", "County": "San Jacinto County,TX", "State": "Texas"}, "geometry": {"type": "Polygon", "coordinates": [[[-95.311814, 30.88252], [-95.202275, 30.822274], [-94.851751, 30.493658], [-95.163936, 30.34578], [-95.361106, 30.504611], [-95.328245, 30.860613], [-95.311814, 30.88252]]]}}, {"type": "Feature", "properties": {"name": "Cass", "id": "17017", "FIPS": "17017", "FIPS State": 17, "ST": "IL", "County": "Cass County,IL", "State": "Illinois"}, "geometry": {"type": "Polygon", "coordinates": [[[-90.355183, 40.122119], [-89.993705, 40.105688], [-89.993705, 39.903041], [-89.993705, 39.87018], [-90.585214, 39.875656], [-90.514014, 39.985195], [-90.355183, 40.122119]]]}}, {"type": "Feature", "properties": {"name": "Jones", "id": "28067", "FIPS": "28067", "FIPS State": 28, "ST": "MS", "County": "Jones County,MS", "State": "Mississippi"}, "geometry": {"type": "Polygon", "coordinates": [[[-88.942132, 31.824554], [-88.942132, 31.435691], [-89.144779, 31.435691], [-89.396718, 31.435691], [-89.402195, 31.797169], [-89.314564, 31.802646], [-88.942132, 31.824554]]]}}, {"type": "Feature", "properties": {"name": "Muskingum", "id": "39119", "FIPS": "39119", "FIPS State": 39, "ST": "OH", "County": "Muskingum County,OH", "State": "Ohio"}, "geometry": {"type": "Polygon", "coordinates": [[[-82.189065, 40.165934], [-81.718048, 40.149503], [-81.69614, 39.842795], [-81.69614, 39.755164], [-82.074049, 39.771595], [-82.23288, 39.913995], [-82.189065, 40.165934]]]}}, {"type": "Feature", "properties": {"name": "Callaway", "id": "29027", "FIPS": "29027", "FIPS State": 29, "ST": "MO", "County": "Callaway County,MO", "State": "Missouri"}, "geometry": {"type": "Polygon", "coordinates": [[[-92.107804, 39.065069], [-91.63131, 39.059592], [-91.647741, 38.703591], [-92.009219, 38.572145], [-92.222819, 38.643345], [-92.107804, 39.065069]]]}}, {"type": "Feature", "properties": {"name": "Logan", "id": "39091", "FIPS": "39091", "FIPS State": 39, "ST": "OH", "County": "Logan County,OH", "State": "Ohio"}, "geometry": {"type": "Polygon", "coordinates": [[[-83.881439, 40.538366], [-83.519961, 40.505505], [-83.552823, 40.231658], [-83.881439, 40.264519], [-84.012886, 40.275473], [-84.001932, 40.483597], [-83.881439, 40.538366]]]}}, {"type": "Feature", "properties": {"name": "Newton", "id": "13217", "FIPS": "13217", "FIPS State": 13, "ST": "GA", "County": "Newton County,GA", "State": "Georgia"}, "geometry": {"type": "Polygon", "coordinates": [[[-83.914301, 33.74696], [-83.678792, 33.599083], [-83.684269, 33.527883], [-83.865008, 33.369051], [-83.925255, 33.451205], [-84.045747, 33.527883], [-83.914301, 33.74696]]]}}, {"type": "Feature", "properties": {"name": "Scioto", "id": "39145", "FIPS": "39145", "FIPS State": 39, "ST": "OH", "County": "Scioto County,OH", "State": "Ohio"}, "geometry": {"type": "Polygon", "coordinates": [[[-83.273499, 39.0103], [-83.273499, 39.015777], [-82.807959, 38.950054], [-82.649128, 38.851469], [-82.813436, 38.572145], [-83.032514, 38.725499], [-83.268022, 38.61596], [-83.273499, 39.0103]]]}}, {"type": "Feature", "properties": {"name": "Nelson", "id": "51125", "FIPS": "51125", "FIPS State": 51, "ST": "VA", "County": "Nelson County,VA", "State": "Virginia"}, "geometry": {"type": "Polygon", "coordinates": [[[-78.859085, 38.029928], [-78.837177, 38.046358], [-78.645484, 37.734173], [-78.826223, 37.553434], [-78.870039, 37.54248], [-79.171271, 37.805373], [-79.15484, 37.893004], [-78.859085, 38.029928]]]}}, {"type": "Feature", "properties": {"name": "Amador", "id": "06005", "FIPS": "06005", "FIPS State": 6, "ST": "CA", "County": "Amador County,CA", "State": "California"}, "geometry": {"type": "Polygon", "coordinates": [[[-120.073061, 38.698114], [-120.073061, 38.511898], [-120.993187, 38.227097], [-121.026049, 38.298298], [-121.026049, 38.506421], [-120.073061, 38.703591], [-120.073061, 38.698114]]]}}, {"type": "Feature", "properties": {"name": "Hoke", "id": "37093", "FIPS": "37093", "FIPS State": 37, "ST": "NC", "County": "Hoke County,NC", "State": "North Carolina"}, "geometry": {"type": "Polygon", "coordinates": [[[-79.127455, 35.165488], [-79.10007, 35.176442], [-79.034347, 34.951887], [-79.346533, 34.836871], [-79.461548, 35.044995], [-79.127455, 35.165488]]]}}, {"type": "Feature", "properties": {"name": "Roanoke", "id": "51161", "FIPS": "51161", "FIPS State": 51, "ST": "VA", "County": "Roanoke County,VA", "State": "Virginia"}, "geometry": {"type": "Polygon", "coordinates": [[[-80.173551, 37.378172], [-80.074966, 37.421987], [-79.844934, 37.306971], [-79.844934, 37.224817], [-80.129735, 37.120755], [-80.179028, 37.115279], [-80.261182, 37.339833], [-80.173551, 37.378172]], [[-79.981858, 37.328879], [-80.020196, 37.306971], [-80.03115, 37.263156], [-79.981858, 37.328879]]]}}, {"type": "Feature", "properties": {"name": "Somerset", "id": "23025", "FIPS": "23025", "FIPS State": 23, "ST": "ME", "County": "Somerset County,ME", "State": "Maine"}, "geometry": {"type": "Polygon", "coordinates": [[[-69.723548, 46.573955], [-69.822133, 45.74146], [-69.619487, 45.013027], [-69.356593, 45.073273], [-69.268962, 44.722749], [-69.471609, 44.695364], [-69.581148, 44.706318], [-69.931672, 44.61321], [-70.41912, 45.144473], [-70.550566, 45.670259], [-70.02478, 46.573955], [-69.723548, 46.573955]]]}}, {"type": "Feature", "properties": {"name": "Fairbanks North Star", "id": "02090", "FIPS": "02090", "FIPS State": 2, "ST": "AK", "County": "Fairbanks North Star County,AK", "State": "Alaska"}, "geometry": {"type": "Polygon", "coordinates": [[[-146.696468, 65.321521], [-146.19259, 65.452968], [-145.644896, 65.031244], [-143.886798, 65.09149], [-144.06206, 64.680719], [-146.236405, 64.308287], [-147.003177, 64.258995], [-147.99998, 64.341149], [-148.646259, 64.604042], [-148.66269, 65.211983], [-146.696468, 65.321521]]]}}, {"type": "Feature", "properties": {"name": "Dawson", "id": "13085", "FIPS": "13085", "FIPS State": 13, "ST": "GA", "County": "Dawson County,GA", "State": "Georgia"}, "geometry": {"type": "Polygon", "coordinates": [[[-84.199102, 34.617794], [-84.188148, 34.601363], [-83.980024, 34.420624], [-83.958116, 34.332993], [-84.259348, 34.332993], [-84.259348, 34.382285], [-84.346979, 34.563024], [-84.199102, 34.617794]]]}}, {"type": "Feature", "properties": {"name": "Macon", "id": "13193", "FIPS": "13193", "FIPS State": 13, "ST": "GA", "County": "Macon County,GA", "State": "Georgia"}, "geometry": {"type": "MultiPolygon", "coordinates": [[[[-84.001932, 32.531079], [-84.007409, 32.520126], [-84.051224, 32.520126], [-84.051224, 32.520126], [-84.001932, 32.531079]]], [[[-84.018363, 32.503695], [-83.848578, 32.465356], [-83.848578, 32.290094], [-84.029317, 32.169601], [-84.182671, 32.229848], [-84.253871, 32.372248], [-84.051224, 32.520126], [-84.018363, 32.503695]]]]}}, {"type": "Feature", "properties": {"name": "Franklin", "id": "17055", "FIPS": "17055", "FIPS State": 17, "ST": "IL", "County": "Franklin County,IL", "State": "Illinois"}, "geometry": {"type": "Polygon", "coordinates": [[[-88.816163, 38.128512], [-88.706624, 38.123036], [-88.706624, 37.909435], [-88.706624, 37.865619], [-88.728531, 37.865619], [-89.150256, 37.860142], [-89.177641, 37.947773], [-89.128348, 38.123036], [-88.816163, 38.128512]]]}}, {"type": "Feature", "properties": {"name": "Putnam", "id": "12107", "FIPS": "12107", "FIPS State": 12, "ST": "FL", "County": "Putnam County,FL", "State": "Florida"}, "geometry": {"type": "Polygon", "coordinates": [[[-81.581124, 29.841902], [-81.526355, 29.622824], [-81.433247, 29.39827], [-81.679709, 29.327069], [-81.844017, 29.518762], [-82.057618, 29.46947], [-82.052141, 29.715932], [-82.046664, 29.715932], [-81.581124, 29.841902]]]}}, {"type": "Feature", "properties": {"name": "Harnett", "id": "37085", "FIPS": "37085", "FIPS State": 37, "ST": "NC", "County": "Harnett County,NC", "State": "North Carolina"}, "geometry": {"type": "Polygon", "coordinates": [[[-78.913854, 35.581735], [-78.711208, 35.521489], [-78.541422, 35.313365], [-78.6181, 35.247642], [-78.952193, 35.21478], [-79.094593, 35.192872], [-79.182224, 35.307888], [-78.968624, 35.521489], [-78.913854, 35.581735]]]}}, {"type": "Feature", "properties": {"name": "Rosebud", "id": "30087", "FIPS": "30087", "FIPS State": 30, "ST": "MT", "County": "Rosebud County,MT", "State": "Montana"}, "geometry": {"type": "Polygon", "coordinates": [[[-107.459668, 46.858755], [-106.084956, 46.847802], [-106.194494, 45.790752], [-106.282125, 45.177335], [-106.769573, 45.177335], [-106.939358, 45.867429], [-107.026989, 46.393216], [-107.738991, 46.480847], [-107.782807, 46.497277], [-107.826623, 46.754694], [-107.892346, 46.853278], [-107.459668, 46.858755]]]}}, {"type": "Feature", "properties": {"name": "Cortland", "id": "36023", "FIPS": "36023", "FIPS State": 36, "ST": "NY", "County": "Cortland County,NY", "State": "New York"}, "geometry": {"type": "Polygon", "coordinates": [[[-75.917968, 42.789389], [-75.89606, 42.789389], [-75.890583, 42.723665], [-75.863199, 42.416957], [-76.131569, 42.41148], [-76.252061, 42.406003], [-76.263015, 42.625081], [-76.273969, 42.772958], [-75.917968, 42.789389]]]}}, {"type": "Feature", "properties": {"name": "Daviess", "id": "21059", "FIPS": "21059", "FIPS State": 21, "ST": "KY", "County": "Daviess County,KY", "State": "Kentucky"}, "geometry": {"type": "Polygon", "coordinates": [[[-87.266188, 37.876573], [-86.981388, 37.931343], [-86.822556, 37.73965], [-87.036157, 37.558911], [-87.408589, 37.68488], [-87.304527, 37.898481], [-87.266188, 37.876573]]]}}, {"type": "Feature", "properties": {"name": "Blanco", "id": "48031", "FIPS": "48031", "FIPS State": 48, "ST": "TX", "County": "Blanco County,TX", "State": "Texas"}, "geometry": {"type": "Polygon", "coordinates": [[[-98.411762, 30.504611], [-98.351516, 30.488181], [-98.126961, 30.427934], [-98.170777, 30.356734], [-98.296746, 30.039072], [-98.411762, 29.93501], [-98.587024, 30.137656], [-98.592501, 30.499135], [-98.411762, 30.504611]]]}}, {"type": "Feature", "properties": {"name": "Putnam", "id": "47141", "FIPS": "47141", "FIPS State": 47, "ST": "TN", "County": "Putnam County,TN", "State": "Tennessee"}, "geometry": {"type": "Polygon", "coordinates": [[[-85.497137, 36.299214], [-85.497137, 36.304691], [-85.119228, 36.14586], [-85.102797, 36.140383], [-85.261628, 35.981552], [-85.508091, 36.080137], [-85.645014, 36.014414], [-85.809322, 36.129429], [-85.781938, 36.238968], [-85.497137, 36.299214]]]}}, {"type": "Feature", "properties": {"name": "Chilton", "id": "01021", "FIPS": "01021", "FIPS State": 1, "ST": "AL", "County": "Chilton County,AL", "State": "Alabama"}, "geometry": {"type": "Polygon", "coordinates": [[[-86.515848, 33.018527], [-86.378924, 32.755634], [-86.411786, 32.706342], [-86.915664, 32.662526], [-87.019726, 32.728249], [-87.019726, 32.837788], [-86.882803, 33.051389], [-86.515848, 33.018527]]]}}, {"type": "Feature", "properties": {"name": "Gibson", "id": "47053", "FIPS": "47053", "FIPS State": 47, "ST": "TN", "County": "Gibson County,TN", "State": "Tennessee"}, "geometry": {"type": "Polygon", "coordinates": [[[-89.155733, 36.206106], [-88.958563, 36.222537], [-88.690193, 36.063706], [-88.706624, 35.789859], [-88.914747, 35.795336], [-89.188594, 35.997983], [-89.188594, 35.997983], [-89.155733, 36.206106]]]}}, {"type": "Feature", "properties": {"name": "Chenango", "id": "36017", "FIPS": "36017", "FIPS State": 36, "ST": "NY", "County": "Chenango County,NY", "State": "New York"}, "geometry": {"type": "Polygon", "coordinates": [[[-75.310028, 42.745573], [-75.293597, 42.745573], [-75.414089, 42.312895], [-75.419566, 42.192402], [-75.863199, 42.416957], [-75.890583, 42.723665], [-75.310028, 42.745573]]]}}, {"type": "Feature", "properties": {"name": "Madison", "id": "47113", "FIPS": "47113", "FIPS State": 47, "ST": "TN", "County": "Madison County,TN", "State": "Tennessee"}, "geometry": {"type": "Polygon", "coordinates": [[[-88.914747, 35.795336], [-88.706624, 35.789859], [-88.608039, 35.789859], [-88.613516, 35.587212], [-88.701147, 35.477673], [-88.843547, 35.428381], [-89.079056, 35.433858], [-89.068102, 35.691274], [-88.914747, 35.795336]]]}}, {"type": "Feature", "properties": {"name": "Grayson", "id": "48181", "FIPS": "48181", "FIPS State": 48, "ST": "TX", "County": "Grayson County,TX", "State": "Texas"}, "geometry": {"type": "Polygon", "coordinates": [[[-96.587941, 33.894838], [-96.379817, 33.725052], [-96.385294, 33.396436], [-96.834403, 33.40739], [-96.943942, 33.418344], [-96.943942, 33.949607], [-96.932988, 33.955084], [-96.587941, 33.894838]]]}}, {"type": "Feature", "properties": {"name": "Branch", "id": "26023", "FIPS": "26023", "FIPS State": 26, "ST": "MI", "County": "Branch County,MI", "State": "Michigan"}, "geometry": {"type": "Polygon", "coordinates": [[[-85.053504, 42.07191], [-84.82895, 42.07191], [-84.823473, 41.759724], [-85.195905, 41.759724], [-85.29449, 41.759724], [-85.29449, 42.07191], [-85.053504, 42.07191]]]}}, {"type": "Feature", "properties": {"name": "Morgan", "id": "01103", "FIPS": "01103", "FIPS State": 1, "ST": "AL", "County": "Morgan County,AL", "State": "Alabama"}, "geometry": {"type": "Polygon", "coordinates": [[[-87.03068, 34.650655], [-86.789695, 34.55207], [-86.548709, 34.546593], [-86.581571, 34.305608], [-86.986864, 34.311085], [-87.112834, 34.311085], [-87.107357, 34.683517], [-87.03068, 34.650655]]]}}, {"type": "Feature", "properties": {"name": "San Benito", "id": "06069", "FIPS": "06069", "FIPS State": 6, "ST": "CA", "County": "San Benito County,CA", "State": "California"}, "geometry": {"type": "Polygon", "coordinates": [[[-121.447773, 36.989309], [-121.217742, 36.961924], [-120.91651, 36.742847], [-120.681002, 36.266353], [-121.31085, 36.501861], [-121.644943, 36.896201], [-121.57922, 36.901678], [-121.447773, 36.989309]]]}}, {"type": "Feature", "properties": {"name": "Blount", "id": "01009", "FIPS": "01009", "FIPS State": 1, "ST": "AL", "County": "Blount County,AL", "State": "Alabama"}, "geometry": {"type": "Polygon", "coordinates": [[[-86.488463, 34.261793], [-86.455601, 34.261793], [-86.302247, 34.097484], [-86.324155, 33.938653], [-86.576094, 33.763391], [-86.685633, 33.796253], [-86.954003, 33.812683], [-86.964957, 33.856499], [-86.488463, 34.261793]]]}}, {"type": "Feature", "properties": {"name": "Angelina", "id": "48005", "FIPS": "48005", "FIPS State": 48, "ST": "TX", "County": "Angelina County,TX", "State": "Texas"}, "geometry": {"type": "Polygon", "coordinates": [[[-94.868182, 31.528799], [-94.325965, 31.222091], [-94.128795, 31.101598], [-94.457411, 31.035875], [-94.561473, 31.057782], [-94.813412, 31.13446], [-94.840797, 31.145414], [-94.950336, 31.342583], [-94.955813, 31.386399], [-95.005105, 31.424737], [-94.868182, 31.528799]]]}}, {"type": "Feature", "properties": {"name": "Barry", "id": "26015", "FIPS": "26015", "FIPS State": 26, "ST": "MI", "County": "Barry County,MI", "State": "Michigan"}, "geometry": {"type": "Polygon", "coordinates": [[[-85.130182, 42.772958], [-85.075412, 42.772958], [-85.069935, 42.422434], [-85.299967, 42.416957], [-85.540952, 42.422434], [-85.546429, 42.767481], [-85.310921, 42.767481], [-85.130182, 42.772958]]]}}, {"type": "Feature", "properties": {"name": "Upshur", "id": "54097", "FIPS": "54097", "FIPS State": 54, "ST": "WV", "County": "Upshur County,WV", "State": "West Virginia"}, "geometry": {"type": "Polygon", "coordinates": [[[-80.22832, 39.114362], [-80.08592, 38.944577], [-80.277612, 38.692637], [-80.392628, 38.725499], [-80.29952, 39.103408], [-80.22832, 39.114362]]]}}, {"type": "Feature", "properties": {"name": "Fayette", "id": "47047", "FIPS": "47047", "FIPS State": 47, "ST": "TN", "County": "Fayette County,TN", "State": "Tennessee"}, "geometry": {"type": "Polygon", "coordinates": [[[-89.550073, 35.400996], [-89.473395, 35.400996], [-89.183118, 35.395519], [-89.199548, 34.995703], [-89.352903, 34.995703], [-89.643181, 34.995703], [-89.632227, 35.373611], [-89.550073, 35.400996]]]}}, {"type": "Feature", "properties": {"name": "Greene", "id": "36039", "FIPS": "36039", "FIPS State": 36, "ST": "NY", "County": "Greene County,NY", "State": "New York"}, "geometry": {"type": "Polygon", "coordinates": [[[-73.781961, 42.466249], [-73.913408, 42.126679], [-74.01747, 42.159541], [-74.450148, 42.170494], [-74.444671, 42.35671], [-74.252978, 42.406003], [-73.781961, 42.466249]]]}}, {"type": "Feature", "properties": {"name": "Morgan", "id": "18109", "FIPS": "18109", "FIPS State": 18, "ST": "IN", "County": "Morgan County,IN", "State": "Indiana"}, "geometry": {"type": "Polygon", "coordinates": [[[-86.247477, 39.634671], [-86.252954, 39.344393], [-86.378924, 39.338916], [-86.630863, 39.34987], [-86.685633, 39.470363], [-86.658248, 39.601809], [-86.324155, 39.629194], [-86.247477, 39.634671]]]}}, {"type": "Feature", "properties": {"name": "Morrow", "id": "39117", "FIPS": "39117", "FIPS State": 39, "ST": "OH", "County": "Morrow County,OH", "State": "Ohio"}, "geometry": {"type": "Polygon", "coordinates": [[[-82.857251, 40.713628], [-82.725805, 40.713628], [-82.621743, 40.54932], [-82.742236, 40.346673], [-83.02156, 40.434304], [-82.857251, 40.702674], [-82.857251, 40.713628]]]}}, {"type": "Feature", "properties": {"name": "Garfield", "id": "08045", "FIPS": "08045", "FIPS State": 8, "ST": "CO", "County": "Garfield County,CO", "State": "Colorado"}, "geometry": {"type": "Polygon", "coordinates": [[[-107.037943, 40.089257], [-107.032466, 39.919472], [-107.11462, 39.366301], [-107.432283, 39.366301], [-108.774133, 39.366301], [-109.053457, 39.366301], [-109.053457, 39.497748], [-109.053457, 39.662056], [-107.936161, 39.694917], [-107.037943, 40.089257]]]}}, {"type": "Feature", "properties": {"name": "Montgomery", "id": "36057", "FIPS": "36057", "FIPS State": 36, "ST": "NY", "County": "Montgomery County,NY", "State": "New York"}, "geometry": {"type": "Polygon", "coordinates": [[[-74.581595, 42.997512], [-74.099624, 42.981082], [-74.094147, 42.953697], [-74.263932, 42.794866], [-74.647318, 42.827727], [-74.762334, 42.860589], [-74.762334, 43.046805], [-74.581595, 42.997512]]]}}, {"type": "Feature", "properties": {"name": "Wood", "id": "54107", "FIPS": "54107", "FIPS State": 54, "ST": "WV", "County": "Wood County,WV", "State": "West Virginia"}, "geometry": {"type": "Polygon", "coordinates": [[[-81.373001, 39.344393], [-81.241554, 39.267716], [-81.296323, 39.185562], [-81.42777, 39.13627], [-81.581124, 39.026731], [-81.739956, 39.092454], [-81.745433, 39.097931], [-81.756386, 39.180085], [-81.723525, 39.218424], [-81.373001, 39.344393]]]}}, {"type": "Feature", "properties": {"name": "Gilmer", "id": "13123", "FIPS": "13123", "FIPS State": 13, "ST": "GA", "County": "Gilmer County,GA", "State": "Georgia"}, "geometry": {"type": "Polygon", "coordinates": [[[-84.620826, 34.853302], [-84.199102, 34.617794], [-84.346979, 34.563024], [-84.653688, 34.546593], [-84.653688, 34.584932], [-84.620826, 34.853302]]]}}, {"type": "Feature", "properties": {"name": "Eau Claire", "id": "55035", "FIPS": "55035", "FIPS State": 55, "ST": "WI", "County": "Eau Claire County,WI", "State": "Wisconsin"}, "geometry": {"type": "Polygon", "coordinates": [[[-91.499863, 44.859672], [-90.924785, 44.859672], [-90.924785, 44.596779], [-91.16577, 44.596779], [-91.286263, 44.596779], [-91.527248, 44.596779], [-91.647741, 44.596779], [-91.647741, 44.68441], [-91.653218, 44.854195], [-91.499863, 44.859672]]]}}, {"type": "Feature", "properties": {"name": "Garland", "id": "05051", "FIPS": "05051", "FIPS State": 5, "ST": "AR", "County": "Garland County,AR", "State": "Arkansas"}, "geometry": {"type": "Polygon", "coordinates": [[[-93.285346, 34.771148], [-93.077222, 34.771148], [-92.792421, 34.502778], [-93.405839, 34.398716], [-93.394885, 34.743763], [-93.285346, 34.771148]]]}}, {"type": "Feature", "properties": {"name": "Chambers", "id": "01017", "FIPS": "01017", "FIPS State": 1, "ST": "AL", "County": "Chambers County,AL", "State": "Alabama"}, "geometry": {"type": "Polygon", "coordinates": [[[-85.404029, 33.106158], [-85.234244, 33.106158], [-85.184951, 32.87065], [-85.130182, 32.74468], [-85.184951, 32.74468], [-85.595722, 32.728249], [-85.595722, 33.106158], [-85.404029, 33.106158]]]}}, {"type": "Feature", "properties": {"name": "Baldwin", "id": "13009", "FIPS": "13009", "FIPS State": 13, "ST": "GA", "County": "Baldwin County,GA", "State": "Georgia"}, "geometry": {"type": "Polygon", "coordinates": [[[-83.273499, 33.188312], [-83.054421, 33.078773], [-83.076329, 32.947327], [-83.355653, 32.925419], [-83.426853, 33.182835], [-83.273499, 33.188312]]]}}, {"type": "Feature", "properties": {"name": "Ottawa", "id": "20143", "FIPS": "20143", "FIPS State": 20, "ST": "KS", "County": "Ottawa County,KS", "State": "Kansas"}, "geometry": {"type": "Polygon", "coordinates": [[[-97.590221, 39.306055], [-97.371143, 39.306055], [-97.371143, 39.130793], [-97.371143, 38.95553], [-97.486159, 38.95553], [-97.929791, 38.95553], [-97.929791, 39.218424], [-97.929791, 39.306055], [-97.590221, 39.306055]]]}}, {"type": "Feature", "properties": {"name": "Latah", "id": "16057", "FIPS": "16057", "FIPS State": 16, "ST": "ID", "County": "Latah County,ID", "State": "Idaho"}, "geometry": {"type": "Polygon", "coordinates": [[[-117.000498, 47.132602], [-116.332311, 47.023064], [-116.332311, 46.935433], [-116.458281, 46.628724], [-116.644497, 46.61777], [-117.038836, 46.541093], [-117.038836, 47.127126], [-117.000498, 47.132602]]]}}, {"type": "Feature", "properties": {"name": "Rhea", "id": "47143", "FIPS": "47143", "FIPS State": 47, "ST": "TN", "County": "Rhea County,TN", "State": "Tennessee"}, "geometry": {"type": "Polygon", "coordinates": [[[-84.768704, 35.80629], [-84.724888, 35.75152], [-85.015166, 35.41195], [-85.130182, 35.455766], [-85.135659, 35.455766], [-84.916581, 35.762474], [-84.779657, 35.822721], [-84.768704, 35.80629]]]}}, {"type": "Feature", "properties": {"name": "Troup", "id": "13285", "FIPS": "13285", "FIPS State": 13, "ST": "GA", "County": "Troup County,GA", "State": "Georgia"}, "geometry": {"type": "Polygon", "coordinates": [[[-84.938489, 33.226651], [-84.938489, 33.226651], [-84.861812, 33.193789], [-84.861812, 32.87065], [-85.184951, 32.87065], [-85.234244, 33.106158], [-85.234244, 33.128066], [-84.938489, 33.226651]]]}}, {"type": "Feature", "properties": {"name": "Franklin", "id": "51067", "FIPS": "51067", "FIPS State": 51, "ST": "VA", "County": "Franklin County,VA", "State": "Virginia"}, "geometry": {"type": "Polygon", "coordinates": [[[-79.784688, 37.230294], [-79.592995, 37.044078], [-79.642287, 36.857862], [-79.647764, 36.852385], [-80.042104, 36.792139], [-80.233797, 36.874293], [-80.129735, 37.120755], [-79.844934, 37.224817], [-79.784688, 37.230294]]]}}, {"type": "Feature", "properties": {"name": "Frederick", "id": "51069", "FIPS": "51069", "FIPS State": 51, "ST": "VA", "County": "Frederick County,VA", "State": "Virginia"}, "geometry": {"type": "Polygon", "coordinates": [[[-78.349729, 39.464886], [-78.229237, 39.393686], [-78.032067, 39.262239], [-78.032067, 39.262239], [-78.15256, 39.037685], [-78.311391, 39.0103], [-78.338776, 39.103408], [-78.541422, 39.054115], [-78.508561, 39.086977], [-78.349729, 39.464886]]]}}, {"type": "Feature", "properties": {"name": "Ashtabula", "id": "39007", "FIPS": "39007", "FIPS State": 39, "ST": "OH", "County": "Ashtabula County,OH", "State": "Ohio"}, "geometry": {"type": "Polygon", "coordinates": [[[-80.518598, 41.978802], [-80.518598, 41.847355], [-80.518598, 41.502308], [-81.000569, 41.502308], [-81.006046, 41.715908], [-81.000569, 41.852832], [-80.518598, 41.978802], [-80.518598, 41.978802]]]}}, {"type": "Feature", "properties": {"name": "Bonneville", "id": "16019", "FIPS": "16019", "FIPS State": 16, "ST": "ID", "County": "Bonneville County,ID", "State": "Idaho"}, "geometry": {"type": "Polygon", "coordinates": [[[-111.775497, 43.627361], [-111.627619, 43.627361], [-111.397588, 43.621884], [-111.047063, 43.501391], [-111.047063, 43.315175], [-111.041587, 43.01942], [-111.589281, 43.01942], [-111.589281, 43.282313], [-112.52036, 43.424714], [-112.52036, 43.627361], [-111.775497, 43.627361]]]}}, {"type": "Feature", "properties": {"name": "Houston", "id": "01069", "FIPS": "01069", "FIPS State": 1, "ST": "AL", "County": "Houston County,AL", "State": "Alabama"}, "geometry": {"type": "Polygon", "coordinates": [[[-85.414983, 31.315199], [-85.086366, 31.309722], [-85.02612, 31.074213], [-85.004212, 31.003013], [-85.486183, 30.997536], [-85.486183, 31.200183], [-85.710737, 31.194706], [-85.414983, 31.315199]]]}}, {"type": "Feature", "properties": {"name": "Yuba", "id": "06115", "FIPS": "06115", "FIPS State": 6, "ST": "CA", "County": "Yuba County,CA", "State": "California"}, "geometry": {"type": "Polygon", "coordinates": [[[-121.075341, 39.596333], [-121.009618, 39.640148], [-121.020572, 39.393686], [-121.277988, 39.032208], [-121.414912, 38.999346], [-121.623035, 39.295101], [-121.075341, 39.596333]]]}}, {"type": "Feature", "properties": {"name": "Halifax", "id": "37083", "FIPS": "37083", "FIPS State": 37, "ST": "NC", "County": "Halifax County,NC", "State": "North Carolina"}, "geometry": {"type": "Polygon", "coordinates": [[[-77.90062, 36.507338], [-77.29268, 36.167768], [-77.325542, 36.07466], [-77.402219, 36.00346], [-77.697974, 36.151337], [-78.004682, 36.200629], [-77.90062, 36.507338]]]}}, {"type": "Feature", "properties": {"name": "Jefferson", "id": "55055", "FIPS": "55055", "FIPS State": 55, "ST": "WI", "County": "Jefferson County,WI", "State": "Wisconsin"}, "geometry": {"type": "Polygon", "coordinates": [[[-88.991425, 43.200159], [-88.536839, 43.194682], [-88.542316, 42.844158], [-88.547792, 42.844158], [-88.777824, 42.844158], [-89.013332, 42.849635], [-89.007855, 43.200159], [-88.991425, 43.200159]]]}}, {"type": "Feature", "properties": {"name": "Esmeralda", "id": "32009", "FIPS": "32009", "FIPS State": 32, "ST": "NV", "County": "Esmeralda County,NV", "State": "Nevada"}, "geometry": {"type": "Polygon", "coordinates": [[[-117.690592, 38.47356], [-117.164806, 38.002543], [-117.164806, 36.972878], [-117.832993, 37.465803], [-118.429979, 37.898481], [-117.690592, 38.47356]]]}}, {"type": "Feature", "properties": {"name": "Perry", "id": "18123", "FIPS": "18123", "FIPS State": 18, "ST": "IN", "County": "Perry County,IN", "State": "Indiana"}, "geometry": {"type": "Polygon", "coordinates": [[[-86.570617, 38.265436], [-86.461078, 38.117559], [-86.488463, 38.046358], [-86.652771, 37.843712], [-86.811602, 37.997066], [-86.789695, 38.20519], [-86.680156, 38.265436], [-86.570617, 38.265436]]]}}, {"type": "Feature", "properties": {"name": "Linn", "id": "41043", "FIPS": "41043", "FIPS State": 41, "ST": "OR", "County": "Linn County,OR", "State": "Oregon"}, "geometry": {"type": "Polygon", "coordinates": [[[-122.658177, 44.777518], [-121.79282, 44.68441], [-121.842113, 44.394132], [-121.798297, 44.257209], [-123.200394, 44.284593], [-123.151102, 44.722749], [-123.145625, 44.750133], [-122.658177, 44.777518]]]}}, {"type": "Feature", "properties": {"name": "Harrison", "id": "54033", "FIPS": "54033", "FIPS State": 54, "ST": "WV", "County": "Harrison County,WV", "State": "West Virginia"}, "geometry": {"type": "Polygon", "coordinates": [[[-80.49669, 39.470363], [-80.195458, 39.393686], [-80.168074, 39.240331], [-80.22832, 39.114362], [-80.29952, 39.103408], [-80.452875, 39.141746], [-80.595275, 39.169131], [-80.545983, 39.426547], [-80.49669, 39.470363]]]}}, {"type": "Feature", "properties": {"name": "Pickens", "id": "45077", "FIPS": "45077", "FIPS State": 45, "ST": "SC", "County": "Pickens County,SC", "State": "South Carolina"}, "geometry": {"type": "Polygon", "coordinates": [[[-82.621743, 35.066903], [-82.484819, 34.820441], [-82.490296, 34.820441], [-82.840821, 34.623271], [-82.89559, 35.055949], [-82.764143, 35.066903], [-82.621743, 35.066903]]]}}, {"type": "Feature", "properties": {"name": "Hunt", "id": "48231", "FIPS": "48231", "FIPS State": 48, "ST": "TX", "County": "Hunt County,TX", "State": "Texas"}, "geometry": {"type": "Polygon", "coordinates": [[[-95.859508, 33.40739], [-95.859508, 33.221174], [-95.864985, 32.980189], [-95.936185, 32.837788], [-96.062155, 32.837788], [-96.078585, 32.837788], [-96.297663, 32.843265], [-96.297663, 32.980189], [-96.297663, 33.35262], [-95.859508, 33.40739]]]}}, {"type": "Feature", "properties": {"name": "Belknap", "id": "33001", "FIPS": "33001", "FIPS State": 33, "ST": "NH", "County": "Belknap County,NH", "State": "New Hampshire"}, "geometry": {"type": "Polygon", "coordinates": [[[-71.530939, 43.764284], [-71.163984, 43.53973], [-71.235184, 43.282313], [-71.728109, 43.561637], [-71.530939, 43.764284]]]}}, {"type": "Feature", "properties": {"name": "Delaware", "id": "18035", "FIPS": "18035", "FIPS State": 18, "ST": "IN", "County": "Delaware County,IN", "State": "Indiana"}, "geometry": {"type": "Polygon", "coordinates": [[[-85.513567, 40.379535], [-85.442367, 40.379535], [-85.217813, 40.379535], [-85.217813, 40.308335], [-85.212336, 40.078303], [-85.327352, 40.078303], [-85.573814, 40.078303], [-85.579291, 40.379535], [-85.513567, 40.379535]]]}}, {"type": "Feature", "properties": {"name": "Teller", "id": "08119", "FIPS": "08119", "FIPS State": 8, "ST": "CO", "County": "Teller County,CO", "State": "Colorado"}, "geometry": {"type": "Polygon", "coordinates": [[[-105.329138, 39.130793], [-105.329138, 39.130793], [-105.033383, 39.130793], [-104.940275, 38.648822], [-105.329138, 38.698114], [-105.329138, 39.130793]]]}}, {"type": "Feature", "properties": {"name": "Effingham", "id": "13103", "FIPS": "13103", "FIPS State": 13, "ST": "GA", "County": "Effingham County,GA", "State": "Georgia"}, "geometry": {"type": "Polygon", "coordinates": [[[-81.389431, 32.596803], [-81.279893, 32.558464], [-81.148446, 32.224371], [-81.1594, 32.229848], [-81.389431, 32.098401], [-81.42777, 32.235325], [-81.433247, 32.240802], [-81.548263, 32.487264], [-81.389431, 32.596803]]]}}, {"type": "Feature", "properties": {"name": "Marquette", "id": "26103", "FIPS": "26103", "FIPS State": 26, "ST": "MI", "County": "Marquette County,MI", "State": "Michigan"}, "geometry": {"type": "Polygon", "coordinates": [[[-87.118311, 46.497277], [-87.118311, 46.157707], [-87.37025, 45.987922], [-87.616713, 45.987922], [-87.802929, 46.245338], [-88.115114, 46.245338], [-88.115114, 46.4206], [-88.043914, 46.913525], [-87.118311, 46.497277]]]}}, {"type": "Feature", "properties": {"name": "Columbia", "id": "12023", "FIPS": "12023", "FIPS State": 12, "ST": "FL", "County": "Columbia County,FL", "State": "Florida"}, "geometry": {"type": "Polygon", "coordinates": [[[-82.69842, 30.597719], [-82.687466, 30.597719], [-82.583404, 30.592243], [-82.457435, 30.586766], [-82.457435, 30.137656], [-82.528635, 29.940487], [-82.660082, 29.830948], [-82.802482, 29.93501], [-82.797005, 30.334826], [-82.69842, 30.597719]]]}}, {"type": "Feature", "properties": {"name": "Laurel", "id": "21125", "FIPS": "21125", "FIPS State": 21, "ST": "KY", "County": "Laurel County,KY", "State": "Kentucky"}, "geometry": {"type": "Polygon", "coordinates": [[[-84.138855, 37.306971], [-84.138855, 37.317925], [-83.941686, 37.252202], [-83.870485, 37.055032], [-84.089563, 36.956447], [-84.122425, 36.967401], [-84.297687, 36.945493], [-84.357933, 36.961924], [-84.286733, 37.153617], [-84.138855, 37.306971]]]}}, {"type": "Feature", "properties": {"name": "Lowndes", "id": "28087", "FIPS": "28087", "FIPS State": 28, "ST": "MS", "County": "Lowndes County,MS", "State": "Mississippi"}, "geometry": {"type": "Polygon", "coordinates": [[[-88.246561, 33.74696], [-88.273945, 33.53336], [-88.306807, 33.286897], [-88.668285, 33.286897], [-88.673762, 33.505975], [-88.514931, 33.648375], [-88.246561, 33.74696]]]}}, {"type": "Feature", "properties": {"name": "Lenawee", "id": "26091", "FIPS": "26091", "FIPS State": 26, "ST": "MI", "County": "Lenawee County,MI", "State": "Michigan"}, "geometry": {"type": "Polygon", "coordinates": [[[-83.7719, 42.082863], [-83.760947, 41.721385], [-83.881439, 41.721385], [-83.89787, 41.721385], [-84.357933, 41.704955], [-84.36341, 42.07191], [-84.133379, 42.07191], [-83.7719, 42.082863]]]}}, {"type": "Feature", "properties": {"name": "Crawford", "id": "05033", "FIPS": "05033", "FIPS State": 5, "ST": "AR", "County": "Crawford County,AR", "State": "Arkansas"}, "geometry": {"type": "Polygon", "coordinates": [[[-93.964486, 35.762474], [-93.909717, 35.762474], [-94.074025, 35.444812], [-94.380734, 35.444812], [-94.430026, 35.395519], [-94.473842, 35.636505], [-94.490273, 35.756997], [-93.964486, 35.762474]]]}}, {"type": "Feature", "properties": {"name": "Kings", "id": "06031", "FIPS": "06031", "FIPS State": 6, "ST": "CA", "County": "Kings County,CA", "State": "California"}, "geometry": {"type": "Polygon", "coordinates": [[[-119.57466, 36.490907], [-119.536321, 35.789859], [-120.193554, 35.789859], [-120.215462, 35.789859], [-120.314047, 35.904875], [-119.958045, 36.403276], [-119.57466, 36.490907]]]}}, {"type": "Feature", "properties": {"name": "Navajo", "id": "04017", "FIPS": "04017", "FIPS State": 4, "ST": "AZ", "County": "Navajo County,AZ", "State": "Arizona"}, "geometry": {"type": "Polygon", "coordinates": [[[-110.000968, 37.000263], [-110.000968, 35.663889], [-109.842137, 35.516012], [-109.891429, 33.566221], [-110.000968, 33.577175], [-110.000968, 33.998899], [-110.751309, 33.998899], [-110.751309, 34.261793], [-110.751309, 37.00574], [-110.000968, 37.000263]]]}}, {"type": "Feature", "properties": {"name": "Colleton", "id": "45029", "FIPS": "45029", "FIPS State": 45, "ST": "SC", "County": "Colleton County,SC", "State": "South Carolina"}, "geometry": {"type": "Polygon", "coordinates": [[[-80.792445, 33.182835], [-80.403582, 32.859696], [-80.250228, 32.531079], [-80.474782, 32.487264], [-80.825307, 32.706342], [-81.055338, 33.002096], [-81.082723, 33.024004], [-80.797922, 33.177358], [-80.792445, 33.182835]]]}}, {"type": "Feature", "properties": {"name": "Mendocino", "id": "06045", "FIPS": "06045", "FIPS State": 6, "ST": "CA", "County": "Mendocino County,CA", "State": "California"}, "geometry": {"type": "Polygon", "coordinates": [[[-124.021935, 40.001626], [-123.545441, 40.001626], [-122.932024, 39.979718], [-122.937501, 39.798979], [-122.882732, 39.579902], [-123.090855, 39.070546], [-122.822485, 38.851469], [-123.074425, 38.851469], [-123.534488, 38.769315], [-123.737134, 38.95553], [-124.021935, 40.001626]]]}}, {"type": "Feature", "properties": {"name": "Rock", "id": "31149", "FIPS": "31149", "FIPS State": 31, "ST": "NE", "County": "Rock County,NE", "State": "Nebraska"}, "geometry": {"type": "Polygon", "coordinates": [[[-99.255211, 42.80582], [-99.233303, 42.08834], [-99.660504, 42.08834], [-99.676935, 42.729142], [-99.255211, 42.80582]]]}}, {"type": "Feature", "properties": {"name": "Talladega", "id": "01121", "FIPS": "01121", "FIPS State": 1, "ST": "AL", "County": "Talladega County,AL", "State": "Alabama"}, "geometry": {"type": "Polygon", "coordinates": [[[-86.198185, 33.697668], [-86.143416, 33.681237], [-85.798368, 33.555267], [-85.853138, 33.500498], [-85.875046, 33.500498], [-86.176277, 33.106158], [-86.488463, 33.100681], [-86.378924, 33.390959], [-86.198185, 33.697668]]]}}, {"type": "Feature", "properties": {"name": "Klamath", "id": "41035", "FIPS": "41035", "FIPS State": 41, "ST": "OR", "County": "Klamath County,OR", "State": "Oregon"}, "geometry": {"type": "Polygon", "coordinates": [[[-121.486112, 43.616407], [-121.332757, 43.616407], [-121.349188, 42.745573], [-120.883648, 42.745573], [-120.878171, 41.995232], [-121.316327, 41.995232], [-121.447773, 41.995232], [-122.291222, 42.006186], [-122.280268, 42.992036], [-122.280268, 42.997512], [-122.132391, 43.441145], [-122.000944, 43.616407], [-121.486112, 43.616407]]]}}, {"type": "Feature", "properties": {"name": "Allegan", "id": "26005", "FIPS": "26005", "FIPS State": 26, "ST": "MI", "County": "Allegan County,MI", "State": "Michigan"}, "geometry": {"type": "Polygon", "coordinates": [[[-86.044831, 42.767481], [-85.781938, 42.767481], [-85.546429, 42.767481], [-85.540952, 42.422434], [-85.765507, 42.422434], [-85.776461, 42.422434], [-86.274862, 42.416957], [-86.209139, 42.767481], [-86.044831, 42.767481]]]}}, {"type": "Feature", "properties": {"name": "Aroostook", "id": "23003", "FIPS": "23003", "FIPS State": 23, "ST": "ME", "County": "Aroostook County,ME", "State": "Maine"}, "geometry": {"type": "Polygon", "coordinates": [[[-67.806619, 45.681213], [-68.047605, 45.637398], [-68.43099, 45.577151], [-68.513145, 46.382262], [-68.819853, 46.393216], [-68.819853, 46.573955], [-69.723548, 46.573955], [-70.02478, 46.573955], [-69.225147, 47.461219], [-68.902007, 47.176418], [-68.233821, 47.357157], [-67.790188, 47.066879], [-67.806619, 45.681213]]]}}, {"type": "Feature", "properties": {"name": "Johnson", "id": "48251", "FIPS": "48251", "FIPS State": 48, "ST": "TX", "County": "Johnson County,TX", "State": "Texas"}, "geometry": {"type": "Polygon", "coordinates": [[[-97.551882, 32.552987], [-97.086342, 32.54751], [-97.086342, 32.268186], [-97.113727, 32.257232], [-97.475205, 32.175078], [-97.617606, 32.202463], [-97.617606, 32.317479], [-97.617606, 32.552987], [-97.551882, 32.552987]]]}}, {"type": "Feature", "properties": {"name": "Clay", "id": "18021", "FIPS": "18021", "FIPS State": 18, "ST": "IN", "County": "Clay County,IN", "State": "Indiana"}, "geometry": {"type": "Polygon", "coordinates": [[[-87.200465, 39.607286], [-87.014249, 39.607286], [-86.937572, 39.47584], [-87.052588, 39.169131], [-87.211419, 39.169131], [-87.238804, 39.169131], [-87.238804, 39.256762], [-87.200465, 39.607286]]]}}]}