{"type": "FeatureCollection", "crs": {"type": "name", "properties": {"name": "urn:ogc:def:crs:OGC:1.3:CRS84"}}, "features": [{"type": "Feature", "properties": {"name": "Warren", "id": "19181", "FIPS": "19181", "FIPS State": 19, "ST": "IA", "County": "Warren County,IA", "State": "Iowa"}, "geometry": {"type": "Polygon", "coordinates": [[[-93.70707, 41.513262], [-93.329161, 41.491354], [-93.329161, 41.162737], [-93.559193, 41.162737], [-93.674209, 41.162737], [-93.789224, 41.162737], [-93.789224, 41.513262], [-93.70707, 41.513262]]]}}, {"type": "Feature", "properties": {"name": "Nicollet", "id": "27103", "FIPS": "27103", "FIPS State": 27, "ST": "MN", "County": "Nicollet County,MN", "State": "Minnesota"}, "geometry": {"type": "Polygon", "coordinates": [[[-94.112364, 44.454379], [-93.931625, 44.454379], [-94.013779, 44.240778], [-94.331441, 44.251732], [-94.36978, 44.262686], [-94.780551, 44.454379], [-94.621719, 44.454379], [-94.112364, 44.454379]]]}}, {"type": "Feature", "properties": {"name": "Yates", "id": "36123", "FIPS": "36123", "FIPS State": 36, "ST": "NY", "County": "Yates County,NY", "State": "New York"}, "geometry": {"type": "Polygon", "coordinates": [[[-76.975017, 42.762004], [-76.892863, 42.542926], [-77.106464, 42.48268], [-77.36388, 42.575788], [-76.975017, 42.762004]]]}}, {"type": "Feature", "properties": {"name": "Ashe", "id": "37009", "FIPS": "37009", "FIPS State": 37, "ST": "NC", "County": "Ashe County,NC", "State": "North Carolina"}, "geometry": {"type": "Polygon", "coordinates": [[[-81.351093, 36.573061], [-81.252508, 36.364938], [-81.477062, 36.238968], [-81.734479, 36.392322], [-81.679709, 36.589492], [-81.351093, 36.573061]]]}}, {"type": "Feature", "properties": {"name": "Decatur", "id": "18031", "FIPS": "18031", "FIPS State": 18, "ST": "IN", "County": "Decatur County,IN", "State": "Indiana"}, "geometry": {"type": "Polygon", "coordinates": [[[-85.299967, 39.453932], [-85.29449, 39.267716], [-85.442367, 39.196516], [-85.68883, 39.130793], [-85.683353, 39.34987], [-85.628583, 39.453932], [-85.299967, 39.453932]]]}}, {"type": "Feature", "properties": {"name": "Montcalm", "id": "26117", "FIPS": "26117", "FIPS State": 26, "ST": "MI", "County": "Montcalm County,MI", "State": "Michigan"}, "geometry": {"type": "Polygon", "coordinates": [[[-85.551906, 43.468529], [-85.086366, 43.468529], [-84.845381, 43.468529], [-84.834427, 43.118005], [-85.075412, 43.118005], [-85.310921, 43.118005], [-85.524521, 43.293267], [-85.56286, 43.293267], [-85.56286, 43.468529], [-85.551906, 43.468529]]]}}, {"type": "Feature", "properties": {"name": "Dougherty", "id": "13095", "FIPS": "13095", "FIPS State": 13, "ST": "GA", "County": "Dougherty County,GA", "State": "Georgia"}, "geometry": {"type": "Polygon", "coordinates": [[[-84.018363, 31.649292], [-83.996455, 31.441168], [-84.062178, 31.441168], [-84.138855, 31.441168], [-84.429133, 31.435691], [-84.451041, 31.621907], [-84.297687, 31.621907], [-84.018363, 31.649292]]]}}, {"type": "Feature", "properties": {"name": "Colquitt", "id": "13071", "FIPS": "13071", "FIPS State": 13, "ST": "GA", "County": "Colquitt County,GA", "State": "Georgia"}, "geometry": {"type": "Polygon", "coordinates": [[[-83.974547, 31.337106], [-83.651408, 31.331629], [-83.514484, 31.326153], [-83.574731, 31.07969], [-83.739039, 31.035875], [-84.001932, 31.07969], [-84.001932, 31.337106], [-83.974547, 31.337106]]]}}, {"type": "Feature", "properties": {"name": "Scotland", "id": "37165", "FIPS": "37165", "FIPS State": 37, "ST": "NC", "County": "Scotland County,NC", "State": "North Carolina"}, "geometry": {"type": "Polygon", "coordinates": [[[-79.461548, 35.044995], [-79.346533, 34.836871], [-79.461548, 34.628748], [-79.686103, 34.80401], [-79.461548, 35.044995]]]}}, {"type": "Feature", "properties": {"name": "Lyon", "id": "27083", "FIPS": "27083", "FIPS State": 27, "ST": "MN", "County": "Lyon County,MN", "State": "Minnesota"}, "geometry": {"type": "Polygon", "coordinates": [[[-95.936185, 44.629641], [-95.596615, 44.54201], [-95.591138, 44.196962], [-96.012862, 44.196962], [-96.062155, 44.196962], [-96.078585, 44.196962], [-96.095016, 44.629641], [-95.936185, 44.629641]]]}}, {"type": "Feature", "properties": {"name": "Stokes", "id": "37169", "FIPS": "37169", "FIPS State": 37, "ST": "NC", "County": "Stokes County,NC", "State": "North Carolina"}, "geometry": {"type": "Polygon", "coordinates": [[[-80.441921, 36.551154], [-80.053058, 36.5402], [-80.025673, 36.5402], [-80.036627, 36.255399], [-80.036627, 36.255399], [-80.452875, 36.260876], [-80.441921, 36.551154]]]}}, {"type": "Feature", "properties": {"name": "Clinton", "id": "39027", "FIPS": "39027", "FIPS State": 39, "ST": "OH", "County": "Clinton County,OH", "State": "Ohio"}, "geometry": {"type": "Polygon", "coordinates": [[[-83.974547, 39.568948], [-83.667839, 39.552517], [-83.591161, 39.377255], [-83.865008, 39.245808], [-83.990978, 39.256762], [-84.007409, 39.256762], [-83.974547, 39.568948], [-83.974547, 39.568948]]]}}, {"type": "Feature", "properties": {"name": "Wayne", "id": "17191", "FIPS": "17191", "FIPS State": 17, "ST": "IL", "County": "Wayne County,IL", "State": "Illinois"}, "geometry": {"type": "Polygon", "coordinates": [[[-88.586131, 38.605006], [-88.252038, 38.599529], [-88.147976, 38.566668], [-88.153453, 38.254482], [-88.37253, 38.254482], [-88.591608, 38.254482], [-88.701147, 38.254482], [-88.701147, 38.47356], [-88.701147, 38.605006], [-88.586131, 38.605006]]]}}, {"type": "Feature", "properties": {"name": "Vance", "id": "37181", "FIPS": "37181", "FIPS State": 37, "ST": "NC", "County": "Vance County,NC", "State": "North Carolina"}, "geometry": {"type": "Polygon", "coordinates": [[[-78.322345, 36.545677], [-78.305914, 36.266353], [-78.497607, 36.173245], [-78.459268, 36.5402], [-78.322345, 36.545677]]]}}, {"type": "Feature", "properties": {"name": "Cass", "id": "18017", "FIPS": "18017", "FIPS State": 18, "ST": "IN", "County": "Cass County,IN", "State": "Indiana"}, "geometry": {"type": "Polygon", "coordinates": [[[-86.581571, 40.910798], [-86.466555, 40.910798], [-86.1708, 40.910798], [-86.165323, 40.560274], [-86.373447, 40.560274], [-86.581571, 40.735536], [-86.581571, 40.910798]]]}}, {"type": "Feature", "properties": {"name": "Richland", "id": "38077", "FIPS": "38077", "FIPS State": 38, "ST": "ND", "County": "Richland County,ND", "State": "North Dakota"}, "geometry": {"type": "Polygon", "coordinates": [[[-96.790588, 46.628724], [-96.790588, 46.628724], [-96.576987, 46.020784], [-96.560556, 45.933153], [-96.735818, 45.933153], [-97.228743, 45.933153], [-97.278035, 46.283677], [-97.278035, 46.628724], [-96.790588, 46.628724]]]}}, {"type": "Feature", "properties": {"name": "Carlton", "id": "27017", "FIPS": "27017", "FIPS State": 27, "ST": "MN", "County": "Carlton County,MN", "State": "Minnesota"}, "geometry": {"type": "Polygon", "coordinates": [[[-92.49119, 46.765647], [-92.29402, 46.661586], [-92.29402, 46.415123], [-92.962206, 46.4206], [-93.055314, 46.4206], [-93.060791, 46.765647], [-92.49119, 46.765647]]]}}, {"type": "Feature", "properties": {"name": "Grand Forks", "id": "38035", "FIPS": "38035", "FIPS State": 38, "ST": "ND", "County": "Grand Forks County,ND", "State": "North Dakota"}, "geometry": {"type": "Polygon", "coordinates": [[[-97.825729, 48.195129], [-97.141112, 48.195129], [-97.146589, 48.173221], [-96.889173, 47.67482], [-97.475205, 47.669343], [-97.880499, 47.67482], [-97.902407, 48.195129], [-97.825729, 48.195129]]]}}, {"type": "Feature", "properties": {"name": "Dearborn", "id": "18029", "FIPS": "18029", "FIPS State": 18, "ST": "IN", "County": "Dearborn County,IN", "State": "Indiana"}, "geometry": {"type": "Polygon", "coordinates": [[[-85.031597, 39.306055], [-84.817996, 39.306055], [-84.817996, 39.103408], [-84.878242, 39.032208], [-84.933012, 39.0103], [-85.130182, 38.950054], [-85.064458, 39.306055], [-85.031597, 39.306055]]]}}, {"type": "Feature", "properties": {"name": "Lewis", "id": "36049", "FIPS": "36049", "FIPS State": 36, "ST": "NY", "County": "Lewis County,NY", "State": "New York"}, "geometry": {"type": "Polygon", "coordinates": [[[-75.446951, 44.21887], [-75.167627, 44.098377], [-75.112858, 43.616407], [-75.75366, 43.468529], [-75.775568, 43.687607], [-75.446951, 44.21887]]]}}, {"type": "Feature", "properties": {"name": "Butler", "id": "29023", "FIPS": "29023", "FIPS State": 29, "ST": "MO", "County": "Butler County,MO", "State": "Missouri"}, "geometry": {"type": "Polygon", "coordinates": [[[-90.568783, 36.929063], [-90.256598, 36.923586], [-90.147059, 36.633308], [-90.218259, 36.496384], [-90.57426, 36.496384], [-90.661891, 36.814047], [-90.678322, 36.929063], [-90.568783, 36.929063]]]}}, {"type": "Feature", "properties": {"name": "Habersham", "id": "13137", "FIPS": "13137", "FIPS State": 13, "ST": "GA", "County": "Habersham County,GA", "State": "Georgia"}, "geometry": {"type": "Polygon", "coordinates": [[[-83.651408, 34.820441], [-83.350176, 34.716379], [-83.339222, 34.688994], [-83.459715, 34.48087], [-83.552823, 34.486347], [-83.613069, 34.431578], [-83.667839, 34.502778], [-83.684269, 34.798533], [-83.651408, 34.820441]]]}}, {"type": "Feature", "properties": {"name": "Yazoo", "id": "28163", "FIPS": "28163", "FIPS State": 28, "ST": "MS", "County": "Yazoo County,MS", "State": "Mississippi"}, "geometry": {"type": "Polygon", "coordinates": [[[-90.366137, 33.01305], [-89.96632, 32.881604], [-90.448291, 32.574895], [-90.486629, 32.542033], [-90.552353, 32.509172], [-90.722138, 32.61871], [-90.722138, 32.662526], [-90.656414, 32.919942], [-90.366137, 33.01305]]]}}, {"type": "Feature", "properties": {"name": "Pearl River", "id": "28109", "FIPS": "28109", "FIPS State": 28, "ST": "MS", "County": "Pearl River County,MS", "State": "Mississippi"}, "geometry": {"type": "Polygon", "coordinates": [[[-89.599365, 31.003013], [-89.347426, 31.00849], [-89.341949, 30.909905], [-89.341949, 30.647012], [-89.495303, 30.647012], [-89.686996, 30.460796], [-89.84035, 30.663443], [-89.730812, 31.003013], [-89.654134, 31.003013], [-89.599365, 31.003013]]]}}, {"type": "Feature", "properties": {"name": "Bureau", "id": "17011", "FIPS": "17011", "FIPS State": 17, "ST": "IL", "County": "Bureau County,IL", "State": "Illinois"}, "geometry": {"type": "Polygon", "coordinates": [[[-89.254318, 41.584462], [-89.166687, 41.584462], [-89.16121, 41.310615], [-89.467918, 41.146307], [-89.522688, 41.146307], [-89.637704, 41.146307], [-89.856781, 41.233938], [-89.862258, 41.584462], [-89.632227, 41.584462], [-89.254318, 41.584462]]]}}, {"type": "Feature", "properties": {"name": "Elmore", "id": "16039", "FIPS": "16039", "FIPS State": 16, "ST": "ID", "County": "Elmore County,ID", "State": "Idaho"}, "geometry": {"type": "Polygon", "coordinates": [[[-114.990461, 43.9505], [-114.968553, 43.939546], [-114.990461, 43.857392], [-115.089045, 43.200159], [-115.039753, 42.909881], [-115.039753, 42.767481], [-116.266588, 43.112528], [-115.97631, 43.589022], [-115.1712, 44.087424], [-114.990461, 43.9505]]]}}, {"type": "Feature", "properties": {"name": "Carbon", "id": "30009", "FIPS": "30009", "FIPS State": 30, "ST": "MT", "County": "Carbon County,MT", "State": "Montana"}, "geometry": {"type": "Polygon", "coordinates": [[[-108.806995, 45.626444], [-108.642687, 45.462136], [-108.248347, 45.002073], [-108.620779, 45.002073], [-109.798321, 45.002073], [-109.798321, 45.166381], [-108.845333, 45.610013], [-108.806995, 45.626444]]]}}, {"type": "Feature", "properties": {"name": "Montgomery", "id": "28097", "FIPS": "28097", "FIPS State": 28, "ST": "MS", "County": "Montgomery County,MS", "State": "Mississippi"}, "geometry": {"type": "Polygon", "coordinates": [[[-89.506257, 33.67576], [-89.380287, 33.462159], [-89.451488, 33.286897], [-89.643181, 33.286897], [-89.785581, 33.67576], [-89.506257, 33.67576]]]}}, {"type": "Feature", "properties": {"name": "Teton", "id": "56039", "FIPS": "56039", "FIPS State": 56, "ST": "WY", "County": "Teton County,WY", "State": "Wyoming"}, "geometry": {"type": "Polygon", "coordinates": [[[-111.058017, 44.667979], [-110.3734, 44.580348], [-110.055737, 44.010746], [-110.05026, 43.463052], [-110.576047, 43.233021], [-111.047063, 43.315175], [-111.047063, 43.501391], [-111.047063, 43.983362], [-111.047063, 44.476286], [-111.058017, 44.667979]]]}}, {"type": "Feature", "properties": {"name": "Lauderdale", "id": "28075", "FIPS": "28075", "FIPS State": 28, "ST": "MS", "County": "Lauderdale County,MS", "State": "Mississippi"}, "geometry": {"type": "Polygon", "coordinates": [[[-88.651854, 32.574895], [-88.388961, 32.580372], [-88.421823, 32.306525], [-88.432777, 32.229848], [-88.914747, 32.224371], [-88.914747, 32.574895], [-88.651854, 32.574895]]]}}, {"type": "Feature", "properties": {"name": "Bannock", "id": "16005", "FIPS": "16005", "FIPS State": 16, "ST": "ID", "County": "Bannock County,ID", "State": "Idaho"}, "geometry": {"type": "Polygon", "coordinates": [[[-112.388914, 43.01942], [-112.065774, 43.024897], [-111.874081, 42.416957], [-112.126021, 42.28551], [-112.421776, 42.504588], [-112.750392, 42.953697], [-112.388914, 43.01942]]]}}, {"type": "Feature", "properties": {"name": "Roosevelt", "id": "30085", "FIPS": "30085", "FIPS State": 30, "ST": "MT", "County": "Roosevelt County,MT", "State": "Montana"}, "geometry": {"type": "Polygon", "coordinates": [[[-105.756339, 48.562084], [-104.973137, 48.562084], [-104.047534, 48.386822], [-104.042057, 47.997959], [-104.567843, 48.118452], [-105.192214, 48.063682], [-105.84397, 48.008913], [-105.805632, 48.562084], [-105.756339, 48.562084]]]}}, {"type": "Feature", "properties": {"name": "Marion", "id": "17121", "FIPS": "17121", "FIPS State": 17, "ST": "IL", "County": "Marion County,IL", "State": "Illinois"}, "geometry": {"type": "Polygon", "coordinates": [[[-88.777824, 38.824084], [-88.69567, 38.824084], [-88.701147, 38.605006], [-88.701147, 38.47356], [-88.914747, 38.479037], [-89.144779, 38.47356], [-89.144779, 38.500944], [-89.139302, 38.736453], [-88.777824, 38.824084]]]}}, {"type": "Feature", "properties": {"name": "White", "id": "13311", "FIPS": "13311", "FIPS State": 13, "ST": "GA", "County": "White County,GA", "State": "Georgia"}, "geometry": {"type": "Polygon", "coordinates": [[[-83.782854, 34.793056], [-83.684269, 34.798533], [-83.667839, 34.502778], [-83.788331, 34.513732], [-83.843101, 34.502778], [-83.854055, 34.721856], [-83.782854, 34.793056]]]}}, {"type": "Feature", "properties": {"name": "Franklin", "id": "36033", "FIPS": "36033", "FIPS State": 36, "ST": "NY", "County": "Franklin County,NY", "State": "New York"}, "geometry": {"type": "Polygon", "coordinates": [[[-74.028424, 44.996596], [-73.907931, 44.426994], [-74.280363, 44.120285], [-74.537779, 44.098377], [-74.723995, 44.996596], [-74.028424, 44.996596]]]}}, {"type": "Feature", "properties": {"name": "Butler", "id": "31023", "FIPS": "31023", "FIPS State": 31, "ST": "NE", "County": "Butler County,NE", "State": "Nebraska"}, "geometry": {"type": "Polygon", "coordinates": [[[-96.905603, 41.453015], [-96.905603, 41.453015], [-96.91108, 41.047722], [-96.91108, 41.047722], [-97.349236, 41.047722], [-97.365666, 41.047722], [-97.365666, 41.392769], [-97.256128, 41.376338], [-96.905603, 41.453015]]]}}, {"type": "Feature", "properties": {"name": "Cass", "id": "31025", "FIPS": "31025", "FIPS State": 31, "ST": "NE", "County": "Cass County,NE", "State": "Nebraska"}, "geometry": {"type": "Polygon", "coordinates": [[[-96.040247, 41.064153], [-95.881416, 41.053199], [-95.815692, 40.899844], [-95.832123, 40.784829], [-95.892369, 40.784829], [-96.461971, 40.784829], [-96.461971, 41.01486], [-96.319571, 41.047722], [-96.040247, 41.064153]]]}}, {"type": "Feature", "properties": {"name": "Cheyenne", "id": "31033", "FIPS": "31033", "FIPS State": 31, "ST": "NE", "County": "Cheyenne County,NE", "State": "Nebraska"}, "geometry": {"type": "Polygon", "coordinates": [[[-102.754976, 41.436584], [-102.634483, 41.436584], [-102.612575, 41.222984], [-102.623529, 41.003906], [-102.650914, 41.003906], [-103.384824, 41.003906], [-103.379347, 41.392769], [-103.368393, 41.436584], [-102.754976, 41.436584]]]}}, {"type": "Feature", "properties": {"name": "Dawson", "id": "31047", "FIPS": "31047", "FIPS State": 31, "ST": "NE", "County": "Dawson County,NE", "State": "Nebraska"}, "geometry": {"type": "Polygon", "coordinates": [[[-99.994598, 41.047722], [-99.424996, 41.047722], [-99.419519, 40.669813], [-99.644074, 40.686244], [-99.983644, 40.697198], [-100.224629, 40.702674], [-100.224629, 41.047722], [-99.994598, 41.047722]]]}}, {"type": "Feature", "properties": {"name": "Dodge", "id": "31053", "FIPS": "31053", "FIPS State": 31, "ST": "NE", "County": "Dodge County,NE", "State": "Nebraska"}, "geometry": {"type": "Polygon", "coordinates": [[[-96.905603, 41.743293], [-96.555079, 41.743293], [-96.44554, 41.683047], [-96.330525, 41.392769], [-96.461971, 41.392769], [-96.472925, 41.392769], [-96.905603, 41.453015], [-96.905603, 41.453015], [-96.905603, 41.743293]]]}}, {"type": "Feature", "properties": {"name": "Fillmore", "id": "31059", "FIPS": "31059", "FIPS State": 31, "ST": "NE", "County": "Fillmore County,NE", "State": "Nebraska"}, "geometry": {"type": "Polygon", "coordinates": [[[-97.798345, 40.697198], [-97.365666, 40.697198], [-97.365666, 40.35215], [-97.50259, 40.35215], [-97.820252, 40.35215], [-97.825729, 40.35215], [-97.825729, 40.697198], [-97.798345, 40.697198]]]}}, {"type": "Feature", "properties": {"name": "Oconee", "id": "13219", "FIPS": "13219", "FIPS State": 13, "ST": "GA", "County": "Oconee County,GA", "State": "Georgia"}, "geometry": {"type": "Polygon", "coordinates": [[[-83.530915, 33.960561], [-83.273499, 33.845545], [-83.278976, 33.763391], [-83.28993, 33.736006], [-83.404945, 33.697668], [-83.50353, 33.81816], [-83.645931, 33.905791], [-83.536392, 33.966038], [-83.530915, 33.960561]]]}}, {"type": "Feature", "properties": {"name": "Randolph", "id": "17157", "FIPS": "17157", "FIPS State": 17, "ST": "IL", "County": "Randolph County,IL", "State": "Illinois"}, "geometry": {"type": "Polygon", "coordinates": [[[-90.03752, 38.22162], [-89.900597, 38.22162], [-89.703427, 38.22162], [-89.593888, 38.22162], [-89.593888, 37.95325], [-89.676042, 37.805373], [-89.938935, 37.876573], [-90.207305, 38.090174], [-90.03752, 38.22162]]]}}, {"type": "Feature", "properties": {"name": "Murray", "id": "13213", "FIPS": "13213", "FIPS State": 13, "ST": "GA", "County": "Murray County,GA", "State": "Georgia"}, "geometry": {"type": "Polygon", "coordinates": [[[-84.620826, 34.990226], [-84.620826, 34.853302], [-84.653688, 34.584932], [-84.916581, 34.634225], [-84.812519, 34.990226], [-84.774181, 34.990226], [-84.620826, 34.990226]]]}}, {"type": "Feature", "properties": {"name": "Thayer", "id": "31169", "FIPS": "31169", "FIPS State": 31, "ST": "NE", "County": "Thayer County,NE", "State": "Nebraska"}, "geometry": {"type": "Polygon", "coordinates": [[[-97.50259, 40.35215], [-97.365666, 40.35215], [-97.371143, 40.001626], [-97.820252, 40.001626], [-97.820252, 40.35215], [-97.50259, 40.35215]]]}}, {"type": "Feature", "properties": {"name": "Washington", "id": "31177", "FIPS": "31177", "FIPS State": 31, "ST": "NE", "County": "Washington County,NE", "State": "Nebraska"}, "geometry": {"type": "Polygon", "coordinates": [[[-96.407202, 41.683047], [-96.122401, 41.683047], [-95.996431, 41.507785], [-95.936185, 41.392769], [-96.330525, 41.392769], [-96.44554, 41.683047], [-96.407202, 41.683047]]]}}, {"type": "Feature", "properties": {"name": "Douglas", "id": "32005", "FIPS": "32005", "FIPS State": 32, "ST": "NV", "County": "Douglas County,NV", "State": "Nevada"}, "geometry": {"type": "Polygon", "coordinates": [[[-119.760876, 39.114362], [-119.552752, 39.086977], [-119.328197, 38.533806], [-119.585614, 38.714545], [-119.903276, 38.933623], [-120.001861, 39.065069], [-120.001861, 39.114362], [-119.760876, 39.114362]]]}}, {"type": "Feature", "properties": {"name": "Nye", "id": "32023", "FIPS": "32023", "FIPS State": 32, "ST": "NV", "County": "Nye County,NV", "State": "Nevada"}, "geometry": {"type": "Polygon", "coordinates": [[[-116.233726, 39.163654], [-115.90511, 39.163654], [-115.001414, 38.676207], [-115.001414, 38.051835], [-115.894156, 38.051835], [-115.894156, 36.841432], [-115.899633, 36.00346], [-117.164806, 36.972878], [-117.164806, 38.002543], [-117.690592, 38.47356], [-118.194471, 38.917192], [-117.865854, 39.076023], [-117.772746, 39.092454], [-116.600681, 39.163654], [-116.233726, 39.163654]]]}}, {"type": "Feature", "properties": {"name": "Choctaw", "id": "28019", "FIPS": "28019", "FIPS State": 28, "ST": "MS", "County": "Choctaw County,MS", "State": "Mississippi"}, "geometry": {"type": "Polygon", "coordinates": [[[-89.139302, 33.53336], [-89.09001, 33.53336], [-89.09001, 33.286897], [-89.320041, 33.106158], [-89.396718, 33.286897], [-89.451488, 33.286897], [-89.380287, 33.462159], [-89.139302, 33.53336]]]}}, {"type": "Feature", "properties": {"name": "Sanders", "id": "30089", "FIPS": "30089", "FIPS State": 30, "ST": "MT", "County": "Sanders County,MT", "State": "Montana"}, "geometry": {"type": "Polygon", "coordinates": [[[-115.844863, 48.21156], [-115.521724, 47.910328], [-115.012368, 48.019867], [-114.601598, 47.789835], [-114.18535, 47.138079], [-114.798768, 47.269526], [-115.499816, 47.488604], [-115.658647, 47.466696], [-116.04751, 47.976051], [-116.04751, 48.217037], [-115.844863, 48.21156]]]}}, {"type": "Feature", "properties": {"name": "Wayne", "id": "19185", "FIPS": "19185", "FIPS State": 19, "ST": "IA", "County": "Wayne County,IA", "State": "Iowa"}, "geometry": {"type": "Polygon", "coordinates": [[[-93.09913, 40.899844], [-93.09913, 40.582182], [-93.372977, 40.582182], [-93.526331, 40.582182], [-93.559193, 40.582182], [-93.559193, 40.899844], [-93.09913, 40.899844]]]}}, {"type": "Feature", "properties": {"name": "Noble", "id": "39121", "FIPS": "39121", "FIPS State": 39, "ST": "OH", "County": "Noble County,OH", "State": "Ohio"}, "geometry": {"type": "Polygon", "coordinates": [[[-81.471585, 39.892087], [-81.236077, 39.952334], [-81.236077, 39.87018], [-81.307277, 39.87018], [-81.28537, 39.607286], [-81.449678, 39.634671], [-81.586601, 39.585379], [-81.69614, 39.755164], [-81.69614, 39.842795], [-81.471585, 39.892087]]]}}, {"type": "Feature", "properties": {"name": "Madison", "id": "05087", "FIPS": "05087", "FIPS State": 5, "ST": "AR", "County": "Madison County,AR", "State": "Arkansas"}, "geometry": {"type": "Polygon", "coordinates": [[[-93.816609, 36.304691], [-93.477039, 36.123952], [-93.520854, 35.762474], [-93.696116, 35.767951], [-93.909717, 35.762474], [-93.964486, 35.762474], [-93.887809, 36.233491], [-93.816609, 36.304691]]]}}, {"type": "Feature", "properties": {"name": "Miller", "id": "05091", "FIPS": "05091", "FIPS State": 5, "ST": "AR", "County": "Miller County,AR", "State": "Arkansas"}, "geometry": {"type": "Polygon", "coordinates": [[[-93.827563, 33.610037], [-93.723501, 33.484067], [-93.805655, 33.018527], [-93.816609, 33.018527], [-94.041164, 33.018527], [-94.041164, 33.270466], [-94.041164, 33.54979], [-93.827563, 33.610037]]]}}, {"type": "Feature", "properties": {"name": "Poinsett", "id": "05111", "FIPS": "05111", "FIPS State": 5, "ST": "AR", "County": "Poinsett County,AR", "State": "Arkansas"}, "geometry": {"type": "Polygon", "coordinates": [[[-90.930262, 35.707705], [-90.289459, 35.702228], [-90.289459, 35.439335], [-90.50306, 35.439335], [-90.744046, 35.444812], [-91.0398, 35.444812], [-91.034323, 35.707705], [-90.930262, 35.707705]]]}}, {"type": "Feature", "properties": {"name": "Windham", "id": "50025", "FIPS": "50025", "FIPS State": 50, "ST": "VT", "County": "Windham County,VT", "State": "Vermont"}, "geometry": {"type": "Polygon", "coordinates": [[[-72.81802, 43.254929], [-72.434634, 43.233021], [-72.451065, 43.161821], [-72.456542, 42.729142], [-72.927559, 42.740096], [-72.81802, 43.254929]]]}}, {"type": "Feature", "properties": {"name": "Sevier", "id": "49041", "FIPS": "49041", "FIPS State": 49, "ST": "UT", "County": "Sevier County,UT", "State": "Utah"}, "geometry": {"type": "Polygon", "coordinates": [[[-111.978143, 39.043162], [-111.299003, 39.032208], [-111.30448, 38.511898], [-111.764543, 38.500944], [-111.857651, 38.500944], [-112.52036, 38.511898], [-112.514883, 38.572145], [-112.016482, 39.043162], [-111.978143, 39.043162]]]}}, {"type": "Feature", "properties": {"name": "White", "id": "05145", "FIPS": "05145", "FIPS State": 5, "ST": "AR", "County": "White County,AR", "State": "Arkansas"}, "geometry": {"type": "Polygon", "coordinates": [[[-91.795618, 35.532443], [-91.582017, 35.532443], [-91.346509, 35.439335], [-91.467002, 35.088811], [-91.587494, 35.023087], [-91.801095, 35.028564], [-92.118758, 35.066903], [-92.113281, 35.362658], [-91.795618, 35.532443]]]}}, {"type": "Feature", "properties": {"name": "Wilson", "id": "48493", "FIPS": "48493", "FIPS State": 48, "ST": "TX", "County": "Wilson County,TX", "State": "Texas"}, "geometry": {"type": "Polygon", "coordinates": [[[-98.285792, 29.255869], [-98.132438, 29.442085], [-97.84216, 29.376362], [-97.727145, 29.223007], [-98.192684, 28.883437], [-98.406285, 29.113469], [-98.285792, 29.255869]]]}}, {"type": "Feature", "properties": {"name": "Victoria", "id": "48469", "FIPS": "48469", "FIPS State": 48, "ST": "TX", "County": "Victoria County,TX", "State": "Texas"}, "geometry": {"type": "Polygon", "coordinates": [[[-96.976804, 29.102515], [-96.938465, 29.064176], [-96.64271, 28.713652], [-96.653664, 28.702698], [-96.889173, 28.505528], [-97.146589, 28.549344], [-97.16302, 28.554821], [-97.30542, 28.861529], [-96.976804, 29.102515]]]}}, {"type": "Feature", "properties": {"name": "Val Verde", "id": "48465", "FIPS": "48465", "FIPS State": 48, "ST": "TX", "County": "Val Verde County,TX", "State": "Texas"}, "geometry": {"type": "Polygon", "coordinates": [[[-101.544572, 30.285534], [-100.958539, 30.285534], [-100.701123, 30.291011], [-100.701123, 29.622824], [-100.794231, 29.239438], [-101.413125, 29.754271], [-101.76365, 29.781655], [-101.758173, 30.285534], [-101.544572, 30.285534]]]}}, {"type": "Feature", "properties": {"name": "Rusk", "id": "48401", "FIPS": "48401", "FIPS State": 48, "ST": "TX", "County": "Rusk County,TX", "State": "Texas"}, "geometry": {"type": "Polygon", "coordinates": [[[-94.577904, 32.394156], [-94.490273, 32.394156], [-94.512181, 31.972432], [-94.451934, 31.846462], [-94.512181, 31.846462], [-94.939382, 31.846462], [-94.983197, 32.13674], [-94.988674, 32.366771], [-94.577904, 32.394156]]]}}, {"type": "Feature", "properties": {"name": "Inyo", "id": "06027", "FIPS": "06027", "FIPS State": 6, "ST": "CA", "County": "Inyo County,CA", "State": "California"}, "geometry": {"type": "Polygon", "coordinates": [[[-117.937054, 37.465803], [-117.832993, 37.465803], [-117.164806, 36.972878], [-115.899633, 36.00346], [-115.647693, 35.80629], [-117.630346, 35.795336], [-118.008255, 35.789859], [-118.358779, 36.742847], [-118.775026, 37.460326], [-117.937054, 37.465803]]]}}, {"type": "Feature", "properties": {"name": "Nacogdoches", "id": "48347", "FIPS": "48347", "FIPS State": 48, "ST": "TX", "County": "Nacogdoches County,TX", "State": "Texas"}, "geometry": {"type": "Polygon", "coordinates": [[[-94.512181, 31.846462], [-94.451934, 31.846462], [-94.397165, 31.654769], [-94.325965, 31.222091], [-94.868182, 31.528799], [-94.939382, 31.846462], [-94.512181, 31.846462]]]}}, {"type": "Feature", "properties": {"name": "Mills", "id": "48333", "FIPS": "48333", "FIPS State": 48, "ST": "TX", "County": "Mills County,TX", "State": "Texas"}, "geometry": {"type": "Polygon", "coordinates": [[[-98.669178, 31.698584], [-98.461055, 31.682154], [-98.269362, 31.413784], [-98.565116, 31.233045], [-98.992318, 31.484984], [-98.669178, 31.698584]]]}}, {"type": "Feature", "properties": {"name": "Kendall", "id": "48259", "FIPS": "48259", "FIPS State": 48, "ST": "TX", "County": "Kendall County,TX", "State": "Texas"}, "geometry": {"type": "Polygon", "coordinates": [[[-98.921118, 30.137656], [-98.587024, 30.137656], [-98.411762, 29.93501], [-98.64727, 29.743317], [-98.778717, 29.721409], [-98.915641, 29.781655], [-98.921118, 30.137656]]]}}, {"type": "Feature", "properties": {"name": "Howard", "id": "48227", "FIPS": "48227", "FIPS State": 48, "ST": "TX", "County": "Howard County,TX", "State": "Texas"}, "geometry": {"type": "Polygon", "coordinates": [[[-101.17214, 32.525602], [-101.183094, 32.087447], [-101.265248, 32.087447], [-101.692449, 32.087447], [-101.686972, 32.525602], [-101.17214, 32.525602]]]}}, {"type": "Feature", "properties": {"name": "Greene", "id": "51079", "FIPS": "51079", "FIPS State": 51, "ST": "VA", "County": "Greene County,VA", "State": "Virginia"}, "geometry": {"type": "Polygon", "coordinates": [[[-78.459268, 38.468083], [-78.453791, 38.47356], [-78.289483, 38.270913], [-78.371637, 38.183282], [-78.661915, 38.27639], [-78.486653, 38.41879], [-78.459268, 38.468083]]]}}, {"type": "Feature", "properties": {"name": "Independence", "id": "05063", "FIPS": "05063", "FIPS State": 5, "ST": "AR", "County": "Independence County,AR", "State": "Arkansas"}, "geometry": {"type": "Polygon", "coordinates": [[[-91.850387, 35.866536], [-91.707987, 35.943213], [-91.357463, 35.888444], [-91.198632, 35.888444], [-91.582017, 35.532443], [-91.795618, 35.532443], [-91.839434, 35.702228], [-91.850387, 35.866536]]]}}, {"type": "Feature", "properties": {"name": "Crittenden", "id": "05035", "FIPS": "05035", "FIPS State": 5, "ST": "AR", "County": "Crittenden County,AR", "State": "Arkansas"}, "geometry": {"type": "Polygon", "coordinates": [[[-90.50306, 35.439335], [-90.289459, 35.439335], [-90.141582, 35.439335], [-90.075859, 35.384565], [-90.311367, 34.995703], [-90.30589, 34.858779], [-90.409952, 34.831394], [-90.409952, 34.902595], [-90.50306, 35.14358], [-90.50306, 35.439335]]]}}, {"type": "Feature", "properties": {"name": "Boone", "id": "05009", "FIPS": "05009", "FIPS State": 5, "ST": "AR", "County": "Boone County,AR", "State": "Arkansas"}, "geometry": {"type": "Polygon", "coordinates": [[[-93.066268, 36.496384], [-92.852668, 36.496384], [-92.891006, 36.112998], [-92.945776, 36.112998], [-93.301777, 36.123952], [-93.2963, 36.496384], [-93.066268, 36.496384]]]}}, {"type": "Feature", "properties": {"name": "Bibb", "id": "01007", "FIPS": "01007", "FIPS State": 1, "ST": "AL", "County": "Bibb County,AL", "State": "Alabama"}, "geometry": {"type": "Polygon", "coordinates": [[[-87.063542, 33.248559], [-87.025203, 33.248559], [-86.882803, 33.051389], [-87.019726, 32.837788], [-87.326435, 32.876127], [-87.419543, 32.876127], [-87.419543, 33.002096], [-87.063542, 33.248559]]]}}, {"type": "Feature", "properties": {"name": "Waupaca", "id": "55135", "FIPS": "55135", "FIPS State": 55, "ST": "WI", "County": "Waupaca County,WI", "State": "Wisconsin"}, "geometry": {"type": "Polygon", "coordinates": [[[-89.221456, 44.678933], [-88.608039, 44.591302], [-88.739485, 44.240778], [-88.887363, 44.240778], [-89.226933, 44.246255], [-89.221456, 44.678933]]]}}, {"type": "Feature", "properties": {"name": "Washburn", "id": "55129", "FIPS": "55129", "FIPS State": 55, "ST": "WI", "County": "Washburn County,WI", "State": "Wisconsin"}, "geometry": {"type": "Polygon", "coordinates": [[[-92.020173, 46.157707], [-91.549156, 46.157707], [-91.538202, 45.637398], [-92.031127, 45.637398], [-92.047557, 46.157707], [-92.020173, 46.157707]]]}}, {"type": "Feature", "properties": {"name": "Taylor", "id": "55119", "FIPS": "55119", "FIPS State": 55, "ST": "WI", "County": "Taylor County,WI", "State": "Wisconsin"}, "geometry": {"type": "Polygon", "coordinates": [[[-90.168967, 45.379982], [-90.042997, 45.379982], [-90.042997, 45.122565], [-90.196352, 45.122565], [-90.316844, 45.034934], [-90.815246, 45.029457], [-90.924785, 45.029457], [-90.924785, 45.29235], [-90.678322, 45.379982], [-90.168967, 45.379982]]]}}, {"type": "Feature", "properties": {"name": "Marquette", "id": "55077", "FIPS": "55077", "FIPS State": 55, "ST": "WI", "County": "Marquette County,WI", "State": "Wisconsin"}, "geometry": {"type": "Polygon", "coordinates": [[[-89.166687, 43.983362], [-89.243364, 43.643791], [-89.599365, 43.643791], [-89.599365, 43.983362], [-89.166687, 43.983362]]]}}, {"type": "Feature", "properties": {"name": "Door", "id": "55029", "FIPS": "55029", "FIPS State": 55, "ST": "WI", "County": "Door County,WI", "State": "Wisconsin"}, "geometry": {"type": "Polygon", "coordinates": [[[-87.375727, 44.673456], [-87.737205, 44.678933], [-86.981388, 45.297827], [-87.375727, 44.673456]]]}}, {"type": "Feature", "properties": {"name": "Chippewa", "id": "55017", "FIPS": "55017", "FIPS State": 55, "ST": "WI", "County": "Chippewa County,WI", "State": "Wisconsin"}, "geometry": {"type": "Polygon", "coordinates": [[[-91.089093, 45.29235], [-90.924785, 45.29235], [-90.924785, 45.029457], [-90.924785, 44.859672], [-91.499863, 44.859672], [-91.653218, 44.854195], [-91.664172, 45.210196], [-91.543679, 45.29235], [-91.089093, 45.29235]]]}}, {"type": "Feature", "properties": {"name": "Plumas", "id": "06063", "FIPS": "06063", "FIPS State": 6, "ST": "CA", "County": "Plumas County,CA", "State": "California"}, "geometry": {"type": "Polygon", "coordinates": [[[-121.119157, 40.445258], [-120.209985, 40.08378], [-120.149738, 39.705871], [-121.009618, 39.640148], [-121.075341, 39.596333], [-121.436819, 40.149503], [-121.497066, 40.445258], [-121.327281, 40.445258], [-121.119157, 40.445258]]]}}, {"type": "Feature", "properties": {"name": "Ritchie", "id": "54085", "FIPS": "54085", "FIPS State": 54, "ST": "WV", "County": "Ritchie County,WV", "State": "West Virginia"}, "geometry": {"type": "Polygon", "coordinates": [[[-81.016999, 39.34987], [-81.006046, 39.34987], [-80.89103, 39.295101], [-80.814353, 39.108885], [-81.03343, 39.0103], [-81.115584, 39.037685], [-81.164877, 39.032208], [-81.296323, 39.185562], [-81.241554, 39.267716], [-81.016999, 39.34987]]]}}, {"type": "Feature", "properties": {"name": "Pike", "id": "01109", "FIPS": "01109", "FIPS State": 1, "ST": "AL", "County": "Pike County,AL", "State": "Alabama"}, "geometry": {"type": "Polygon", "coordinates": [[[-85.995538, 32.049109], [-85.655968, 31.879324], [-85.749076, 31.61643], [-85.787415, 31.61643], [-86.055785, 31.61643], [-86.143416, 31.61643], [-86.192708, 31.966955], [-85.995538, 32.049109]]]}}, {"type": "Feature", "properties": {"name": "Fayette", "id": "54019", "FIPS": "54019", "FIPS State": 54, "ST": "WV", "County": "Fayette County,WV", "State": "West Virginia"}, "geometry": {"type": "Polygon", "coordinates": [[[-81.192262, 38.232574], [-80.880076, 38.101128], [-80.808876, 37.871096], [-80.945799, 37.821804], [-81.378478, 37.969681], [-81.2306, 38.265436], [-81.192262, 38.232574]]]}}, {"type": "Feature", "properties": {"name": "Kodiak Island", "id": "02150", "FIPS": "02150", "FIPS State": 2, "ST": "AK", "County": "Kodiak Island County,AK", "State": "Alaska"}, "geometry": {"type": "MultiPolygon", "coordinates": [[[[-153.329043, 58.853255], [-153.312612, 58.847778], [-154.062953, 58.4863], [-154.210831, 58.135776], [-155.120003, 57.955037], [-156.357791, 57.16088], [-156.752131, 57.16088], [-155.328126, 57.878359], [-155.333603, 58.190545], [-154.468247, 58.36033], [-154.303938, 58.645131], [-153.329043, 58.853255]]], [[[-152.94018, 58.026237], [-152.666333, 58.562977], [-152.080301, 58.152206], [-152.94018, 58.026237]]], [[[-153.958891, 57.538789], [-153.936983, 57.812636], [-153.301658, 57.993375], [-152.151501, 57.620943], [-153.695998, 56.859649], [-154.303938, 56.848695], [-154.742094, 57.314235], [-154.227261, 57.659282], [-153.958891, 57.538789]]]]}}, {"type": "Feature", "properties": {"name": "Douglas", "id": "53017", "FIPS": "53017", "FIPS State": 53, "ST": "WA", "County": "Douglas County,WA", "State": "Washington"}, "geometry": {"type": "Polygon", "coordinates": [[[-119.021489, 48.069159], [-118.98315, 47.95962], [-119.213182, 47.861036], [-120.007338, 47.220233], [-120.094969, 47.264049], [-120.319524, 47.455742], [-119.870414, 47.95962], [-119.021489, 48.069159]]]}}, {"type": "Feature", "properties": {"name": "Gila", "id": "04007", "FIPS": "04007", "FIPS State": 4, "ST": "AZ", "County": "Gila County,AZ", "State": "Arizona"}, "geometry": {"type": "Polygon", "coordinates": [[[-111.556419, 34.469916], [-110.751309, 34.261793], [-110.751309, 33.998899], [-110.000968, 33.998899], [-110.000968, 33.577175], [-110.450077, 33.193789], [-110.778693, 32.985665], [-111.041587, 33.467636], [-111.496173, 33.998899], [-111.556419, 34.469916]]]}}, {"type": "Feature", "properties": {"name": "Rappahannock", "id": "51157", "FIPS": "51157", "FIPS State": 51, "ST": "VA", "County": "Rappahannock County,VA", "State": "Virginia"}, "geometry": {"type": "Polygon", "coordinates": [[[-78.256622, 38.758361], [-78.130652, 38.862422], [-77.933482, 38.698114], [-78.229237, 38.533806], [-78.338776, 38.626914], [-78.284006, 38.758361], [-78.256622, 38.758361]]]}}, {"type": "Feature", "properties": {"name": "Powhatan", "id": "51145", "FIPS": "51145", "FIPS State": 51, "ST": "VA", "County": "Powhatan County,VA", "State": "Virginia"}, "geometry": {"type": "Polygon", "coordinates": [[[-78.015636, 37.641065], [-77.654158, 37.564388], [-77.856805, 37.41651], [-77.988251, 37.48771], [-78.130652, 37.454849], [-78.070406, 37.657496], [-78.015636, 37.641065]]]}}, {"type": "Feature", "properties": {"name": "Nicholas", "id": "54067", "FIPS": "54067", "FIPS State": 54, "ST": "WV", "County": "Nicholas County,WV", "State": "West Virginia"}, "geometry": {"type": "Polygon", "coordinates": [[[-80.677429, 38.533806], [-80.650044, 38.528329], [-80.436444, 38.265436], [-80.880076, 38.101128], [-81.192262, 38.232574], [-81.2306, 38.265436], [-81.2306, 38.265436], [-80.880076, 38.506421], [-80.677429, 38.533806]]]}}, {"type": "Feature", "properties": {"name": "Haskell", "id": "48207", "FIPS": "48207", "FIPS State": 48, "ST": "TX", "County": "Haskell County,TX", "State": "Texas"}, "geometry": {"type": "Polygon", "coordinates": [[[-99.518104, 33.396436], [-99.474288, 33.396436], [-99.468812, 32.958281], [-99.611212, 32.958281], [-99.989121, 32.958281], [-99.989121, 33.396436], [-99.518104, 33.396436]]]}}, {"type": "Feature", "properties": {"name": "Bastrop", "id": "48021", "FIPS": "48021", "FIPS State": 48, "ST": "TX", "County": "Bastrop County,TX", "State": "Texas"}, "geometry": {"type": "Polygon", "coordinates": [[[-97.332805, 30.40055], [-97.026096, 30.050025], [-97.316374, 29.787132], [-97.650467, 30.071933], [-97.371143, 30.41698], [-97.332805, 30.40055]]]}}, {"type": "Feature", "properties": {"name": "Huerfano", "id": "08055", "FIPS": "08055", "FIPS State": 8, "ST": "CO", "County": "Huerfano County,CO", "State": "Colorado"}, "geometry": {"type": "Polygon", "coordinates": [[[-105.186737, 38.00802], [-105.049814, 37.914912], [-104.348765, 37.816327], [-105.153876, 37.290541], [-105.23603, 37.624634], [-105.487969, 37.575342], [-105.455107, 37.750604], [-105.471538, 37.898481], [-105.186737, 38.00802]]]}}, {"type": "Feature", "properties": {"name": "Wasco", "id": "41065", "FIPS": "41065", "FIPS State": 41, "ST": "OR", "County": "Wasco County,OR", "State": "Oregon"}, "geometry": {"type": "Polygon", "coordinates": [[[-121.442296, 45.697644], [-120.91651, 45.642875], [-121.026049, 45.22115], [-120.505739, 45.084227], [-120.494786, 45.067796], [-120.374293, 44.821334], [-120.998664, 44.821334], [-121.759959, 44.826811], [-121.732574, 44.887057], [-121.694236, 45.259489], [-121.442296, 45.697644]]]}}, {"type": "Feature", "properties": {"name": "Josephine", "id": "41033", "FIPS": "41033", "FIPS State": 41, "ST": "OR", "County": "Josephine County,OR", "State": "Oregon"}, "geometry": {"type": "Polygon", "coordinates": [[[-123.715227, 42.783912], [-123.227779, 42.701758], [-123.233256, 42.006186], [-123.518057, 42.000709], [-123.819288, 41.995232], [-124.027412, 42.35671], [-123.715227, 42.783912]]]}}, {"type": "Feature", "properties": {"name": "Hood River", "id": "41027", "FIPS": "41027", "FIPS State": 41, "ST": "OR", "County": "Hood River County,OR", "State": "Oregon"}, "geometry": {"type": "Polygon", "coordinates": [[[-121.924267, 45.648352], [-121.52445, 45.725029], [-121.442296, 45.697644], [-121.694236, 45.259489], [-121.820205, 45.462136], [-121.924267, 45.648352]]]}}, {"type": "Feature", "properties": {"name": "Gadsden", "id": "12039", "FIPS": "12039", "FIPS State": 12, "ST": "FL", "County": "Gadsden County,FL", "State": "Florida"}, "geometry": {"type": "Polygon", "coordinates": [[[-84.867289, 30.712735], [-84.861812, 30.712735], [-84.379841, 30.690827], [-84.281256, 30.685351], [-84.648211, 30.389596], [-84.933012, 30.608673], [-84.867289, 30.712735]]]}}, {"type": "Feature", "properties": {"name": "Columbia", "id": "41009", "FIPS": "41009", "FIPS State": 41, "ST": "OR", "County": "Columbia County,OR", "State": "Oregon"}, "geometry": {"type": "Polygon", "coordinates": [[[-122.784147, 45.850998], [-122.762239, 45.730506], [-122.926547, 45.725029], [-123.134671, 45.779798], [-123.359225, 45.779798], [-123.364702, 46.146753], [-123.211348, 46.174138], [-122.784147, 45.850998]]]}}, {"type": "Feature", "properties": {"name": "Delta", "id": "26041", "FIPS": "26041", "FIPS State": 26, "ST": "MI", "County": "Delta County,MI", "State": "Michigan"}, "geometry": {"type": "Polygon", "coordinates": [[[-87.118311, 46.157707], [-86.614433, 46.157707], [-86.461078, 45.75789], [-86.784218, 45.861952], [-87.266188, 45.549767], [-87.37025, 45.987922], [-87.118311, 46.157707]]]}}, {"type": "Feature", "properties": {"name": "Pittsburg", "id": "40121", "FIPS": "40121", "FIPS State": 40, "ST": "OK", "County": "Pittsburg County,OK", "State": "Oklahoma"}, "geometry": {"type": "Polygon", "coordinates": [[[-95.706154, 35.203826], [-95.448737, 35.296934], [-95.350152, 35.055949], [-95.514461, 34.683517], [-95.673292, 34.595886], [-96.089539, 34.67804], [-96.089539, 34.765671], [-95.985477, 35.149057], [-95.706154, 35.203826]]]}}, {"type": "Feature", "properties": {"name": "Greene", "id": "42059", "FIPS": "42059", "FIPS State": 42, "ST": "PA", "County": "Greene County,PA", "State": "Pennsylvania"}, "geometry": {"type": "Polygon", "coordinates": [[[-80.064012, 40.007103], [-79.998289, 39.985195], [-79.916134, 39.722302], [-80.420013, 39.722302], [-80.518598, 39.722302], [-80.518598, 39.963288], [-80.064012, 40.007103]]]}}, {"type": "Feature", "properties": {"name": "Jackson", "id": "40065", "FIPS": "40065", "FIPS State": 40, "ST": "OK", "County": "Jackson County,OK", "State": "Oklahoma"}, "geometry": {"type": "Polygon", "coordinates": [[[-99.397611, 34.814964], [-99.244257, 34.820441], [-99.101857, 34.639701], [-99.211395, 34.33847], [-99.474288, 34.398716], [-99.84672, 34.508255], [-99.665981, 34.727333], [-99.397611, 34.814964]]]}}, {"type": "Feature", "properties": {"name": "Custer", "id": "40039", "FIPS": "40039", "FIPS State": 40, "ST": "OK", "County": "Custer County,OK", "State": "Oklahoma"}, "geometry": {"type": "Polygon", "coordinates": [[[-98.817056, 35.811767], [-98.63084, 35.811767], [-98.625363, 35.548874], [-98.625363, 35.466719], [-99.16758, 35.466719], [-99.36475, 35.466719], [-99.36475, 35.510535], [-99.375704, 35.811767], [-98.817056, 35.811767]]]}}, {"type": "Feature", "properties": {"name": "Bryan", "id": "40013", "FIPS": "40013", "FIPS State": 40, "ST": "OK", "County": "Bryan County,OK", "State": "Oklahoma"}, "geometry": {"type": "Polygon", "coordinates": [[[-96.412679, 34.157731], [-96.407202, 34.157731], [-95.990954, 34.157731], [-95.760923, 33.87293], [-95.843077, 33.840068], [-96.379817, 33.725052], [-96.587941, 33.894838], [-96.587941, 34.113915], [-96.412679, 34.157731]]]}}, {"type": "Feature", "properties": {"name": "Williams", "id": "39171", "FIPS": "39171", "FIPS State": 39, "ST": "OH", "County": "Williams County,OH", "State": "Ohio"}, "geometry": {"type": "Polygon", "coordinates": [[[-84.401749, 41.704955], [-84.341502, 41.485877], [-84.341502, 41.425631], [-84.801565, 41.425631], [-84.807042, 41.529692], [-84.807042, 41.694001], [-84.401749, 41.704955]]]}}, {"type": "Feature", "properties": {"name": "Van Wert", "id": "39161", "FIPS": "39161", "FIPS State": 39, "ST": "OH", "County": "Van Wert County,OH", "State": "Ohio"}, "geometry": {"type": "Polygon", "coordinates": [[[-84.456518, 40.987475], [-84.401749, 40.992952], [-84.341502, 40.861506], [-84.396272, 40.686244], [-84.456518, 40.686244], [-84.774181, 40.730059], [-84.801565, 40.730059], [-84.801565, 40.921752], [-84.801565, 40.987475], [-84.456518, 40.987475]]]}}, {"type": "Feature", "properties": {"name": "Shelby", "id": "39149", "FIPS": "39149", "FIPS State": 39, "ST": "OH", "County": "Shelby County,OH", "State": "Ohio"}, "geometry": {"type": "Polygon", "coordinates": [[[-84.105994, 40.483597], [-84.001932, 40.483597], [-84.012886, 40.275473], [-84.02384, 40.182365], [-84.22101, 40.198796], [-84.43461, 40.198796], [-84.43461, 40.35215], [-84.43461, 40.35215], [-84.105994, 40.483597]]]}}, {"type": "Feature", "properties": {"name": "Putnam", "id": "39137", "FIPS": "39137", "FIPS State": 39, "ST": "OH", "County": "Putnam County,OH", "State": "Ohio"}, "geometry": {"type": "Polygon", "coordinates": [[[-84.029317, 41.168214], [-83.881439, 41.168214], [-83.881439, 40.921752], [-84.341502, 40.861506], [-84.401749, 40.992952], [-84.341502, 41.162737], [-84.226487, 41.168214], [-84.029317, 41.168214]]]}}, {"type": "Feature", "properties": {"name": "Pike", "id": "39131", "FIPS": "39131", "FIPS State": 39, "ST": "OH", "County": "Pike County,OH", "State": "Ohio"}, "geometry": {"type": "Polygon", "coordinates": [[[-83.355653, 39.196516], [-82.786051, 39.169131], [-82.807959, 38.950054], [-83.273499, 39.015777], [-83.383038, 39.054115], [-83.355653, 39.196516]]]}}, {"type": "Feature", "properties": {"name": "Grady", "id": "40051", "FIPS": "40051", "FIPS State": 40, "ST": "OK", "County": "Grady County,OK", "State": "Oklahoma"}, "geometry": {"type": "Polygon", "coordinates": [[[-98.0941, 35.379088], [-97.672375, 35.335273], [-97.666898, 34.853302], [-97.666898, 34.683517], [-97.995515, 34.683517], [-98.088623, 34.683517], [-98.0941, 34.853302], [-98.0941, 35.379088]]]}}, {"type": "Feature", "properties": {"name": "Jefferson", "id": "39081", "FIPS": "39081", "FIPS State": 39, "ST": "OH", "County": "Jefferson County,OH", "State": "Ohio"}, "geometry": {"type": "Polygon", "coordinates": [[[-80.863645, 40.598613], [-80.666475, 40.582182], [-80.633614, 40.395966], [-80.682906, 40.187842], [-80.704814, 40.15498], [-80.885553, 40.160457], [-80.940322, 40.423351], [-80.863645, 40.598613]]]}}, {"type": "Feature", "properties": {"name": "Jefferson", "id": "42065", "FIPS": "42065", "FIPS State": 42, "ST": "PA", "County": "Jefferson County,PA", "State": "Pennsylvania"}, "geometry": {"type": "Polygon", "coordinates": [[[-78.95767, 41.370861], [-78.711208, 41.201076], [-78.804316, 40.905321], [-79.215086, 40.910798], [-79.215086, 41.053199], [-79.209609, 41.332523], [-79.094593, 41.343476], [-78.95767, 41.370861]]]}}, {"type": "Feature", "properties": {"name": "Cherokee", "id": "45021", "FIPS": "45021", "FIPS State": 45, "ST": "SC", "County": "Cherokee County,SC", "State": "South Carolina"}, "geometry": {"type": "Polygon", "coordinates": [[[-81.76734, 35.181919], [-81.367524, 35.165488], [-81.455155, 34.836871], [-81.712571, 34.913548], [-81.876879, 35.181919], [-81.76734, 35.181919]]]}}, {"type": "Feature", "properties": {"name": "Greene", "id": "47059", "FIPS": "47059", "FIPS State": 47, "ST": "TN", "County": "Greene County,TN", "State": "Tennessee"}, "geometry": {"type": "Polygon", "coordinates": [[[-82.632697, 36.419707], [-82.594358, 36.096568], [-82.605312, 36.041798], [-82.786051, 35.987029], [-82.901067, 35.943213], [-83.16396, 36.178722], [-83.081806, 36.244445], [-82.703897, 36.408753], [-82.632697, 36.419707]]]}}, {"type": "Feature", "properties": {"name": "Decatur", "id": "47039", "FIPS": "47039", "FIPS State": 47, "ST": "TN", "County": "Decatur County,TN", "State": "Tennessee"}, "geometry": {"type": "Polygon", "coordinates": [[[-88.175361, 35.844628], [-87.972714, 35.817244], [-88.005575, 35.422904], [-88.022006, 35.390042], [-88.241084, 35.422904], [-88.180837, 35.817244], [-88.175361, 35.844628]]]}}, {"type": "Feature", "properties": {"name": "Montezuma", "id": "08083", "FIPS": "08083", "FIPS State": 8, "ST": "CO", "County": "Montezuma County,CO", "State": "Colorado"}, "geometry": {"type": "Polygon", "coordinates": [[[-107.9745, 37.641065], [-108.379794, 37.000263], [-109.042503, 37.000263], [-109.042503, 37.482234], [-107.9745, 37.641065]]]}}, {"type": "Feature", "properties": {"name": "Morgan", "id": "08087", "FIPS": "08087", "FIPS State": 8, "ST": "CO", "County": "Morgan County,CO", "State": "Colorado"}, "geometry": {"type": "Polygon", "coordinates": [[[-104.091349, 40.521935], [-103.581994, 40.521935], [-103.466978, 40.434304], [-103.707963, 40.001626], [-103.795594, 40.001626], [-104.151596, 40.001626], [-104.091349, 40.521935]]]}}, {"type": "Feature", "properties": {"name": "Campbell", "id": "47013", "FIPS": "47013", "FIPS State": 47, "ST": "TN", "County": "Campbell County,TN", "State": "Tennessee"}, "geometry": {"type": "Polygon", "coordinates": [[[-84.226487, 36.589492], [-83.985501, 36.589492], [-83.903347, 36.419707], [-84.001932, 36.27183], [-84.374364, 36.21706], [-84.259348, 36.589492], [-84.226487, 36.589492]]]}}, {"type": "Feature", "properties": {"name": "Bedford", "id": "47003", "FIPS": "47003", "FIPS State": 47, "ST": "TN", "County": "Bedford County,TN", "State": "Tennessee"}, "geometry": {"type": "Polygon", "coordinates": [[[-86.521325, 35.691274], [-86.247477, 35.631028], [-86.258431, 35.41195], [-86.526801, 35.357181], [-86.598002, 35.362658], [-86.641817, 35.685797], [-86.521325, 35.691274]]]}}, {"type": "Feature", "properties": {"name": "Pitkin", "id": "08097", "FIPS": "08097", "FIPS State": 8, "ST": "CO", "County": "Pitkin County,CO", "State": "Colorado"}, "geometry": {"type": "Polygon", "coordinates": [[[-107.04342, 39.366301], [-106.424526, 39.360824], [-106.57788, 39.059592], [-106.599788, 38.999346], [-107.393944, 39.256762], [-107.432283, 39.366301], [-107.11462, 39.366301], [-107.04342, 39.366301]]]}}, {"type": "Feature", "properties": {"name": "Venango", "id": "42121", "FIPS": "42121", "FIPS State": 42, "ST": "PA", "County": "Venango County,PA", "State": "Pennsylvania"}, "geometry": {"type": "Polygon", "coordinates": [[[-79.510841, 41.6228], [-79.477979, 41.387292], [-79.697057, 41.173691], [-79.998289, 41.173691], [-79.998289, 41.491354], [-79.614903, 41.6228], [-79.510841, 41.6228]]]}}, {"type": "Feature", "properties": {"name": "Roberts", "id": "46109", "FIPS": "46109", "FIPS State": 46, "ST": "SD", "County": "Roberts County,SD", "State": "South Dakota"}, "geometry": {"type": "Polygon", "coordinates": [[[-96.735818, 45.933153], [-96.560556, 45.933153], [-96.834403, 45.588105], [-96.472925, 45.325212], [-96.681049, 45.325212], [-97.228743, 45.297827], [-97.228743, 45.560721], [-97.228743, 45.933153], [-96.735818, 45.933153]]]}}]}