{"type": "FeatureCollection", "crs": {"type": "name", "properties": {"name": "urn:ogc:def:crs:OGC:1.3:CRS84"}}, "features": [{"type": "Feature", "properties": {"name": "Santa Rosa", "id": "12113", "FIPS": "12113", "FIPS State": 12, "ST": "FL", "County": "Santa Rosa County,FL", "State": "Florida"}, "geometry": {"type": "Polygon", "coordinates": [[[-87.162127, 30.997536], [-86.784218, 30.997536], [-86.800648, 30.384119], [-86.921141, 30.373165], [-87.310004, 30.734643], [-87.162127, 30.997536]]]}}, {"type": "Feature", "properties": {"name": "Lyon", "id": "32019", "FIPS": "32019", "FIPS State": 32, "ST": "NV", "County": "Lyon County,NV", "State": "Nevada"}, "geometry": {"type": "Polygon", "coordinates": [[[-119.196751, 39.623717], [-119.191274, 39.629194], [-118.753119, 39.076023], [-118.764072, 39.076023], [-118.906473, 38.413313], [-119.158412, 38.413313], [-119.328197, 38.533806], [-119.552752, 39.086977], [-119.580137, 39.196516], [-119.711583, 39.251285], [-119.284382, 39.623717], [-119.196751, 39.623717]]]}}, {"type": "Feature", "properties": {"name": "Woodbury", "id": "19193", "FIPS": "19193", "FIPS State": 19, "ST": "IA", "County": "Woodbury County,IA", "State": "Iowa"}, "geometry": {"type": "Polygon", "coordinates": [[[-96.50031, 42.559357], [-95.859508, 42.559357], [-95.739015, 42.559357], [-95.673292, 42.208833], [-96.133355, 42.21431], [-96.357909, 42.21431], [-96.357909, 42.274556], [-96.44554, 42.488157], [-96.50031, 42.559357]]]}}, {"type": "Feature", "properties": {"name": "Shawnee", "id": "20177", "FIPS": "20177", "FIPS State": 20, "ST": "KS", "County": "Shawnee County,KS", "State": "Kansas"}, "geometry": {"type": "Polygon", "coordinates": [[[-95.886893, 39.218424], [-95.591138, 39.218424], [-95.49803, 39.054115], [-95.49803, 38.867899], [-95.667815, 38.867899], [-95.947139, 38.867899], [-96.040247, 39.125316], [-96.03477, 39.218424], [-95.886893, 39.218424]]]}}, {"type": "Feature", "properties": {"name": "Rankin", "id": "28121", "FIPS": "28121", "FIPS State": 28, "ST": "MS", "County": "Rankin County,MS", "State": "Mississippi"}, "geometry": {"type": "Polygon", "coordinates": [[[-90.03752, 32.448925], [-89.785581, 32.585849], [-89.730812, 32.224371], [-89.730812, 32.049109], [-90.190875, 32.049109], [-90.229213, 32.049109], [-90.064905, 32.399633], [-90.03752, 32.448925]]]}}, {"type": "Feature", "properties": {"name": "Marathon", "id": "55073", "FIPS": "55073", "FIPS State": 55, "ST": "WI", "County": "Marathon County,WI", "State": "Wisconsin"}, "geometry": {"type": "Polygon", "coordinates": [[[-90.196352, 45.122565], [-90.042997, 45.122565], [-89.424103, 45.117088], [-89.221456, 45.029457], [-89.221456, 44.678933], [-89.347426, 44.678933], [-89.845827, 44.68441], [-90.207305, 44.68441], [-90.316844, 44.68441], [-90.316844, 45.034934], [-90.196352, 45.122565]]]}}, {"type": "Feature", "properties": {"name": "Berkshire", "id": "25003", "FIPS": "25003", "FIPS State": 25, "ST": "MA", "County": "Berkshire County,MA", "State": "Massachusetts"}, "geometry": {"type": "Polygon", "coordinates": [[[-73.267129, 42.745573], [-73.020667, 42.740096], [-72.976851, 42.55388], [-72.998759, 42.312895], [-73.053528, 42.039048], [-73.486206, 42.050002], [-73.49716, 42.050002], [-73.35476, 42.510065], [-73.267129, 42.745573]]]}}, {"type": "Feature", "properties": {"name": "Washington", "id": "47179", "FIPS": "47179", "FIPS State": 47, "ST": "TN", "County": "Washington County,TN", "State": "Tennessee"}, "geometry": {"type": "Polygon", "coordinates": [[[-82.473866, 36.441615], [-82.298603, 36.397799], [-82.342419, 36.255399], [-82.594358, 36.096568], [-82.632697, 36.419707], [-82.703897, 36.408753], [-82.681989, 36.430661], [-82.473866, 36.441615]]]}}, {"type": "Feature", "properties": {"name": "Saginaw", "id": "26145", "FIPS": "26145", "FIPS State": 26, "ST": "MI", "County": "Saginaw County,MI", "State": "Michigan"}, "geometry": {"type": "Polygon", "coordinates": [[[-84.138855, 43.567114], [-83.7007, 43.479483], [-83.695223, 43.222067], [-83.930732, 43.134436], [-83.941686, 43.134436], [-84.368887, 43.128959], [-84.368887, 43.468529], [-84.16624, 43.567114], [-84.138855, 43.567114]]]}}, {"type": "Feature", "properties": {"name": "Houston", "id": "13153", "FIPS": "13153", "FIPS State": 13, "ST": "GA", "County": "Houston County,GA", "State": "Georgia"}, "geometry": {"type": "Polygon", "coordinates": [[[-83.7007, 32.689911], [-83.7007, 32.689911], [-83.596638, 32.662526], [-83.498053, 32.454402], [-83.498053, 32.399633], [-83.613069, 32.290094], [-83.848578, 32.290094], [-83.848578, 32.465356], [-83.7007, 32.689911]]]}}, {"type": "Feature", "properties": {"name": "Clay", "id": "12019", "FIPS": "12019", "FIPS State": 12, "ST": "FL", "County": "Clay County,FL", "State": "Florida"}, "geometry": {"type": "Polygon", "coordinates": [[[-81.701617, 30.192426], [-81.679709, 30.121226], [-81.581124, 29.841902], [-82.046664, 29.715932], [-82.052141, 30.143133], [-82.052141, 30.186949], [-81.701617, 30.192426]]]}}, {"type": "Feature", "properties": {"name": "Pope", "id": "05115", "FIPS": "05115", "FIPS State": 5, "ST": "AR", "County": "Pope County,AR", "State": "Arkansas"}, "geometry": {"type": "Polygon", "coordinates": [[[-93.016976, 35.724136], [-92.951253, 35.724136], [-92.808852, 35.724136], [-92.852668, 35.461243], [-92.896483, 35.170965], [-93.279869, 35.318842], [-93.2963, 35.329796], [-93.164853, 35.729613], [-93.016976, 35.724136]]]}}, {"type": "Feature", "properties": {"name": "Buncombe", "id": "37021", "FIPS": "37021", "FIPS State": 37, "ST": "NC", "County": "Buncombe County,NC", "State": "North Carolina"}, "geometry": {"type": "Polygon", "coordinates": [[[-82.276696, 35.702228], [-82.167157, 35.526966], [-82.265742, 35.466719], [-82.408142, 35.472196], [-82.747713, 35.422904], [-82.884636, 35.68032], [-82.408142, 35.817244], [-82.276696, 35.702228]]]}}, {"type": "Feature", "properties": {"name": "Ulster", "id": "36111", "FIPS": "36111", "FIPS State": 36, "ST": "NY", "County": "Ulster County,NY", "State": "New York"}, "geometry": {"type": "Polygon", "coordinates": [[[-74.01747, 42.159541], [-73.913408, 42.126679], [-73.929839, 42.077386], [-73.951746, 41.589939], [-74.263932, 41.633754], [-74.367994, 41.589939], [-74.778764, 42.01714], [-74.450148, 42.170494], [-74.01747, 42.159541]]]}}, {"type": "Feature", "properties": {"name": "Kenosha", "id": "55059", "FIPS": "55059", "FIPS State": 55, "ST": "WI", "County": "Kenosha County,WI", "State": "Wisconsin"}, "geometry": {"type": "Polygon", "coordinates": [[[-88.027483, 42.668896], [-87.808406, 42.668896], [-87.802929, 42.493634], [-88.202745, 42.493634], [-88.219176, 42.493634], [-88.306807, 42.493634], [-88.306807, 42.60865], [-88.027483, 42.668896]]]}}, {"type": "Feature", "properties": {"name": "Rock", "id": "55105", "FIPS": "55105", "FIPS State": 55, "ST": "WI", "County": "Rock County,WI", "State": "Wisconsin"}, "geometry": {"type": "Polygon", "coordinates": [[[-89.051671, 42.849635], [-89.013332, 42.849635], [-88.777824, 42.844158], [-88.777824, 42.493634], [-88.942132, 42.493634], [-89.363857, 42.499111], [-89.369334, 42.844158], [-89.051671, 42.849635]]]}}, {"type": "Feature", "properties": {"name": "Hamblen", "id": "47063", "FIPS": "47063", "FIPS State": 47, "ST": "TN", "County": "Hamblen County,TN", "State": "Tennessee"}, "geometry": {"type": "Polygon", "coordinates": [[[-83.158483, 36.332076], [-83.081806, 36.244445], [-83.16396, 36.178722], [-83.23516, 36.085614], [-83.465192, 36.173245], [-83.257068, 36.288261], [-83.158483, 36.332076]]]}}, {"type": "Feature", "properties": {"name": "Randall", "id": "48381", "FIPS": "48381", "FIPS State": 48, "ST": "TX", "County": "Randall County,TX", "State": "Texas"}, "geometry": {"type": "Polygon", "coordinates": [[[-101.988204, 35.181919], [-101.621249, 35.181919], [-101.626726, 34.74924], [-101.999158, 34.74924], [-102.004635, 34.74924], [-102.168943, 34.74924], [-102.168943, 35.181919], [-101.988204, 35.181919]]]}}, {"type": "Feature", "properties": {"name": "Monongalia", "id": "54061", "FIPS": "54061", "FIPS State": 54, "ST": "WV", "County": "Monongalia County,WV", "State": "West Virginia"}, "geometry": {"type": "Polygon", "coordinates": [[[-79.916134, 39.722302], [-79.76278, 39.722302], [-79.894227, 39.437501], [-79.938042, 39.453932], [-80.398105, 39.634671], [-80.420013, 39.722302], [-79.916134, 39.722302]]]}}, {"type": "Feature", "properties": {"name": "Strafford", "id": "33017", "FIPS": "33017", "FIPS State": 33, "ST": "NH", "County": "Strafford County,NH", "State": "New Hampshire"}, "geometry": {"type": "Polygon", "coordinates": [[[-71.109214, 43.506868], [-70.961337, 43.53973], [-70.818936, 43.123482], [-71.246138, 43.276836], [-71.235184, 43.282313], [-71.163984, 43.53973], [-71.109214, 43.506868]]]}}, {"type": "Feature", "properties": {"name": "Chautauqua", "id": "36013", "FIPS": "36013", "FIPS State": 36, "ST": "NY", "County": "Chautauqua County,NY", "State": "New York"}, "geometry": {"type": "Polygon", "coordinates": [[[-79.138409, 42.570311], [-79.061732, 42.537449], [-79.061732, 42.000709], [-79.609426, 42.000709], [-79.76278, 42.252649], [-79.76278, 42.269079], [-79.138409, 42.570311], [-79.138409, 42.570311]]]}}, {"type": "Feature", "properties": {"name": "Baldwin", "id": "01003", "FIPS": "01003", "FIPS State": 1, "ST": "AL", "County": "Baldwin County,AL", "State": "Alabama"}, "geometry": {"type": "Polygon", "coordinates": [[[-87.76459, 31.298768], [-87.616713, 31.243998], [-87.600282, 30.997536], [-87.518128, 30.280057], [-88.005575, 30.685351], [-87.972714, 31.161844], [-87.945329, 31.194706], [-87.76459, 31.298768]]]}}, {"type": "Feature", "properties": {"name": "Racine", "id": "55101", "FIPS": "55101", "FIPS State": 55, "ST": "WI", "County": "Racine County,WI", "State": "Wisconsin"}, "geometry": {"type": "Polygon", "coordinates": [[[-87.956283, 42.844158], [-87.824836, 42.844158], [-87.808406, 42.668896], [-88.027483, 42.668896], [-88.306807, 42.60865], [-88.306807, 42.844158], [-88.071299, 42.844158], [-87.956283, 42.844158]]]}}, {"type": "Feature", "properties": {"name": "Jackson", "id": "41029", "FIPS": "41029", "FIPS State": 41, "ST": "OR", "County": "Jackson County,OR", "State": "Oregon"}, "geometry": {"type": "Polygon", "coordinates": [[[-122.280268, 42.992036], [-122.291222, 42.006186], [-123.233256, 42.006186], [-123.227779, 42.701758], [-122.280268, 42.997512], [-122.280268, 42.992036]]]}}, {"type": "Feature", "properties": {"name": "Natrona", "id": "56025", "FIPS": "56025", "FIPS State": 56, "ST": "WY", "County": "Natrona County,WY", "State": "Wyoming"}, "geometry": {"type": "Polygon", "coordinates": [[[-107.536345, 43.501391], [-107.109143, 43.501391], [-106.079479, 43.495914], [-106.074002, 42.433388], [-107.037943, 42.433388], [-107.525391, 42.433388], [-107.536345, 43.501391]]]}}, {"type": "Feature", "properties": {"name": "Monroe", "id": "12087", "FIPS": "12087", "FIPS State": 12, "ST": "FL", "County": "Monroe County,FL", "State": "Florida"}, "geometry": {"type": "Polygon", "coordinates": [[[-80.874599, 25.805397], [-80.858168, 25.175549], [-81.077246, 25.120779], [-81.345616, 25.805397], [-80.874599, 25.805397]]]}}, {"type": "Feature", "properties": {"name": "Wilkes", "id": "37193", "FIPS": "37193", "FIPS State": 37, "ST": "NC", "County": "Wilkes County,NC", "State": "North Carolina"}, "geometry": {"type": "Polygon", "coordinates": [[[-81.082723, 36.430661], [-80.967707, 36.403276], [-80.874599, 36.238968], [-80.880076, 36.058229], [-81.027953, 36.047275], [-81.329185, 35.997983], [-81.542786, 36.118475], [-81.477062, 36.238968], [-81.252508, 36.364938], [-81.082723, 36.430661]]]}}, {"type": "Feature", "properties": {"name": "Escambia", "id": "12033", "FIPS": "12033", "FIPS State": 12, "ST": "FL", "County": "Escambia County,FL", "State": "Florida"}, "geometry": {"type": "Polygon", "coordinates": [[[-87.249758, 30.997536], [-87.162127, 30.997536], [-87.310004, 30.734643], [-86.921141, 30.373165], [-87.518128, 30.280057], [-87.600282, 30.997536], [-87.249758, 30.997536]]]}}, {"type": "Feature", "properties": {"name": "Washington", "id": "49053", "FIPS": "49053", "FIPS State": 49, "ST": "UT", "County": "Washington County,UT", "State": "Utah"}, "geometry": {"type": "Polygon", "coordinates": [[[-114.053904, 37.602726], [-112.898269, 37.498664], [-112.898269, 37.000263], [-114.048427, 37.000263], [-114.053904, 37.602726]]]}}, {"type": "Feature", "properties": {"name": "Davis", "id": "49011", "FIPS": "49011", "FIPS State": 49, "ST": "UT", "County": "Davis County,UT", "State": "Utah"}, "geometry": {"type": "Polygon", "coordinates": [[[-112.011005, 41.151784], [-111.857651, 41.14083], [-111.737158, 40.861506], [-111.98362, 40.921752], [-112.262944, 40.773875], [-112.492976, 41.075106], [-112.011005, 41.151784]]]}}, {"type": "Feature", "properties": {"name": "Cambria", "id": "42021", "FIPS": "42021", "FIPS State": 42, "ST": "PA", "County": "Cambria County,PA", "State": "Pennsylvania"}, "geometry": {"type": "Polygon", "coordinates": [[[-78.804316, 40.724582], [-78.349729, 40.724582], [-78.6181, 40.324766], [-78.656438, 40.242611], [-79.001485, 40.286427], [-79.056255, 40.286427], [-78.974101, 40.395966], [-78.804316, 40.724582]]]}}, {"type": "Feature", "properties": {"name": "Clayton", "id": "13063", "FIPS": "13063", "FIPS State": 13, "ST": "GA", "County": "Clayton County,GA", "State": "Georgia"}, "geometry": {"type": "Polygon", "coordinates": [[[-84.352456, 33.648375], [-84.281256, 33.648375], [-84.352456, 33.35262], [-84.368887, 33.35262], [-84.385318, 33.35262], [-84.451041, 33.54979], [-84.456518, 33.54979], [-84.352456, 33.648375]]]}}, {"type": "Feature", "properties": {"name": "Riley", "id": "20161", "FIPS": "20161", "FIPS State": 20, "ST": "KS", "County": "Riley County,KS", "State": "Kansas"}, "geometry": {"type": "Polygon", "coordinates": [[[-96.692003, 39.568948], [-96.582464, 39.568948], [-96.390771, 39.174608], [-96.50031, 39.043162], [-96.943942, 39.218424], [-96.960373, 39.218424], [-96.960373, 39.568948], [-96.807019, 39.568948], [-96.692003, 39.568948]]]}}, {"type": "Feature", "properties": {"name": "Lebanon", "id": "42075", "FIPS": "42075", "FIPS State": 42, "ST": "PA", "County": "Lebanon County,PA", "State": "Pennsylvania"}, "geometry": {"type": "Polygon", "coordinates": [[[-76.536862, 40.554797], [-76.438277, 40.494551], [-76.153476, 40.313812], [-76.306831, 40.253565], [-76.564247, 40.198796], [-76.536862, 40.554797]]]}}, {"type": "Feature", "properties": {"name": "Trumbull", "id": "39155", "FIPS": "39155", "FIPS State": 39, "ST": "OH", "County": "Trumbull County,OH", "State": "Ohio"}, "geometry": {"type": "Polygon", "coordinates": [[[-81.000569, 41.502308], [-80.518598, 41.502308], [-80.518598, 41.491354], [-80.518598, 41.135353], [-80.786968, 41.135353], [-81.000569, 41.135353], [-81.000569, 41.348953], [-81.000569, 41.502308]]]}}, {"type": "Feature", "properties": {"name": "Monroe", "id": "42089", "FIPS": "42089", "FIPS State": 42, "ST": "PA", "County": "Monroe County,PA", "State": "Pennsylvania"}, "geometry": {"type": "Polygon", "coordinates": [[[-75.271689, 41.244892], [-74.992365, 41.091537], [-74.96498, 41.097014], [-75.118335, 40.965568], [-75.474336, 40.812213], [-75.649598, 41.124399], [-75.600305, 41.162737], [-75.507197, 41.233938], [-75.35932, 41.239415], [-75.271689, 41.244892]]]}}, {"type": "Feature", "properties": {"name": "Craven", "id": "37049", "FIPS": "37049", "FIPS State": 37, "ST": "NC", "County": "Craven County,NC", "State": "North Carolina"}, "geometry": {"type": "Polygon", "coordinates": [[[-77.188618, 35.417427], [-76.89834, 35.253119], [-76.712124, 34.979272], [-77.090033, 34.80401], [-77.473419, 35.231211], [-77.391265, 35.34075], [-77.188618, 35.417427]]]}}, {"type": "Feature", "properties": {"name": "Woodford", "id": "17203", "FIPS": "17203", "FIPS State": 17, "ST": "IL", "County": "Woodford County,IL", "State": "Illinois"}, "geometry": {"type": "Polygon", "coordinates": [[[-89.111917, 40.927229], [-89.046194, 40.927229], [-88.931178, 40.927229], [-88.931178, 40.751967], [-89.270749, 40.593136], [-89.50078, 40.74649], [-89.555549, 40.74649], [-89.473395, 40.921752], [-89.111917, 40.927229]]]}}, {"type": "Feature", "properties": {"name": "Butte", "id": "06007", "FIPS": "06007", "FIPS State": 6, "ST": "CA", "County": "Butte County,CA", "State": "California"}, "geometry": {"type": "Polygon", "coordinates": [[[-121.584697, 40.100211], [-121.436819, 40.149503], [-121.075341, 39.596333], [-121.623035, 39.295101], [-121.907836, 39.306055], [-121.891405, 39.382732], [-122.04476, 39.798979], [-121.584697, 40.100211]]]}}, {"type": "Feature", "properties": {"name": "Hunterdon", "id": "34019", "FIPS": "34019", "FIPS State": 34, "ST": "NJ", "County": "Hunterdon County,NJ", "State": "New Jersey"}, "geometry": {"type": "Polygon", "coordinates": [[[-74.888303, 40.790306], [-74.723995, 40.719105], [-74.745903, 40.423351], [-74.800672, 40.417874], [-74.943073, 40.341196], [-75.189535, 40.593136], [-74.888303, 40.790306]]]}}, {"type": "Feature", "properties": {"name": "Montgomery", "id": "47125", "FIPS": "47125", "FIPS State": 47, "ST": "TN", "County": "Montgomery County,TN", "State": "Tennessee"}, "geometry": {"type": "Polygon", "coordinates": [[[-87.112834, 36.644262], [-87.118311, 36.458046], [-87.288096, 36.321122], [-87.512651, 36.332076], [-87.594805, 36.364938], [-87.63862, 36.638785], [-87.337389, 36.644262], [-87.112834, 36.644262]]]}}, {"type": "Feature", "properties": {"name": "Washington", "id": "05143", "FIPS": "05143", "FIPS State": 5, "ST": "AR", "County": "Washington County,AR", "State": "Arkansas"}, "geometry": {"type": "Polygon", "coordinates": [[[-94.013779, 36.206106], [-93.887809, 36.233491], [-93.964486, 35.762474], [-94.490273, 35.756997], [-94.550519, 36.102045], [-94.013779, 36.206106]]]}}, {"type": "Feature", "properties": {"name": "Imperial", "id": "06025", "FIPS": "06025", "FIPS State": 6, "ST": "CA", "County": "Imperial County,CA", "State": "California"}, "geometry": {"type": "Polygon", "coordinates": [[[-114.733044, 33.434775], [-114.628982, 33.434775], [-114.513967, 33.029481], [-114.72209, 32.717295], [-116.107756, 32.61871], [-116.085849, 33.423821], [-114.733044, 33.434775]]]}}, {"type": "Feature", "properties": {"name": "Miami", "id": "39109", "FIPS": "39109", "FIPS State": 39, "ST": "OH", "County": "Miami County,OH", "State": "Ohio"}, "geometry": {"type": "Polygon", "coordinates": [[[-84.22101, 40.198796], [-84.02384, 40.182365], [-84.034794, 40.039965], [-84.051224, 39.881133], [-84.155286, 39.924949], [-84.423656, 39.919472], [-84.43461, 40.198796], [-84.22101, 40.198796]]]}}, {"type": "Feature", "properties": {"name": "Hendricks", "id": "18063", "FIPS": "18063", "FIPS State": 18, "ST": "IN", "County": "Hendricks County,IN", "State": "Indiana"}, "geometry": {"type": "Polygon", "coordinates": [[[-86.433693, 39.924949], [-86.324155, 39.924949], [-86.324155, 39.629194], [-86.658248, 39.601809], [-86.696587, 39.864703], [-86.696587, 39.924949], [-86.433693, 39.924949]]]}}, {"type": "Feature", "properties": {"name": "Union", "id": "42119", "FIPS": "42119", "FIPS State": 42, "ST": "PA", "County": "Union County,PA", "State": "Pennsylvania"}, "geometry": {"type": "Polygon", "coordinates": [[[-77.144803, 41.069629], [-76.89834, 41.14083], [-76.799755, 40.883413], [-76.854525, 40.88889], [-77.358403, 40.806736], [-77.36388, 40.845075], [-77.144803, 41.042245], [-77.144803, 41.069629]]]}}, {"type": "Feature", "properties": {"name": "Gaston", "id": "37071", "FIPS": "37071", "FIPS State": 37, "ST": "NC", "County": "Gaston County,NC", "State": "North Carolina"}, "geometry": {"type": "Polygon", "coordinates": [[[-81.455155, 35.417427], [-80.956753, 35.400996], [-81.044384, 35.149057], [-81.329185, 35.165488], [-81.455155, 35.417427]]]}}, {"type": "Feature", "properties": {"name": "Tulare", "id": "06107", "FIPS": "06107", "FIPS State": 6, "ST": "CA", "County": "Tulare County,CA", "State": "California"}, "geometry": {"type": "Polygon", "coordinates": [[[-118.358779, 36.742847], [-118.008255, 35.789859], [-119.536321, 35.789859], [-119.57466, 36.490907], [-118.98315, 36.742847], [-118.358779, 36.742847]]]}}, {"type": "Feature", "properties": {"name": "Mahoning", "id": "39099", "FIPS": "39099", "FIPS State": 39, "ST": "OH", "County": "Mahoning County,OH", "State": "Ohio"}, "geometry": {"type": "Polygon", "coordinates": [[[-80.786968, 41.135353], [-80.518598, 41.135353], [-80.518598, 41.124399], [-80.518598, 40.899844], [-80.858168, 40.927229], [-81.0882, 40.905321], [-81.0882, 40.987475], [-81.000569, 41.135353], [-80.786968, 41.135353]]]}}, {"type": "Feature", "properties": {"name": "Washington", "id": "42125", "FIPS": "42125", "FIPS State": 42, "ST": "PA", "County": "Washington County,PA", "State": "Pennsylvania"}, "geometry": {"type": "Polygon", "coordinates": [[[-80.398105, 40.47812], [-80.359767, 40.47812], [-79.872319, 40.198796], [-79.877796, 40.127596], [-79.998289, 39.985195], [-80.064012, 40.007103], [-80.518598, 39.963288], [-80.518598, 40.018057], [-80.518598, 40.160457], [-80.518598, 40.401443], [-80.518598, 40.47812], [-80.398105, 40.47812]]]}}, {"type": "Feature", "properties": {"name": "Anderson", "id": "45007", "FIPS": "45007", "FIPS State": 45, "ST": "SC", "County": "Anderson County,SC", "State": "South Carolina"}, "geometry": {"type": "Polygon", "coordinates": [[[-82.490296, 34.820441], [-82.484819, 34.820441], [-82.315034, 34.486347], [-82.325988, 34.475393], [-82.742236, 34.207023], [-82.775097, 34.289177], [-82.994175, 34.48087], [-82.857251, 34.60684], [-82.846298, 34.617794], [-82.840821, 34.623271], [-82.490296, 34.820441]]]}}, {"type": "Feature", "properties": {"name": "Licking", "id": "39089", "FIPS": "39089", "FIPS State": 39, "ST": "OH", "County": "Licking County,OH", "State": "Ohio"}, "geometry": {"type": "Polygon", "coordinates": [[[-82.75319, 40.275473], [-82.194542, 40.237135], [-82.189065, 40.165934], [-82.23288, 39.913995], [-82.462912, 39.930426], [-82.780574, 39.94138], [-82.764143, 40.127596], [-82.75319, 40.275473]]]}}, {"type": "Feature", "properties": {"name": "Clackamas", "id": "41005", "FIPS": "41005", "FIPS State": 41, "ST": "OR", "County": "Clackamas County,OR", "State": "Oregon"}, "geometry": {"type": "Polygon", "coordinates": [[[-122.356945, 45.462136], [-121.820205, 45.462136], [-121.694236, 45.259489], [-121.732574, 44.887057], [-122.395284, 44.887057], [-122.84987, 45.259489], [-122.866301, 45.319735], [-122.745808, 45.434751], [-122.356945, 45.462136]]]}}, {"type": "Feature", "properties": {"name": "Jefferson", "id": "29099", "FIPS": "29099", "FIPS State": 29, "ST": "MO", "County": "Jefferson County,MO", "State": "Missouri"}, "geometry": {"type": "Polygon", "coordinates": [[[-90.464722, 38.500944], [-90.344229, 38.385929], [-90.251121, 38.128512], [-90.415429, 38.040881], [-90.639984, 38.07922], [-90.782384, 38.20519], [-90.738569, 38.47356], [-90.464722, 38.500944]]]}}, {"type": "Feature", "properties": {"name": "Jefferson", "id": "48245", "FIPS": "48245", "FIPS State": 48, "ST": "TX", "County": "Jefferson County,TX", "State": "Texas"}, "geometry": {"type": "Polygon", "coordinates": [[[-94.216426, 30.175995], [-94.117841, 30.159564], [-93.854948, 29.863809], [-93.838517, 29.688547], [-94.353349, 29.562578], [-94.44098, 29.891194], [-94.446457, 30.110272], [-94.216426, 30.175995]]]}}, {"type": "Feature", "properties": {"name": "Yolo", "id": "06113", "FIPS": "06113", "FIPS State": 6, "ST": "CA", "County": "Yolo County,CA", "State": "California"}, "geometry": {"type": "Polygon", "coordinates": [[[-122.061191, 38.928146], [-121.836636, 38.922669], [-121.601128, 38.736453], [-121.590174, 38.314728], [-121.738051, 38.539283], [-122.105006, 38.511898], [-122.395284, 38.862422], [-122.340515, 38.922669], [-122.061191, 38.928146]]]}}, {"type": "Feature", "properties": {"name": "Hernando", "id": "12053", "FIPS": "12053", "FIPS State": 12, "ST": "FL", "County": "Hernando County,FL", "State": "Florida"}, "geometry": {"type": "Polygon", "coordinates": [[[-82.265742, 28.669836], [-82.057618, 28.478144], [-82.254788, 28.478144], [-82.676512, 28.434328], [-82.649128, 28.691744], [-82.265742, 28.669836]]]}}, {"type": "Feature", "properties": {"name": "Orange", "id": "37135", "FIPS": "37135", "FIPS State": 37, "ST": "NC", "County": "Orange County,NC", "State": "North Carolina"}, "geometry": {"type": "Polygon", "coordinates": [[[-79.247948, 36.244445], [-79.15484, 36.244445], [-78.952193, 36.238968], [-79.017916, 35.861059], [-79.187701, 35.872013], [-79.247948, 35.87749], [-79.258902, 36.244445], [-79.247948, 36.244445]]]}}, {"type": "Feature", "properties": {"name": "York", "id": "23031", "FIPS": "23031", "FIPS State": 23, "ST": "ME", "County": "York County,ME", "State": "Maine"}, "geometry": {"type": "Polygon", "coordinates": [[[-70.780598, 43.813577], [-70.353397, 43.534253], [-70.703921, 43.057759], [-70.818936, 43.123482], [-70.961337, 43.53973], [-70.988722, 43.791669], [-70.780598, 43.813577]]]}}, {"type": "Feature", "properties": {"name": "Lafayette", "id": "22055", "FIPS": "22055", "FIPS State": 22, "ST": "LA", "County": "Lafayette County,LA", "State": "Louisiana"}, "geometry": {"type": "Polygon", "coordinates": [[[-92.053034, 30.378642], [-91.987311, 30.367688], [-91.948972, 30.071933], [-91.965403, 30.033595], [-92.250204, 30.143133], [-92.283066, 30.14861], [-92.140665, 30.296488], [-92.053034, 30.378642]]]}}, {"type": "Feature", "properties": {"name": "Monroe", "id": "18105", "FIPS": "18105", "FIPS State": 18, "ST": "IN", "County": "Monroe County,IN", "State": "Indiana"}, "geometry": {"type": "Polygon", "coordinates": [[[-86.630863, 39.34987], [-86.378924, 39.338916], [-86.318678, 39.048638], [-86.318678, 38.988392], [-86.680156, 38.993869], [-86.685633, 39.163654], [-86.630863, 39.34987]]]}}, {"type": "Feature", "properties": {"name": "Wood", "id": "55141", "FIPS": "55141", "FIPS State": 55, "ST": "WI", "County": "Wood County,WI", "State": "Wisconsin"}, "geometry": {"type": "Polygon", "coordinates": [[[-90.207305, 44.68441], [-89.845827, 44.68441], [-89.725335, 44.246255], [-89.818443, 44.251732], [-89.900597, 44.251732], [-90.081336, 44.246255], [-90.311367, 44.246255], [-90.316844, 44.426994], [-90.316844, 44.68441], [-90.207305, 44.68441]]]}}, {"type": "Feature", "properties": {"name": "Galveston", "id": "48167", "FIPS": "48167", "FIPS State": 48, "ST": "TX", "County": "Galveston County,TX", "State": "Texas"}, "geometry": {"type": "MultiPolygon", "coordinates": [[[[-94.36978, 29.595439], [-94.36978, 29.557101], [-94.512181, 29.54067], [-94.36978, 29.595439]]], [[[-95.202275, 29.562578], [-95.016059, 29.557101], [-95.120121, 29.07513], [-95.218706, 29.557101], [-95.202275, 29.562578]]]]}}, {"type": "Feature", "properties": {"name": "Kitsap", "id": "53035", "FIPS": "53035", "FIPS State": 53, "ST": "WA", "County": "Kitsap County,WA", "State": "Washington"}, "geometry": {"type": "Polygon", "coordinates": [[[-122.482915, 47.510511], [-122.537684, 47.400973], [-122.800578, 47.406449], [-122.948455, 47.603619], [-122.751285, 47.740543], [-122.482915, 47.510511]]]}}, {"type": "Feature", "properties": {"name": "Spotsylvania", "id": "51177", "FIPS": "51177", "FIPS State": 51, "ST": "VA", "County": "Spotsylvania County,VA", "State": "Virginia"}, "geometry": {"type": "Polygon", "coordinates": [[[-77.621296, 38.369498], [-77.528188, 38.309252], [-77.446034, 38.281867], [-77.369357, 38.249005], [-77.643204, 37.991589], [-77.68702, 38.00802], [-77.95539, 38.117559], [-77.703451, 38.358544], [-77.621296, 38.369498]]]}}, {"type": "Feature", "properties": {"name": "Centre", "id": "42027", "FIPS": "42027", "FIPS State": 42, "ST": "PA", "County": "Centre County,PA", "State": "Pennsylvania"}, "geometry": {"type": "Polygon", "coordinates": [[[-77.708927, 41.113445], [-77.144803, 41.042245], [-77.36388, 40.845075], [-77.681543, 40.730059], [-78.114221, 40.741013], [-78.360683, 40.735536], [-78.037544, 41.151784], [-77.708927, 41.113445]]]}}, {"type": "Feature", "properties": {"name": "Richland", "id": "39139", "FIPS": "39139", "FIPS State": 39, "ST": "OH", "County": "Richland County,OH", "State": "Ohio"}, "geometry": {"type": "Polygon", "coordinates": [[[-82.687466, 40.992952], [-82.435527, 40.992952], [-82.336942, 40.554797], [-82.621743, 40.54932], [-82.725805, 40.713628], [-82.725805, 40.998429], [-82.687466, 40.992952]]]}}, {"type": "Feature", "properties": {"name": "San Luis Obispo", "id": "06079", "FIPS": "06079", "FIPS State": 6, "ST": "CA", "County": "San Luis Obispo County,CA", "State": "California"}, "geometry": {"type": "Polygon", "coordinates": [[[-121.343711, 35.795336], [-120.215462, 35.789859], [-120.193554, 35.789859], [-119.470598, 34.902595], [-120.094969, 35.116195], [-120.64814, 34.973795], [-121.343711, 35.795336]]]}}, {"type": "Feature", "properties": {"name": "Minnehaha", "id": "46099", "FIPS": "46099", "FIPS State": 46, "ST": "SD", "County": "Minnehaha County,SD", "State": "South Dakota"}, "geometry": {"type": "Polygon", "coordinates": [[[-96.489356, 43.846438], [-96.451017, 43.851915], [-96.451017, 43.501391], [-96.598895, 43.501391], [-96.779634, 43.501391], [-96.922034, 43.501391], [-97.130158, 43.501391], [-97.130158, 43.846438], [-96.889173, 43.846438], [-96.489356, 43.846438]]]}}, {"type": "Feature", "properties": {"name": "Shasta", "id": "06089", "FIPS": "06089", "FIPS State": 6, "ST": "CA", "County": "Shasta County,CA", "State": "California"}, "geometry": {"type": "Polygon", "coordinates": [[[-121.447773, 41.184645], [-121.332757, 41.184645], [-121.327281, 40.445258], [-121.497066, 40.445258], [-123.063471, 40.286427], [-122.691039, 40.576705], [-122.499346, 41.184645], [-121.447773, 41.184645]]]}}, {"type": "Feature", "properties": {"name": "Douglas", "id": "13097", "FIPS": "13097", "FIPS State": 13, "ST": "GA", "County": "Douglas County,GA", "State": "Georgia"}, "geometry": {"type": "Polygon", "coordinates": [[[-84.724888, 33.807207], [-84.577011, 33.741483], [-84.807042, 33.571698], [-84.90015, 33.779822], [-84.724888, 33.807207]]]}}, {"type": "Feature", "properties": {"name": "Wood", "id": "39173", "FIPS": "39173", "FIPS State": 39, "ST": "OH", "County": "Wood County,OH", "State": "Ohio"}, "geometry": {"type": "Polygon", "coordinates": [[[-83.415899, 41.617324], [-83.415899, 41.502308], [-83.421376, 41.255845], [-83.421376, 41.168214], [-83.881439, 41.168214], [-83.881439, 41.414677], [-83.415899, 41.617324]]]}}, {"type": "Feature", "properties": {"name": "Lexington", "id": "45063", "FIPS": "45063", "FIPS State": 45, "ST": "SC", "County": "Lexington County,SC", "State": "South Carolina"}, "geometry": {"type": "Polygon", "coordinates": [[[-81.340139, 34.196069], [-81.011523, 33.878407], [-81.044384, 33.796253], [-81.044384, 33.708622], [-81.186785, 33.653852], [-81.57017, 33.878407], [-81.471585, 34.075577], [-81.340139, 34.196069]]]}}, {"type": "Feature", "properties": {"name": "Hampshire", "id": "25015", "FIPS": "25015", "FIPS State": 25, "ST": "MA", "County": "Hampshire County,MA", "State": "Massachusetts"}, "geometry": {"type": "Polygon", "coordinates": [[[-72.976851, 42.55388], [-72.314141, 42.345757], [-72.221033, 42.247172], [-72.998759, 42.312895], [-72.998759, 42.312895], [-72.976851, 42.55388]]]}}, {"type": "Feature", "properties": {"name": "Schenectady", "id": "36093", "FIPS": "36093", "FIPS State": 36, "ST": "NY", "County": "Schenectady County,NY", "State": "New York"}, "geometry": {"type": "Polygon", "coordinates": [[[-74.094147, 42.953697], [-73.809346, 42.778435], [-74.181778, 42.729142], [-74.263932, 42.794866], [-74.094147, 42.953697]]]}}, {"type": "Feature", "properties": {"name": "Brazoria", "id": "48039", "FIPS": "48039", "FIPS State": 48, "ST": "TX", "County": "Brazoria County,TX", "State": "Texas"}, "geometry": {"type": "Polygon", "coordinates": [[[-95.295383, 29.595439], [-95.218706, 29.557101], [-95.120121, 29.07513], [-95.508984, 28.823191], [-95.864985, 29.223007], [-95.875939, 29.228484], [-95.848554, 29.261346], [-95.42683, 29.579009], [-95.295383, 29.595439]]]}}, {"type": "Feature", "properties": {"name": "Wicomico", "id": "24045", "FIPS": "24045", "FIPS State": 24, "ST": "MD", "County": "Wicomico County,MD", "State": "Maryland"}, "geometry": {"type": "Polygon", "coordinates": [[[-75.813906, 38.489991], [-75.69889, 38.561191], [-75.342889, 38.451652], [-75.611259, 38.27639], [-75.62769, 38.281867], [-75.863199, 38.238051], [-75.923445, 38.265436], [-75.813906, 38.489991]]]}}, {"type": "Feature", "properties": {"name": "Charleston", "id": "45019", "FIPS": "45019", "FIPS State": 45, "ST": "SC", "County": "Charleston County,SC", "State": "South Carolina"}, "geometry": {"type": "Polygon", "coordinates": [[[-79.49441, 33.188312], [-79.445118, 33.215697], [-79.291763, 33.111635], [-80.250228, 32.531079], [-80.403582, 32.859696], [-80.151643, 33.024004], [-79.927088, 32.821357], [-79.49441, 33.188312]]]}}, {"type": "Feature", "properties": {"name": "Broome", "id": "36007", "FIPS": "36007", "FIPS State": 36, "ST": "NY", "County": "Broome County,NY", "State": "New York"}, "geometry": {"type": "Polygon", "coordinates": [[[-75.863199, 42.416957], [-75.419566, 42.192402], [-75.35932, 42.000709], [-75.479813, 42.000709], [-75.48529, 42.000709], [-75.890583, 42.000709], [-76.104184, 42.000709], [-76.131569, 42.41148], [-75.863199, 42.416957]]]}}, {"type": "Feature", "properties": {"name": "Scott", "id": "19163", "FIPS": "19163", "FIPS State": 19, "ST": "IA", "County": "Scott County,IA", "State": "Iowa"}, "geometry": {"type": "Polygon", "coordinates": [[[-90.798815, 41.770678], [-90.316844, 41.726862], [-90.787861, 41.453015], [-90.8974, 41.595416], [-90.8974, 41.770678], [-90.798815, 41.770678]]]}}, {"type": "Feature", "properties": {"name": "Scott", "id": "27139", "FIPS": "27139", "FIPS State": 27, "ST": "MN", "County": "Scott County,MN", "State": "Minnesota"}, "geometry": {"type": "Polygon", "coordinates": [[[-93.433223, 44.81038], [-93.329161, 44.788472], [-93.279869, 44.54201], [-93.301777, 44.54201], [-93.526331, 44.54201], [-93.701593, 44.54201], [-93.909717, 44.54201], [-93.767317, 44.640595], [-93.520854, 44.804903], [-93.433223, 44.81038]]]}}, {"type": "Feature", "properties": {"name": "Niagara", "id": "36063", "FIPS": "36063", "FIPS State": 36, "ST": "NY", "County": "Niagara County,NY", "State": "New York"}, "geometry": {"type": "Polygon", "coordinates": [[[-78.464745, 43.369944], [-78.464745, 43.128959], [-78.464745, 43.09062], [-78.552376, 43.096097], [-79.023393, 43.068713], [-78.464745, 43.369944]]]}}, {"type": "Feature", "properties": {"name": "Fayette", "id": "21067", "FIPS": "21067", "FIPS State": 21, "ST": "KY", "County": "Fayette County,KY", "State": "Kentucky"}, "geometry": {"type": "Polygon", "coordinates": [[[-84.401749, 38.20519], [-84.286733, 38.068266], [-84.336025, 37.893004], [-84.43461, 37.849189], [-84.659165, 38.002543], [-84.626303, 38.117559], [-84.401749, 38.20519]]]}}, {"type": "Feature", "properties": {"name": "El Dorado", "id": "06017", "FIPS": "06017", "FIPS State": 6, "ST": "CA", "County": "El Dorado County,CA", "State": "California"}, "geometry": {"type": "Polygon", "coordinates": [[[-120.001861, 39.065069], [-119.903276, 38.933623], [-120.073061, 38.703591], [-121.026049, 38.506421], [-121.141065, 38.714545], [-121.04248, 38.917192], [-120.001861, 39.065069]]]}}, {"type": "Feature", "properties": {"name": "Anoka", "id": "27003", "FIPS": "27003", "FIPS State": 27, "ST": "MN", "County": "Anoka County,MN", "State": "Minnesota"}, "geometry": {"type": "Polygon", "coordinates": [[[-93.159376, 45.412843], [-93.016976, 45.412843], [-93.016976, 45.297827], [-93.022453, 45.122565], [-93.230576, 45.122565], [-93.2251, 45.034934], [-93.5099, 45.243058], [-93.5099, 45.412843], [-93.159376, 45.412843]]]}}, {"type": "Feature", "properties": {"name": "Henrico", "id": "51087", "FIPS": "51087", "FIPS State": 51, "ST": "VA", "County": "Henrico County,VA", "State": "Virginia"}, "geometry": {"type": "Polygon", "coordinates": [[[-77.63225, 37.706788], [-77.226957, 37.537003], [-77.177664, 37.493187], [-77.248864, 37.383649], [-77.41865, 37.449372], [-77.473419, 37.597249], [-77.593912, 37.553434], [-77.654158, 37.564388], [-77.63225, 37.706788]]]}}, {"type": "Feature", "properties": {"name": "Delaware", "id": "39041", "FIPS": "39041", "FIPS State": 39, "ST": "OH", "County": "Delaware County,OH", "State": "Ohio"}, "geometry": {"type": "Polygon", "coordinates": [[[-83.246114, 40.445258], [-83.02156, 40.434304], [-82.742236, 40.346673], [-82.75319, 40.275473], [-82.764143, 40.127596], [-83.03799, 40.13855], [-83.169437, 40.144027], [-83.246114, 40.445258]]]}}, {"type": "Feature", "properties": {"name": "Wayne", "id": "47181", "FIPS": "47181", "FIPS State": 47, "ST": "TN", "County": "Wayne County,TN", "State": "Tennessee"}, "geometry": {"type": "Polygon", "coordinates": [[[-87.956283, 35.461243], [-87.715298, 35.48315], [-87.572897, 35.400996], [-87.605759, 35.00118], [-87.983668, 35.006656], [-88.022006, 35.390042], [-88.005575, 35.422904], [-87.956283, 35.461243]]]}}, {"type": "Feature", "properties": {"name": "Clay", "id": "29047", "FIPS": "29047", "FIPS State": 29, "ST": "MO", "County": "Clay County,MO", "State": "Missouri"}, "geometry": {"type": "Polygon", "coordinates": [[[-94.56695, 39.453932], [-94.210949, 39.453932], [-94.210949, 39.20747], [-94.419073, 39.147223], [-94.605288, 39.114362], [-94.599812, 39.158177], [-94.599812, 39.453932], [-94.56695, 39.453932]]]}}, {"type": "Feature", "properties": {"name": "Monterey", "id": "06053", "FIPS": "06053", "FIPS State": 6, "ST": "CA", "County": "Monterey County,CA", "State": "California"}, "geometry": {"type": "Polygon", "coordinates": [[[-121.699712, 36.918109], [-121.644943, 36.896201], [-121.31085, 36.501861], [-120.681002, 36.266353], [-120.314047, 35.904875], [-120.215462, 35.789859], [-121.343711, 35.795336], [-121.896882, 36.315645], [-121.809251, 36.852385], [-121.699712, 36.918109]]]}}, {"type": "Feature", "properties": {"name": "Brazos", "id": "48041", "FIPS": "48041", "FIPS State": 48, "ST": "TX", "County": "Brazos County,TX", "State": "Texas"}, "geometry": {"type": "Polygon", "coordinates": [[[-96.237417, 30.964674], [-96.166217, 30.822274], [-96.155263, 30.329349], [-96.297663, 30.378642], [-96.566033, 30.696304], [-96.242894, 30.975628], [-96.237417, 30.964674]]]}}, {"type": "Feature", "properties": {"name": "Pitt", "id": "37147", "FIPS": "37147", "FIPS State": 37, "ST": "NC", "County": "Pitt County,NC", "State": "North Carolina"}, "geometry": {"type": "Polygon", "coordinates": [[[-77.413173, 35.822721], [-77.352926, 35.817244], [-77.172187, 35.73509], [-77.188618, 35.417427], [-77.391265, 35.34075], [-77.446034, 35.379088], [-77.473419, 35.428381], [-77.681543, 35.636505], [-77.697974, 35.652935], [-77.659635, 35.674843], [-77.413173, 35.822721]]]}}, {"type": "Feature", "properties": {"name": "Rensselaer", "id": "36083", "FIPS": "36083", "FIPS State": 36, "ST": "NY", "County": "Rensselaer County,NY", "State": "New York"}, "geometry": {"type": "Polygon", "coordinates": [[[-73.387622, 42.94822], [-73.272606, 42.942743], [-73.267129, 42.745573], [-73.35476, 42.510065], [-73.398575, 42.504588], [-73.781961, 42.466249], [-73.677899, 42.783912], [-73.634084, 42.942743], [-73.387622, 42.94822]]]}}, {"type": "Feature", "properties": {"name": "Hidalgo", "id": "48215", "FIPS": "48215", "FIPS State": 48, "ST": "TX", "County": "Hidalgo County,TX", "State": "Texas"}, "geometry": {"type": "Polygon", "coordinates": [[[-98.318654, 26.785769], [-97.984561, 26.780292], [-97.957176, 26.610507], [-97.864068, 26.347614], [-97.864068, 26.051859], [-98.587024, 26.254506], [-98.318654, 26.785769]]]}}, {"type": "Feature", "properties": {"name": "Bell", "id": "48027", "FIPS": "48027", "FIPS State": 48, "ST": "TX", "County": "Bell County,TX", "State": "Texas"}, "geometry": {"type": "Polygon", "coordinates": [[[-97.404005, 31.304245], [-97.278035, 31.282337], [-97.069912, 30.986582], [-97.316374, 30.751074], [-97.831206, 30.904428], [-97.91336, 31.035875], [-97.907884, 31.068736], [-97.420436, 31.320676], [-97.404005, 31.304245]]]}}, {"type": "Feature", "properties": {"name": "Cass", "id": "38017", "FIPS": "38017", "FIPS State": 38, "ST": "ND", "County": "Cass County,ND", "State": "North Dakota"}, "geometry": {"type": "Polygon", "coordinates": [[[-97.453297, 47.236664], [-96.834403, 47.236664], [-96.828926, 47.149033], [-96.790588, 46.628724], [-97.278035, 46.628724], [-97.683329, 46.628724], [-97.705237, 47.242141], [-97.453297, 47.236664]]]}}, {"type": "Feature", "properties": {"name": "Montgomery", "id": "01101", "FIPS": "01101", "FIPS State": 1, "ST": "AL", "County": "Montgomery County,AL", "State": "Alabama"}, "geometry": {"type": "Polygon", "coordinates": [[[-86.307724, 32.416064], [-86.022923, 32.421541], [-85.918861, 32.273663], [-85.995538, 32.049109], [-86.192708, 31.966955], [-86.302247, 31.988862], [-86.406309, 32.049109], [-86.499417, 32.344863], [-86.411786, 32.410587], [-86.307724, 32.416064]]]}}, {"type": "Feature", "properties": {"name": "Brown", "id": "55009", "FIPS": "55009", "FIPS State": 55, "ST": "WI", "County": "Brown County,WI", "State": "Wisconsin"}, "geometry": {"type": "Polygon", "coordinates": [[[-88.235607, 44.678933], [-87.989145, 44.678933], [-87.76459, 44.646072], [-87.76459, 44.328409], [-87.885083, 44.328409], [-88.043914, 44.240778], [-88.191791, 44.240778], [-88.246561, 44.585825], [-88.241084, 44.678933], [-88.235607, 44.678933]]]}}, {"type": "Feature", "properties": {"name": "Wakulla", "id": "12129", "FIPS": "12129", "FIPS State": 12, "ST": "FL", "County": "Wakulla County,FL", "State": "Florida"}, "geometry": {"type": "Polygon", "coordinates": [[[-84.303164, 30.301965], [-84.073132, 30.27458], [-84.078609, 30.093841], [-84.341502, 29.962394], [-84.544149, 30.011687], [-84.713934, 30.301965], [-84.303164, 30.301965]]]}}, {"type": "Feature", "properties": {"name": "Kanawha", "id": "54039", "FIPS": "54039", "FIPS State": 54, "ST": "WV", "County": "Kanawha County,WV", "State": "West Virginia"}, "geometry": {"type": "Polygon", "coordinates": [[[-81.69614, 38.626914], [-81.69614, 38.626914], [-81.520878, 38.610483], [-81.192262, 38.528329], [-81.2306, 38.265436], [-81.2306, 38.265436], [-81.378478, 37.969681], [-81.455155, 37.986112], [-81.756386, 38.20519], [-81.833064, 38.210667], [-81.915218, 38.325682], [-81.69614, 38.626914]]]}}, {"type": "Feature", "properties": {"name": "Chatham", "id": "13051", "FIPS": "13051", "FIPS State": 13, "ST": "GA", "County": "Chatham County,GA", "State": "Georgia"}, "geometry": {"type": "Polygon", "coordinates": [[[-81.1594, 32.229848], [-81.148446, 32.224371], [-80.885553, 32.032678], [-81.153923, 31.725969], [-81.389431, 32.098401], [-81.1594, 32.229848]]]}}, {"type": "Feature", "properties": {"name": "Lehigh", "id": "42077", "FIPS": "42077", "FIPS State": 42, "ST": "PA", "County": "Lehigh County,PA", "State": "Pennsylvania"}, "geometry": {"type": "Polygon", "coordinates": [[[-75.611259, 40.784829], [-75.331935, 40.538366], [-75.48529, 40.417874], [-75.490767, 40.423351], [-75.529105, 40.445258], [-75.890583, 40.67529], [-75.759137, 40.735536], [-75.611259, 40.784829]]]}}, {"type": "Feature", "properties": {"name": "Durham", "id": "37063", "FIPS": "37063", "FIPS State": 37, "ST": "NC", "County": "Durham County,NC", "State": "North Carolina"}, "geometry": {"type": "Polygon", "coordinates": [[[-78.952193, 36.238968], [-78.804316, 36.233491], [-78.749546, 36.069183], [-78.908377, 35.866536], [-79.017916, 35.861059], [-78.952193, 36.238968]]]}}, {"type": "Feature", "properties": {"name": "Columbia", "id": "36021", "FIPS": "36021", "FIPS State": 36, "ST": "NY", "County": "Columbia County,NY", "State": "New York"}, "geometry": {"type": "Polygon", "coordinates": [[[-73.398575, 42.504588], [-73.35476, 42.510065], [-73.49716, 42.050002], [-73.929839, 42.077386], [-73.913408, 42.126679], [-73.781961, 42.466249], [-73.398575, 42.504588]]]}}, {"type": "Feature", "properties": {"name": "Muscogee", "id": "13215", "FIPS": "13215", "FIPS State": 13, "ST": "GA", "County": "Muscogee County,GA", "State": "Georgia"}, "geometry": {"type": "Polygon", "coordinates": [[[-85.02612, 32.607757], [-84.692026, 32.585849], [-84.692026, 32.520126], [-84.982304, 32.372248], [-84.998735, 32.509172], [-85.080889, 32.607757], [-85.02612, 32.607757]]]}}, {"type": "Feature", "properties": {"name": "Washoe", "id": "32031", "FIPS": "32031", "FIPS State": 32, "ST": "NV", "County": "Washoe County,NV", "State": "Nevada"}, "geometry": {"type": "Polygon", "coordinates": [[[-119.361059, 41.995232], [-119.32272, 41.995232], [-119.311766, 40.960091], [-119.224135, 40.001626], [-119.191274, 39.629194], [-119.196751, 39.623717], [-119.284382, 39.623717], [-119.689675, 39.519655], [-119.711583, 39.251285], [-120.001861, 39.163654], [-120.007338, 39.317009], [-120.001861, 39.442978], [-120.001861, 39.722302], [-120.001861, 41.184645], [-120.001861, 41.995232], [-119.361059, 41.995232]]]}}, {"type": "Feature", "properties": {"name": "Indian River", "id": "12061", "FIPS": "12061", "FIPS State": 12, "ST": "FL", "County": "Indian River County,FL", "State": "Florida"}, "geometry": {"type": "Polygon", "coordinates": [[[-80.321428, 27.558018], [-80.677429, 27.558018], [-80.792445, 27.645649], [-80.874599, 27.640172], [-80.869122, 27.820911], [-80.447398, 27.859249], [-80.321428, 27.558018]]]}}, {"type": "Feature", "properties": {"name": "Coconino", "id": "04005", "FIPS": "04005", "FIPS State": 4, "ST": "AZ", "County": "Coconino County,AZ", "State": "Arizona"}, "geometry": {"type": "Polygon", "coordinates": [[[-110.751309, 37.00574], [-110.751309, 34.261793], [-111.556419, 34.469916], [-111.775497, 34.979272], [-112.334144, 34.973795], [-112.438206, 35.258596], [-113.336425, 35.526966], [-113.352855, 36.047275], [-112.629899, 36.392322], [-112.542268, 37.000263], [-111.414018, 37.000263], [-110.751309, 37.00574]]]}}, {"type": "Feature", "properties": {"name": "Kenton", "id": "21117", "FIPS": "21117", "FIPS State": 21, "ST": "KY", "County": "Kenton County,KY", "State": "Kentucky"}, "geometry": {"type": "Polygon", "coordinates": [[[-84.50581, 39.092454], [-84.418179, 38.807653], [-84.533195, 38.791222], [-84.615349, 38.802176], [-84.620826, 39.076023], [-84.50581, 39.092454]]]}}, {"type": "Feature", "properties": {"name": "Tippecanoe", "id": "18157", "FIPS": "18157", "FIPS State": 18, "ST": "IN", "County": "Tippecanoe County,IN", "State": "Indiana"}, "geometry": {"type": "Polygon", "coordinates": [[[-87.096403, 40.560274], [-86.773264, 40.560274], [-86.696587, 40.434304], [-86.696587, 40.215227], [-86.921141, 40.215227], [-87.090926, 40.215227], [-87.090926, 40.368581], [-87.096403, 40.47812], [-87.096403, 40.560274]]]}}, {"type": "Feature", "properties": {"name": "Warren", "id": "21227", "FIPS": "21227", "FIPS State": 21, "ST": "KY", "County": "Warren County,KY", "State": "Kentucky"}, "geometry": {"type": "Polygon", "coordinates": [[[-86.400832, 37.170048], [-86.116031, 37.060509], [-86.165323, 36.934539], [-86.22557, 36.912632], [-86.406309, 36.775708], [-86.608956, 36.885247], [-86.674679, 37.000263], [-86.400832, 37.170048]]]}}, {"type": "Feature", "properties": {"name": "Yuma", "id": "04027", "FIPS": "04027", "FIPS State": 4, "ST": "AZ", "County": "Yuma County,AZ", "State": "Arizona"}, "geometry": {"type": "Polygon", "coordinates": [[[-113.993657, 33.462159], [-113.336425, 33.380005], [-113.336425, 32.503695], [-113.336425, 32.038155], [-114.815198, 32.492741], [-114.72209, 32.717295], [-114.513967, 33.029481], [-113.993657, 33.462159]]]}}, {"type": "Feature", "properties": {"name": "Cumberland", "id": "37051", "FIPS": "37051", "FIPS State": 37, "ST": "NC", "County": "Cumberland County,NC", "State": "North Carolina"}, "geometry": {"type": "Polygon", "coordinates": [[[-78.952193, 35.21478], [-78.6181, 35.247642], [-78.49213, 34.858779], [-78.9029, 34.836871], [-79.034347, 34.951887], [-79.10007, 35.176442], [-79.094593, 35.192872], [-78.952193, 35.21478]]]}}, {"type": "Feature", "properties": {"name": "Warren", "id": "39165", "FIPS": "39165", "FIPS State": 39, "ST": "OH", "County": "Warren County,OH", "State": "Ohio"}, "geometry": {"type": "Polygon", "coordinates": [[[-84.36341, 39.590856], [-84.111471, 39.579902], [-83.974547, 39.568948], [-84.007409, 39.256762], [-84.259348, 39.273193], [-84.352456, 39.289624], [-84.36341, 39.590856]]]}}, {"type": "Feature", "properties": {"name": "Hinds", "id": "28049", "FIPS": "28049", "FIPS State": 28, "ST": "MS", "County": "Hinds County,MS", "State": "Mississippi"}, "geometry": {"type": "Polygon", "coordinates": [[[-90.486629, 32.542033], [-90.448291, 32.574895], [-90.064905, 32.399633], [-90.229213, 32.049109], [-90.716661, 32.049109], [-90.727615, 32.224371], [-90.552353, 32.509172], [-90.486629, 32.542033]]]}}, {"type": "Feature", "properties": {"name": "Blair", "id": "42013", "FIPS": "42013", "FIPS State": 42, "ST": "PA", "County": "Blair County,PA", "State": "Pennsylvania"}, "geometry": {"type": "Polygon", "coordinates": [[[-78.360683, 40.735536], [-78.114221, 40.741013], [-78.256622, 40.297381], [-78.6181, 40.324766], [-78.349729, 40.724582], [-78.360683, 40.735536]]]}}, {"type": "Feature", "properties": {"name": "Madison", "id": "17119", "FIPS": "17119", "FIPS State": 17, "ST": "IL", "County": "Madison County,IL", "State": "Illinois"}, "geometry": {"type": "Polygon", "coordinates": [[[-90.240167, 38.999346], [-90.147059, 38.999346], [-89.69795, 38.999346], [-89.637704, 38.999346], [-89.599365, 38.74193], [-89.708904, 38.654299], [-90.179921, 38.659776], [-90.168967, 38.774791], [-90.119674, 38.807653], [-90.278506, 38.922669], [-90.240167, 38.999346]]]}}, {"type": "Feature", "properties": {"name": "Carroll", "id": "24013", "FIPS": "24013", "FIPS State": 24, "ST": "MD", "County": "Carroll County,MD", "State": "Maryland"}, "geometry": {"type": "Polygon", "coordinates": [[[-76.788801, 39.722302], [-76.881909, 39.34987], [-77.079079, 39.366301], [-77.16671, 39.355347], [-77.216003, 39.722302], [-76.996925, 39.722302], [-76.788801, 39.722302]]]}}, {"type": "Feature", "properties": {"name": "Warren", "id": "34041", "FIPS": "34041", "FIPS State": 34, "ST": "NJ", "County": "Warren County,NJ", "State": "New Jersey"}, "geometry": {"type": "Polygon", "coordinates": [[[-74.96498, 41.091537], [-74.76781, 40.910798], [-74.888303, 40.790306], [-75.189535, 40.593136], [-75.195012, 40.609566], [-75.118335, 40.965568], [-74.96498, 41.097014], [-74.96498, 41.091537]]]}}, {"type": "Feature", "properties": {"name": "Cochise", "id": "04003", "FIPS": "04003", "FIPS State": 4, "ST": "AZ", "County": "Cochise County,AZ", "State": "Arizona"}, "geometry": {"type": "Polygon", "coordinates": [[[-109.831183, 32.427018], [-109.113704, 32.427018], [-109.04798, 32.427018], [-109.04798, 31.331629], [-110.461031, 31.331629], [-110.450077, 31.731446], [-110.450077, 32.427018], [-109.831183, 32.427018]]]}}]}