{"type": "FeatureCollection", "crs": {"type": "name", "properties": {"name": "urn:ogc:def:crs:OGC:1.3:CRS84"}}, "features": [{"type": "Feature", "properties": {"name": "Alamosa", "id": "08003", "FIPS": "08003", "FIPS State": 8, "ST": "CO", "County": "Alamosa County,CO", "State": "Colorado"}, "geometry": {"type": "Polygon", "coordinates": [[[-105.707047, 37.750604], [-105.455107, 37.750604], [-105.487969, 37.575342], [-105.745385, 37.356264], [-106.04114, 37.400079], [-106.04114, 37.750604], [-105.707047, 37.750604]]]}}, {"type": "Feature", "properties": {"name": "Snyder", "id": "42109", "FIPS": "42109", "FIPS State": 42, "ST": "PA", "County": "Snyder County,PA", "State": "Pennsylvania"}, "geometry": {"type": "Polygon", "coordinates": [[[-76.854525, 40.88889], [-76.799755, 40.883413], [-76.936679, 40.636951], [-77.133849, 40.686244], [-77.287203, 40.691721], [-77.358403, 40.806736], [-76.854525, 40.88889]]]}}, {"type": "Feature", "properties": {"name": "Allamakee", "id": "19005", "FIPS": "19005", "FIPS State": 19, "ST": "IA", "County": "Allamakee County,IA", "State": "Iowa"}, "geometry": {"type": "Polygon", "coordinates": [[[-91.368417, 43.501391], [-91.215062, 43.501391], [-91.204109, 43.424714], [-91.176724, 43.079667], [-91.565587, 43.079667], [-91.603925, 43.079667], [-91.609402, 43.501391], [-91.368417, 43.501391]]]}}, {"type": "Feature", "properties": {"name": "Brewster", "id": "48043", "FIPS": "48043", "FIPS State": 48, "ST": "TX", "County": "Brewster County,TX", "State": "Texas"}, "geometry": {"type": "Polygon", "coordinates": [[[-103.346485, 30.603196], [-102.56876, 30.050025], [-102.322297, 29.88024], [-102.678299, 29.73784], [-102.919284, 29.190146], [-103.280762, 28.982022], [-103.790117, 29.261346], [-103.801071, 30.411504], [-103.439593, 30.663443], [-103.346485, 30.603196]]]}}, {"type": "Feature", "properties": {"name": "Douglas", "id": "27041", "FIPS": "27041", "FIPS State": 27, "ST": "MN", "County": "Douglas County,MN", "State": "Minnesota"}, "geometry": {"type": "Polygon", "coordinates": [[[-95.393968, 46.108415], [-95.147506, 46.108415], [-95.142029, 45.774321], [-95.142029, 45.75789], [-95.42683, 45.75789], [-95.760923, 45.75789], [-95.771877, 46.108415], [-95.393968, 46.108415]]]}}, {"type": "Feature", "properties": {"name": "Brown", "id": "48049", "FIPS": "48049", "FIPS State": 48, "ST": "TX", "County": "Brown County,TX", "State": "Texas"}, "geometry": {"type": "Polygon", "coordinates": [[[-99.118287, 32.08197], [-98.926594, 32.076493], [-98.669178, 31.698584], [-98.992318, 31.484984], [-99.090903, 31.463076], [-99.200441, 31.468553], [-99.194965, 32.08197], [-99.118287, 32.08197]]]}}, {"type": "Feature", "properties": {"name": "Ochiltree", "id": "48357", "FIPS": "48357", "FIPS State": 48, "ST": "TX", "County": "Ochiltree County,TX", "State": "Texas"}, "geometry": {"type": "Polygon", "coordinates": [[[-100.805185, 36.501861], [-100.547769, 36.501861], [-100.547769, 36.058229], [-100.947585, 36.058229], [-101.084509, 36.058229], [-101.084509, 36.501861], [-100.953062, 36.501861], [-100.805185, 36.501861]]]}}, {"type": "Feature", "properties": {"name": "Marion", "id": "47115", "FIPS": "47115", "FIPS State": 47, "ST": "TN", "County": "Marion County,TN", "State": "Tennessee"}, "geometry": {"type": "Polygon", "coordinates": [[[-85.601199, 35.307888], [-85.557383, 35.318842], [-85.387598, 35.149057], [-85.475229, 34.984749], [-85.606675, 34.984749], [-85.864092, 34.990226], [-85.875046, 35.225734], [-85.601199, 35.307888]]]}}, {"type": "Feature", "properties": {"name": "Burleson", "id": "48051", "FIPS": "48051", "FIPS State": 48, "ST": "TX", "County": "Burleson County,TX", "State": "Texas"}, "geometry": {"type": "Polygon", "coordinates": [[[-96.620803, 30.729166], [-96.566033, 30.696304], [-96.297663, 30.378642], [-96.64271, 30.296488], [-96.96585, 30.559381], [-96.620803, 30.729166]]]}}, {"type": "Feature", "properties": {"name": "Cottonwood", "id": "27033", "FIPS": "27033", "FIPS State": 27, "ST": "MN", "County": "Cottonwood County,MN", "State": "Minnesota"}, "geometry": {"type": "Polygon", "coordinates": [[[-95.459691, 44.196962], [-95.109167, 44.196962], [-94.857228, 44.109331], [-94.857228, 43.846438], [-95.114644, 43.846438], [-95.454214, 43.846438], [-95.465168, 43.846438], [-95.459691, 44.196962]]]}}, {"type": "Feature", "properties": {"name": "Chester", "id": "45023", "FIPS": "45023", "FIPS State": 45, "ST": "SC", "County": "Chester County,SC", "State": "South Carolina"}, "geometry": {"type": "Polygon", "coordinates": [[[-81.28537, 34.820441], [-80.896507, 34.820441], [-80.880076, 34.541117], [-81.416816, 34.573978], [-81.422293, 34.573978], [-81.477062, 34.820441], [-81.28537, 34.820441]]]}}, {"type": "Feature", "properties": {"name": "Montour", "id": "42093", "FIPS": "42093", "FIPS State": 42, "ST": "PA", "County": "Montour County,PA", "State": "Pennsylvania"}, "geometry": {"type": "Polygon", "coordinates": [[[-76.734032, 41.173691], [-76.640924, 41.157261], [-76.525908, 40.883413], [-76.734032, 41.173691]]]}}, {"type": "Feature", "properties": {"name": "Barren", "id": "21009", "FIPS": "21009", "FIPS State": 21, "ST": "KY", "County": "Barren County,KY", "State": "Kentucky"}, "geometry": {"type": "Polygon", "coordinates": [[[-85.743599, 37.170048], [-85.738122, 36.841432], [-85.979107, 36.720939], [-86.165323, 36.934539], [-86.116031, 37.060509], [-86.055785, 37.164571], [-85.743599, 37.170048]]]}}, {"type": "Feature", "properties": {"name": "Wayne", "id": "42127", "FIPS": "42127", "FIPS State": 42, "ST": "PA", "County": "Wayne County,PA", "State": "Pennsylvania"}, "geometry": {"type": "Polygon", "coordinates": [[[-75.479813, 42.000709], [-75.35932, 42.000709], [-75.145719, 41.852832], [-75.069042, 41.600893], [-75.35932, 41.239415], [-75.507197, 41.233938], [-75.463382, 41.639231], [-75.48529, 42.000709], [-75.479813, 42.000709]]]}}, {"type": "Feature", "properties": {"name": "Giles", "id": "47055", "FIPS": "47055", "FIPS State": 47, "ST": "TN", "County": "Giles County,TN", "State": "Tennessee"}, "geometry": {"type": "Polygon", "coordinates": [[[-87.129265, 35.455766], [-86.95948, 35.417427], [-86.828033, 35.264073], [-86.838987, 34.990226], [-87.211419, 35.00118], [-87.222373, 35.00118], [-87.205942, 35.433858], [-87.129265, 35.455766]]]}}, {"type": "Feature", "properties": {"name": "Chisago", "id": "27025", "FIPS": "27025", "FIPS State": 27, "ST": "MN", "County": "Chisago County,MN", "State": "Minnesota"}, "geometry": {"type": "Polygon", "coordinates": [[[-93.066268, 45.730506], [-92.841714, 45.730506], [-92.885529, 45.642875], [-92.743129, 45.297827], [-93.016976, 45.297827], [-93.016976, 45.412843], [-93.142945, 45.730506], [-93.066268, 45.730506]]]}}, {"type": "Feature", "properties": {"name": "Dallas", "id": "19049", "FIPS": "19049", "FIPS State": 19, "ST": "IA", "County": "Dallas County,IA", "State": "Iowa"}, "geometry": {"type": "Polygon", "coordinates": [[[-93.816609, 41.863786], [-93.789224, 41.513262], [-93.822086, 41.507785], [-94.24381, 41.502308], [-94.282149, 41.863786], [-94.161656, 41.863786], [-93.816609, 41.863786]]]}}, {"type": "Feature", "properties": {"name": "Fairfield", "id": "45039", "FIPS": "45039", "FIPS State": 45, "ST": "SC", "County": "Fairfield County,SC", "State": "South Carolina"}, "geometry": {"type": "Polygon", "coordinates": [[[-81.416816, 34.573978], [-80.880076, 34.541117], [-80.880076, 34.458962], [-80.825307, 34.26727], [-80.863645, 34.261793], [-81.318231, 34.239885], [-81.422293, 34.491824], [-81.422293, 34.573978], [-81.416816, 34.573978]]]}}, {"type": "Feature", "properties": {"name": "Freeborn", "id": "27047", "FIPS": "27047", "FIPS State": 27, "ST": "MN", "County": "Freeborn County,MN", "State": "Minnesota"}, "geometry": {"type": "Polygon", "coordinates": [[[-93.164853, 43.846438], [-93.049837, 43.846438], [-93.049837, 43.501391], [-93.498947, 43.501391], [-93.646824, 43.501391], [-93.646824, 43.846438], [-93.405839, 43.846438], [-93.164853, 43.846438]]]}}, {"type": "Feature", "properties": {"name": "Hopkins", "id": "21107", "FIPS": "21107", "FIPS State": 21, "ST": "KY", "County": "Hopkins County,KY", "State": "Kentucky"}, "geometry": {"type": "Polygon", "coordinates": [[[-87.375727, 37.569865], [-87.293573, 37.389126], [-87.331912, 37.159094], [-87.682436, 37.14814], [-87.813882, 37.350787], [-87.375727, 37.569865]]]}}, {"type": "Feature", "properties": {"name": "Codington", "id": "46029", "FIPS": "46029", "FIPS State": 46, "ST": "SD", "County": "Codington County,SD", "State": "South Dakota"}, "geometry": {"type": "Polygon", "coordinates": [[[-97.23422, 45.14995], [-97.228743, 45.14995], [-96.883696, 44.974688], [-96.883696, 44.804903], [-97.491636, 44.804903], [-97.491636, 45.14995], [-97.23422, 45.14995]]]}}, {"type": "Feature", "properties": {"name": "Overton", "id": "47133", "FIPS": "47133", "FIPS State": 47, "ST": "TN", "County": "Overton County,TN", "State": "Tennessee"}, "geometry": {"type": "Polygon", "coordinates": [[[-85.283536, 36.534723], [-85.119228, 36.408753], [-85.119228, 36.14586], [-85.497137, 36.304691], [-85.497137, 36.403276], [-85.283536, 36.529246], [-85.283536, 36.534723]]]}}, {"type": "Feature", "properties": {"name": "Tehama", "id": "06103", "FIPS": "06103", "FIPS State": 6, "ST": "CA", "County": "Tehama County,CA", "State": "California"}, "geometry": {"type": "Polygon", "coordinates": [[[-121.497066, 40.445258], [-121.436819, 40.149503], [-121.584697, 40.100211], [-122.04476, 39.798979], [-122.937501, 39.798979], [-122.932024, 39.979718], [-123.063471, 40.286427], [-121.497066, 40.445258]]]}}, {"type": "Feature", "properties": {"name": "Carroll", "id": "19027", "FIPS": "19027", "FIPS State": 19, "ST": "IA", "County": "Carroll County,IA", "State": "Iowa"}, "geometry": {"type": "Polygon", "coordinates": [[[-95.092736, 42.208833], [-94.857228, 42.208833], [-94.627196, 42.208833], [-94.627196, 41.863786], [-94.742212, 41.863786], [-95.092736, 41.863786], [-95.092736, 42.208833]]]}}, {"type": "Feature", "properties": {"name": "Dale", "id": "01045", "FIPS": "01045", "FIPS State": 1, "ST": "AL", "County": "Dale County,AL", "State": "Alabama"}, "geometry": {"type": "Polygon", "coordinates": [[[-85.694307, 31.61643], [-85.414983, 31.621907], [-85.414983, 31.315199], [-85.710737, 31.194706], [-85.792891, 31.194706], [-85.787415, 31.61643], [-85.749076, 31.61643], [-85.694307, 31.61643]]]}}, {"type": "Feature", "properties": {"name": "Prowers", "id": "08099", "FIPS": "08099", "FIPS State": 8, "ST": "CO", "County": "Prowers County,CO", "State": "Colorado"}, "geometry": {"type": "Polygon", "coordinates": [[[-102.212759, 38.265436], [-102.042974, 38.270913], [-102.042974, 38.259959], [-102.042974, 37.73965], [-102.042974, 37.646542], [-102.749499, 37.641065], [-102.744022, 38.265436], [-102.212759, 38.265436]]]}}, {"type": "Feature", "properties": {"name": "Dubois", "id": "18037", "FIPS": "18037", "FIPS State": 18, "ST": "IN", "County": "Dubois County,IN", "State": "Indiana"}, "geometry": {"type": "Polygon", "coordinates": [[[-86.680156, 38.528329], [-86.680156, 38.396883], [-86.680156, 38.265436], [-86.789695, 38.20519], [-86.866372, 38.20519], [-87.019726, 38.20519], [-87.074495, 38.232574], [-87.074495, 38.517375], [-86.926618, 38.506421], [-86.680156, 38.528329]]]}}, {"type": "Feature", "properties": {"name": "Bowie", "id": "48037", "FIPS": "48037", "FIPS State": 48, "ST": "TX", "County": "Bowie County,TX", "State": "Texas"}, "geometry": {"type": "Polygon", "coordinates": [[[-94.736735, 33.703145], [-94.484796, 33.637421], [-94.041164, 33.54979], [-94.041164, 33.270466], [-94.194518, 33.297851], [-94.654581, 33.270466], [-94.747689, 33.330713], [-94.736735, 33.703145]]]}}, {"type": "Feature", "properties": {"name": "Crawford", "id": "18025", "FIPS": "18025", "FIPS State": 18, "ST": "IN", "County": "Crawford County,IN", "State": "Indiana"}, "geometry": {"type": "Polygon", "coordinates": [[[-86.307724, 38.424267], [-86.252954, 38.424267], [-86.307724, 38.166851], [-86.461078, 38.117559], [-86.570617, 38.265436], [-86.680156, 38.265436], [-86.680156, 38.396883], [-86.307724, 38.424267]]]}}, {"type": "Feature", "properties": {"name": "Floyd", "id": "21071", "FIPS": "21071", "FIPS State": 21, "ST": "KY", "County": "Floyd County,KY", "State": "Kentucky"}, "geometry": {"type": "Polygon", "coordinates": [[[-82.786051, 37.745127], [-82.638174, 37.717742], [-82.561497, 37.68488], [-82.709374, 37.285064], [-82.922975, 37.48771], [-82.939406, 37.717742], [-82.786051, 37.745127]]]}}, {"type": "Feature", "properties": {"name": "Grant", "id": "21081", "FIPS": "21081", "FIPS State": 21, "ST": "KY", "County": "Grant County,KY", "State": "Kentucky"}, "geometry": {"type": "Polygon", "coordinates": [[[-84.615349, 38.802176], [-84.533195, 38.791222], [-84.478426, 38.54476], [-84.555103, 38.495467], [-84.582488, 38.47356], [-84.785134, 38.720022], [-84.659165, 38.774791], [-84.615349, 38.802176]]]}}, {"type": "Feature", "properties": {"name": "Aransas", "id": "48007", "FIPS": "48007", "FIPS State": 48, "ST": "TX", "County": "Aransas County,TX", "State": "Texas"}, "geometry": {"type": "MultiPolygon", "coordinates": [[[[-96.801542, 28.275497], [-96.812495, 28.21525], [-97.135635, 27.903065], [-97.261605, 28.078327], [-96.790588, 28.319312], [-96.801542, 28.275497]]], [[[-96.828926, 28.111189], [-96.856311, 28.061896], [-97.048004, 27.837342], [-97.053481, 27.842818], [-96.828926, 28.111189]]]]}}, {"type": "Feature", "properties": {"name": "Runnels", "id": "48399", "FIPS": "48399", "FIPS State": 48, "ST": "TX", "County": "Runnels County,TX", "State": "Texas"}, "geometry": {"type": "Polygon", "coordinates": [[[-100.054844, 32.08197], [-99.715274, 32.08197], [-99.720751, 31.578092], [-99.726228, 31.578092], [-100.109614, 31.578092], [-100.235583, 31.693108], [-100.235583, 32.08197], [-100.153429, 32.08197], [-100.054844, 32.08197]]]}}, {"type": "Feature", "properties": {"name": "Franklin", "id": "47051", "FIPS": "47051", "FIPS State": 47, "ST": "TN", "County": "Franklin County,TN", "State": "Tennessee"}, "geometry": {"type": "Polygon", "coordinates": [[[-86.214616, 35.346227], [-85.913384, 35.291457], [-85.875046, 35.225734], [-85.864092, 34.990226], [-86.313201, 34.990226], [-86.318678, 34.990226], [-86.318678, 35.127149], [-86.263908, 35.335273], [-86.214616, 35.346227]]]}}, {"type": "Feature", "properties": {"name": "Carter", "id": "21043", "FIPS": "21043", "FIPS State": 21, "ST": "KY", "County": "Carter County,KY", "State": "Kentucky"}, "geometry": {"type": "Polygon", "coordinates": [[[-83.16396, 38.506421], [-82.818913, 38.374975], [-82.791528, 38.243528], [-82.922975, 38.177805], [-83.246114, 38.194236], [-83.339222, 38.320205], [-83.16396, 38.506421]]]}}, {"type": "Feature", "properties": {"name": "Perry", "id": "29157", "FIPS": "29157", "FIPS State": 29, "ST": "MO", "County": "Perry County,MO", "State": "Missouri"}, "geometry": {"type": "Polygon", "coordinates": [[[-89.938935, 37.876573], [-89.676042, 37.805373], [-89.522688, 37.569865], [-89.522688, 37.564388], [-89.796535, 37.602726], [-89.862258, 37.597249], [-90.147059, 37.597249], [-90.147059, 37.641065], [-90.10872, 37.673926], [-89.938935, 37.876573]]]}}, {"type": "Feature", "properties": {"name": "Lawrence", "id": "18093", "FIPS": "18093", "FIPS State": 18, "ST": "IN", "County": "Lawrence County,IN", "State": "Indiana"}, "geometry": {"type": "Polygon", "coordinates": [[[-86.680156, 38.993869], [-86.318678, 38.988392], [-86.274862, 38.763838], [-86.307724, 38.68716], [-86.685633, 38.68716], [-86.680156, 38.906238], [-86.680156, 38.993869]]]}}, {"type": "Feature", "properties": {"name": "Tattnall", "id": "13267", "FIPS": "13267", "FIPS State": 13, "ST": "GA", "County": "Tattnall County,GA", "State": "Georgia"}, "geometry": {"type": "Polygon", "coordinates": [[[-82.23288, 32.317479], [-82.024756, 32.27914], [-81.761863, 32.049109], [-81.82211, 32.016247], [-81.969987, 31.791692], [-82.046664, 31.824554], [-82.227403, 31.912185], [-82.23288, 32.317479]]]}}, {"type": "Feature", "properties": {"name": "Newton", "id": "29145", "FIPS": "29145", "FIPS State": 29, "ST": "MO", "County": "Newton County,MO", "State": "Missouri"}, "geometry": {"type": "Polygon", "coordinates": [[[-94.616242, 37.055032], [-94.616242, 37.055032], [-94.057594, 37.049555], [-94.063071, 36.929063], [-94.068548, 36.748324], [-94.539565, 36.764754], [-94.616242, 36.764754], [-94.616242, 37.000263], [-94.616242, 37.055032]]]}}, {"type": "Feature", "properties": {"name": "Terrebonne", "id": "22109", "FIPS": "22109", "FIPS State": 22, "ST": "LA", "County": "Terrebonne County,LA", "State": "Louisiana"}, "geometry": {"type": "Polygon", "coordinates": [[[-90.815246, 29.776178], [-90.409952, 29.195623], [-90.837154, 29.036791], [-91.275309, 29.474947], [-91.083616, 29.628301], [-91.006939, 29.715932], [-90.815246, 29.776178]]]}}, {"type": "Feature", "properties": {"name": "Rutherford", "id": "37161", "FIPS": "37161", "FIPS State": 37, "ST": "NC", "County": "Rutherford County,NC", "State": "North Carolina"}, "geometry": {"type": "Polygon", "coordinates": [[[-81.82211, 35.576258], [-81.690663, 35.581735], [-81.76734, 35.181919], [-81.876879, 35.181919], [-81.969987, 35.187396], [-82.09048, 35.357181], [-82.260265, 35.395519], [-82.265742, 35.466719], [-82.167157, 35.526966], [-81.82211, 35.576258]]]}}, {"type": "Feature", "properties": {"name": "Jerome", "id": "16053", "FIPS": "16053", "FIPS State": 16, "ST": "ID", "County": "Jerome County,ID", "State": "Idaho"}, "geometry": {"type": "Polygon", "coordinates": [[[-114.596121, 42.849635], [-113.933411, 42.767481], [-113.933411, 42.537449], [-113.999134, 42.526496], [-114.618029, 42.646988], [-114.596121, 42.849635]]]}}, {"type": "Feature", "properties": {"name": "Silver Bow", "id": "30093", "FIPS": "30093", "FIPS State": 30, "ST": "MT", "County": "Silver Bow County,MT", "State": "Montana"}, "geometry": {"type": "Polygon", "coordinates": [[[-112.57513, 46.179615], [-112.191744, 45.746937], [-112.684669, 45.626444], [-113.084485, 45.861952], [-112.57513, 46.179615]]]}}, {"type": "Feature", "properties": {"name": "Pulaski", "id": "29169", "FIPS": "29169", "FIPS State": 29, "ST": "MO", "County": "Pulaski County,MO", "State": "Missouri"}, "geometry": {"type": "Polygon", "coordinates": [[[-92.359743, 38.018974], [-92.184481, 38.018974], [-92.020173, 38.00802], [-92.031127, 37.602726], [-92.250204, 37.602726], [-92.409035, 37.860142], [-92.403558, 38.018974], [-92.359743, 38.018974]]]}}, {"type": "Feature", "properties": {"name": "Washington", "id": "22117", "FIPS": "22117", "FIPS State": 22, "ST": "LA", "County": "Washington County,LA", "State": "Louisiana"}, "geometry": {"type": "Polygon", "coordinates": [[[-89.834873, 31.003013], [-89.730812, 31.003013], [-89.84035, 30.663443], [-90.256598, 30.712735], [-90.349706, 31.003013], [-90.262075, 31.003013], [-89.834873, 31.003013]]]}}, {"type": "Feature", "properties": {"name": "Crawford", "id": "39033", "FIPS": "39033", "FIPS State": 39, "ST": "OH", "County": "Crawford County,OH", "State": "Ohio"}, "geometry": {"type": "Polygon", "coordinates": [[[-82.725805, 40.998429], [-82.725805, 40.713628], [-82.857251, 40.713628], [-82.857251, 40.702674], [-82.977744, 40.702674], [-83.109191, 40.702674], [-83.114668, 40.992952], [-82.829867, 40.998429], [-82.725805, 40.998429]]]}}, {"type": "Feature", "properties": {"name": "Candler", "id": "13043", "FIPS": "13043", "FIPS State": 13, "ST": "GA", "County": "Candler County,GA", "State": "Georgia"}, "geometry": {"type": "Polygon", "coordinates": [[[-82.030233, 32.536556], [-81.969987, 32.268186], [-82.024756, 32.27914], [-82.23288, 32.317479], [-82.030233, 32.536556]]]}}, {"type": "Feature", "properties": {"name": "Ravalli", "id": "30081", "FIPS": "30081", "FIPS State": 30, "ST": "MT", "County": "Ravalli County,MT", "State": "Montana"}, "geometry": {"type": "Polygon", "coordinates": [[[-113.851257, 46.661586], [-113.829349, 46.661586], [-113.801964, 46.037214], [-113.517164, 45.938629], [-113.517164, 45.938629], [-113.944365, 45.68669], [-114.557782, 45.566198], [-114.333228, 46.661586], [-113.851257, 46.661586]]]}}, {"type": "Feature", "properties": {"name": "Appanoose", "id": "19007", "FIPS": "19007", "FIPS State": 19, "ST": "IA", "County": "Appanoose County,IA", "State": "Iowa"}, "geometry": {"type": "Polygon", "coordinates": [[[-92.639067, 40.899844], [-92.639067, 40.593136], [-92.715744, 40.587659], [-92.748606, 40.587659], [-93.09913, 40.582182], [-93.09913, 40.899844], [-92.639067, 40.899844]]]}}, {"type": "Feature", "properties": {"name": "Caldwell", "id": "21033", "FIPS": "21033", "FIPS State": 21, "ST": "KY", "County": "Caldwell County,KY", "State": "Kentucky"}, "geometry": {"type": "Polygon", "coordinates": [[[-87.802929, 37.378172], [-87.813882, 37.350787], [-87.682436, 37.14814], [-87.731728, 37.000263], [-87.879606, 36.961924], [-88.098683, 37.181002], [-87.802929, 37.378172]]]}}, {"type": "Feature", "properties": {"name": "Belmont", "id": "39013", "FIPS": "39013", "FIPS State": 39, "ST": "OH", "County": "Belmont County,OH", "State": "Ohio"}, "geometry": {"type": "Polygon", "coordinates": [[[-81.219646, 40.171411], [-80.885553, 40.160457], [-80.704814, 40.15498], [-80.732199, 40.034488], [-80.81983, 39.848272], [-81.236077, 39.87018], [-81.236077, 39.952334], [-81.225123, 40.171411], [-81.219646, 40.171411]]]}}, {"type": "Feature", "properties": {"name": "Fayette", "id": "18041", "FIPS": "18041", "FIPS State": 18, "ST": "IN", "County": "Fayette County,IN", "State": "Indiana"}, "geometry": {"type": "Polygon", "coordinates": [[[-85.22329, 39.788025], [-85.037074, 39.716825], [-85.037074, 39.525132], [-85.23972, 39.525132], [-85.299967, 39.525132], [-85.299967, 39.788025], [-85.22329, 39.788025]]]}}, {"type": "Feature", "properties": {"name": "King George", "id": "51099", "FIPS": "51099", "FIPS State": 51, "ST": "VA", "County": "King George County,VA", "State": "Virginia"}, "geometry": {"type": "Polygon", "coordinates": [[[-76.996925, 38.27639], [-77.062649, 38.161374], [-77.117418, 38.15042], [-77.325542, 38.243528], [-77.287203, 38.34759], [-76.996925, 38.27639]]]}}, {"type": "Feature", "properties": {"name": "Mesa", "id": "08077", "FIPS": "08077", "FIPS State": 8, "ST": "CO", "County": "Mesa County,CO", "State": "Colorado"}, "geometry": {"type": "Polygon", "coordinates": [[[-108.774133, 39.366301], [-107.432283, 39.366301], [-107.393944, 39.256762], [-107.503483, 39.218424], [-107.514437, 39.212947], [-108.379794, 38.67073], [-109.058934, 38.500944], [-109.053457, 39.366301], [-108.774133, 39.366301]]]}}, {"type": "Feature", "properties": {"name": "Pierce", "id": "55093", "FIPS": "55093", "FIPS State": 55, "ST": "WI", "County": "Pierce County,WI", "State": "Wisconsin"}, "geometry": {"type": "Polygon", "coordinates": [[[-92.600728, 44.865149], [-92.135188, 44.859672], [-92.135188, 44.68441], [-92.315927, 44.54201], [-92.732175, 44.711795], [-92.803375, 44.744656], [-92.770513, 44.859672], [-92.600728, 44.865149]]]}}, {"type": "Feature", "properties": {"name": "Gladwin", "id": "26051", "FIPS": "26051", "FIPS State": 26, "ST": "MI", "County": "Gladwin County,MI", "State": "Michigan"}, "geometry": {"type": "Polygon", "coordinates": [[[-84.248394, 44.164101], [-84.16624, 44.164101], [-84.16624, 43.994316], [-84.16624, 43.82453], [-84.368887, 43.830007], [-84.604395, 43.813577], [-84.609872, 44.158624], [-84.368887, 44.158624], [-84.248394, 44.164101]]]}}, {"type": "Feature", "properties": {"name": "Ford", "id": "20057", "FIPS": "20057", "FIPS State": 20, "ST": "KS", "County": "Ford County,KS", "State": "Kansas"}, "geometry": {"type": "Polygon", "coordinates": [[[-99.874105, 37.914912], [-99.567396, 37.914912], [-99.56192, 37.734173], [-99.556443, 37.465803], [-100.054844, 37.47128], [-100.109614, 37.476757], [-100.213675, 37.476757], [-100.224629, 37.914912], [-99.874105, 37.914912]]]}}, {"type": "Feature", "properties": {"name": "Schoharie", "id": "36095", "FIPS": "36095", "FIPS State": 36, "ST": "NY", "County": "Schoharie County,NY", "State": "New York"}, "geometry": {"type": "Polygon", "coordinates": [[[-74.647318, 42.827727], [-74.263932, 42.794866], [-74.181778, 42.729142], [-74.252978, 42.406003], [-74.444671, 42.35671], [-74.713041, 42.515542], [-74.647318, 42.827727]]]}}, {"type": "Feature", "properties": {"name": "Chelan", "id": "53007", "FIPS": "53007", "FIPS State": 53, "ST": "WA", "County": "Chelan County,WA", "State": "Washington"}, "geometry": {"type": "Polygon", "coordinates": [[[-120.702909, 48.529222], [-119.870414, 47.95962], [-120.319524, 47.455742], [-120.094969, 47.264049], [-121.11368, 47.598142], [-121.119157, 47.778881], [-121.004141, 48.293714], [-120.702909, 48.529222]]]}}, {"type": "Feature", "properties": {"name": "Johnson", "id": "56019", "FIPS": "56019", "FIPS State": 56, "ST": "WY", "County": "Johnson County,WY", "State": "Wyoming"}, "geometry": {"type": "Polygon", "coordinates": [[[-106.008278, 44.563917], [-106.019232, 43.495914], [-106.079479, 43.495914], [-107.109143, 43.501391], [-107.147482, 44.164101], [-107.372036, 44.55844], [-106.008278, 44.563917]]]}}, {"type": "Feature", "properties": {"name": "Franklin", "id": "53021", "FIPS": "53021", "FIPS State": 53, "ST": "WA", "County": "Franklin County,WA", "State": "Washington"}, "geometry": {"type": "Polygon", "coordinates": [[[-119.213182, 46.738263], [-118.210901, 46.738263], [-118.216378, 46.590385], [-118.227332, 46.595862], [-118.698349, 46.371308], [-119.043396, 46.190569], [-119.454167, 46.678016], [-119.372013, 46.738263], [-119.213182, 46.738263]]]}}, {"type": "Feature", "properties": {"name": "Labette", "id": "20099", "FIPS": "20099", "FIPS State": 20, "ST": "KS", "County": "Labette County,KS", "State": "Kansas"}, "geometry": {"type": "Polygon", "coordinates": [[[-95.125598, 37.383649], [-95.087259, 37.383649], [-95.076305, 37.339833], [-95.070828, 37.000263], [-95.152983, 37.000263], [-95.410399, 37.000263], [-95.519938, 37.000263], [-95.519938, 37.383649], [-95.125598, 37.383649]]]}}, {"type": "Feature", "properties": {"name": "Roane", "id": "47145", "FIPS": "47145", "FIPS State": 47, "ST": "TN", "County": "Roane County,TN", "State": "Tennessee"}, "geometry": {"type": "Polygon", "coordinates": [[[-84.582488, 35.641982], [-84.620826, 35.641982], [-84.724888, 35.75152], [-84.768704, 35.80629], [-84.779657, 35.822721], [-84.681073, 35.910352], [-84.341502, 36.047275], [-84.270302, 35.910352], [-84.264825, 35.899398], [-84.582488, 35.641982]]]}}, {"type": "Feature", "properties": {"name": "Lea", "id": "35025", "FIPS": "35025", "FIPS State": 35, "ST": "NM", "County": "Lea County,NM", "State": "New Mexico"}, "geometry": {"type": "Polygon", "coordinates": [[[-103.050731, 33.571698], [-103.056207, 33.390959], [-103.067161, 32.958281], [-103.067161, 32.520126], [-103.061684, 32.087447], [-103.324578, 31.999816], [-103.71344, 31.999816], [-103.724394, 31.999816], [-103.812025, 32.963758], [-103.510794, 33.571698], [-103.050731, 33.571698]]]}}, {"type": "Feature", "properties": {"name": "Otero", "id": "35035", "FIPS": "35035", "FIPS State": 35, "ST": "NM", "County": "Otero County,NM", "State": "New Mexico"}, "geometry": {"type": "Polygon", "coordinates": [[[-105.728954, 33.390959], [-105.318184, 33.133543], [-105.356522, 32.520126], [-104.852644, 32.520126], [-104.847167, 31.999816], [-104.918367, 31.999816], [-105.997324, 31.999816], [-106.375233, 31.999816], [-106.342372, 33.051389], [-106.347849, 33.390959], [-105.728954, 33.390959]]]}}, {"type": "Feature", "properties": {"name": "Harris", "id": "13145", "FIPS": "13145", "FIPS State": 13, "ST": "GA", "County": "Harris County,GA", "State": "Georgia"}, "geometry": {"type": "Polygon", "coordinates": [[[-84.861812, 32.87065], [-84.70298, 32.843265], [-84.692026, 32.585849], [-85.02612, 32.607757], [-85.080889, 32.607757], [-85.130182, 32.74468], [-85.184951, 32.87065], [-84.861812, 32.87065], [-84.861812, 32.87065]]]}}, {"type": "Feature", "properties": {"name": "Sandoval", "id": "35043", "FIPS": "35043", "FIPS State": 35, "ST": "NM", "County": "Sandoval County,NM", "State": "New Mexico"}, "geometry": {"type": "Polygon", "coordinates": [[[-107.623976, 36.222537], [-106.884589, 36.21706], [-106.249264, 35.965121], [-106.249264, 35.756997], [-106.243787, 35.21478], [-107.196774, 35.220257], [-107.31179, 35.307888], [-107.306313, 35.997983], [-107.623976, 35.997983], [-107.623976, 36.222537]]]}}, {"type": "Feature", "properties": {"name": "San Juan", "id": "35045", "FIPS": "35045", "FIPS State": 35, "ST": "NM", "County": "San Juan County,NM", "State": "New Mexico"}, "geometry": {"type": "Polygon", "coordinates": [[[-107.421329, 37.000263], [-107.623976, 36.222537], [-107.623976, 35.997983], [-108.883672, 36.00346], [-109.04798, 36.00346], [-109.042503, 37.000263], [-108.379794, 37.000263], [-107.481575, 37.000263], [-107.421329, 37.000263]]]}}, {"type": "Feature", "properties": {"name": "Warren", "id": "47177", "FIPS": "47177", "FIPS State": 47, "ST": "TN", "County": "Warren County,TN", "State": "Tennessee"}, "geometry": {"type": "Polygon", "coordinates": [[[-85.683353, 35.833674], [-85.601199, 35.795336], [-85.557383, 35.532443], [-85.606675, 35.532443], [-85.875046, 35.521489], [-85.984584, 35.658412], [-85.885999, 35.839151], [-85.683353, 35.833674]]]}}, {"type": "Feature", "properties": {"name": "Allegany", "id": "36003", "FIPS": "36003", "FIPS State": 36, "ST": "NY", "County": "Allegany County,NY", "State": "New York"}, "geometry": {"type": "Polygon", "coordinates": [[[-78.22376, 42.521019], [-78.037544, 42.521019], [-77.725358, 42.471726], [-77.747266, 42.000709], [-78.207329, 42.000709], [-78.305914, 42.000709], [-78.311391, 42.521019], [-78.22376, 42.521019]]]}}, {"type": "Feature", "properties": {"name": "Los Alamos", "id": "35028", "FIPS": "35028", "FIPS State": 35, "ST": "NM", "County": "Los Alamos County,NM", "State": "New Mexico"}, "geometry": {"type": "Polygon", "coordinates": [[[-106.249264, 35.965121], [-106.243787, 35.932259], [-106.249264, 35.855582], [-106.249264, 35.839151], [-106.249264, 35.756997], [-106.249264, 35.965121]]]}}, {"type": "Feature", "properties": {"name": "Bullitt", "id": "21029", "FIPS": "21029", "FIPS State": 21, "ST": "KY", "County": "Bullitt County,KY", "State": "Kentucky"}, "geometry": {"type": "Polygon", "coordinates": [[[-85.699783, 38.084697], [-85.431413, 38.117559], [-85.49166, 37.991589], [-85.497137, 37.986112], [-85.738122, 37.81085], [-85.940769, 37.997066], [-85.699783, 38.084697]]]}}, {"type": "Feature", "properties": {"name": "Anson", "id": "37007", "FIPS": "37007", "FIPS State": 37, "ST": "NC", "County": "Anson County,NC", "State": "North Carolina"}, "geometry": {"type": "Polygon", "coordinates": [[[-80.173551, 35.149057], [-80.074966, 35.14358], [-79.927088, 34.80401], [-80.321428, 34.814964], [-80.277612, 35.198349], [-80.173551, 35.149057]]]}}, {"type": "Feature", "properties": {"name": "Charlevoix", "id": "26029", "FIPS": "26029", "FIPS State": 26, "ST": "MI", "County": "Charlevoix County,MI", "State": "Michigan"}, "geometry": {"type": "Polygon", "coordinates": [[[-85.09732, 45.363551], [-84.730365, 45.286874], [-84.735842, 45.204719], [-84.856335, 45.117088], [-85.321875, 45.204719], [-85.387598, 45.210196], [-85.09732, 45.369028], [-85.09732, 45.363551]]]}}, {"type": "Feature", "properties": {"name": "Louisa", "id": "51109", "FIPS": "51109", "FIPS State": 51, "ST": "VA", "County": "Louisa County,VA", "State": "Virginia"}, "geometry": {"type": "Polygon", "coordinates": [[[-77.95539, 38.117559], [-77.68702, 38.00802], [-77.796559, 37.728696], [-78.064929, 37.903958], [-78.305914, 38.00802], [-78.207329, 38.133989], [-77.95539, 38.117559]]]}}, {"type": "Feature", "properties": {"name": "Frontier", "id": "31063", "FIPS": "31063", "FIPS State": 31, "ST": "NE", "County": "Frontier County,NE", "State": "Nebraska"}, "geometry": {"type": "Polygon", "coordinates": [[[-100.449184, 40.702674], [-100.224629, 40.702674], [-99.983644, 40.697198], [-100.093183, 40.35215], [-100.197245, 40.35215], [-100.383461, 40.35215], [-100.755893, 40.35215], [-100.7778, 40.35215], [-100.7778, 40.702674], [-100.449184, 40.702674]]]}}, {"type": "Feature", "properties": {"name": "Rabun", "id": "13241", "FIPS": "13241", "FIPS State": 13, "ST": "GA", "County": "Rabun County,GA", "State": "Georgia"}, "geometry": {"type": "Polygon", "coordinates": [[[-83.109191, 35.00118], [-83.350176, 34.716379], [-83.651408, 34.820441], [-83.547346, 34.990226], [-83.481623, 34.995703], [-83.109191, 35.00118]]]}}, {"type": "Feature", "properties": {"name": "Polk", "id": "13233", "FIPS": "13233", "FIPS State": 13, "ST": "GA", "County": "Polk County,GA", "State": "Georgia"}, "geometry": {"type": "Polygon", "coordinates": [[[-85.42046, 34.081054], [-85.048028, 34.097484], [-84.922058, 34.081054], [-85.048028, 33.905791], [-85.310921, 33.900315], [-85.387598, 33.900315], [-85.398552, 33.966038], [-85.42046, 34.081054]]]}}, {"type": "Feature", "properties": {"name": "Lincoln", "id": "37109", "FIPS": "37109", "FIPS State": 37, "ST": "NC", "County": "Lincoln County,NC", "State": "North Carolina"}, "geometry": {"type": "Polygon", "coordinates": [[[-81.488016, 35.570781], [-80.96223, 35.548874], [-80.945799, 35.488627], [-80.956753, 35.400996], [-81.455155, 35.417427], [-81.537309, 35.565304], [-81.531832, 35.570781], [-81.488016, 35.570781]]]}}, {"type": "Feature", "properties": {"name": "Lee", "id": "37105", "FIPS": "37105", "FIPS State": 37, "ST": "NC", "County": "Lee County,NC", "State": "North Carolina"}, "geometry": {"type": "Polygon", "coordinates": [[[-79.242471, 35.570781], [-78.968624, 35.521489], [-79.182224, 35.307888], [-79.35201, 35.516012], [-79.242471, 35.570781]]]}}, {"type": "Feature", "properties": {"name": "Carroll", "id": "33003", "FIPS": "33003", "FIPS State": 33, "ST": "NH", "County": "Carroll County,NH", "State": "New Hampshire"}, "geometry": {"type": "Polygon", "coordinates": [[[-71.010629, 44.284593], [-70.988722, 43.791669], [-70.961337, 43.53973], [-71.109214, 43.506868], [-71.163984, 43.53973], [-71.530939, 43.764284], [-71.415923, 44.213393], [-71.010629, 44.284593]]]}}, {"type": "Feature", "properties": {"name": "Gilpin", "id": "08047", "FIPS": "08047", "FIPS State": 8, "ST": "CO", "County": "Gilpin County,CO", "State": "Colorado"}, "geometry": {"type": "Polygon", "coordinates": [[[-105.674185, 39.930426], [-105.400338, 39.913995], [-105.400338, 39.749687], [-105.690616, 39.853749], [-105.674185, 39.930426]]]}}, {"type": "Feature", "properties": {"name": "Seward", "id": "31159", "FIPS": "31159", "FIPS State": 31, "ST": "NE", "County": "Seward County,NE", "State": "Nebraska"}, "geometry": {"type": "Polygon", "coordinates": [[[-97.349236, 41.047722], [-96.91108, 41.047722], [-96.91108, 40.697198], [-97.365666, 40.697198], [-97.365666, 41.047722], [-97.349236, 41.047722]]]}}, {"type": "Feature", "properties": {"name": "Jefferson", "id": "47089", "FIPS": "47089", "FIPS State": 47, "ST": "TN", "County": "Jefferson County,TN", "State": "Tennessee"}, "geometry": {"type": "Polygon", "coordinates": [[[-83.602115, 36.151337], [-83.465192, 36.173245], [-83.23516, 36.085614], [-83.311837, 35.893921], [-83.673316, 36.036321], [-83.667839, 36.080137], [-83.602115, 36.151337]]]}}, {"type": "Feature", "properties": {"name": "Chippewa", "id": "26033", "FIPS": "26033", "FIPS State": 26, "ST": "MI", "County": "Chippewa County,MI", "State": "Michigan"}, "geometry": {"type": "Polygon", "coordinates": [[[-84.116948, 45.976968], [-85.23972, 46.245338], [-85.23972, 46.754694], [-85.015166, 46.480847], [-84.127902, 46.530139], [-84.116948, 45.976968]]]}}, {"type": "Feature", "properties": {"name": "Elko", "id": "32007", "FIPS": "32007", "FIPS State": 32, "ST": "NV", "County": "Elko County,NV", "State": "Nevada"}, "geometry": {"type": "Polygon", "coordinates": [[[-115.039753, 41.995232], [-114.283935, 41.995232], [-114.04295, 41.995232], [-114.04295, 40.998429], [-114.048427, 40.116642], [-115.833909, 40.127596], [-116.157049, 40.998429], [-116.58425, 40.998429], [-117.016928, 40.998429], [-117.016928, 42.000709], [-115.039753, 41.995232]]]}}, {"type": "Feature", "properties": {"name": "Chatham", "id": "37037", "FIPS": "37037", "FIPS State": 37, "ST": "NC", "County": "Chatham County,NC", "State": "North Carolina"}, "geometry": {"type": "Polygon", "coordinates": [[[-79.187701, 35.872013], [-79.017916, 35.861059], [-78.908377, 35.866536], [-78.913854, 35.581735], [-78.968624, 35.521489], [-79.242471, 35.570781], [-79.35201, 35.516012], [-79.554656, 35.516012], [-79.543702, 35.844628], [-79.247948, 35.87749], [-79.187701, 35.872013]]]}}, {"type": "Feature", "properties": {"name": "Marshall", "id": "20117", "FIPS": "20117", "FIPS State": 20, "ST": "KS", "County": "Marshall County,KS", "State": "Kansas"}, "geometry": {"type": "Polygon", "coordinates": [[[-96.692003, 40.001626], [-96.461971, 40.001626], [-96.237417, 40.001626], [-96.237417, 39.568948], [-96.582464, 39.568948], [-96.582464, 39.568948], [-96.692003, 39.568948], [-96.807019, 39.568948], [-96.807019, 40.001626], [-96.692003, 40.001626]]]}}, {"type": "Feature", "properties": {"name": "Delta", "id": "08029", "FIPS": "08029", "FIPS State": 8, "ST": "CO", "County": "Delta County,CO", "State": "Colorado"}, "geometry": {"type": "Polygon", "coordinates": [[[-107.514437, 39.212947], [-107.503483, 39.218424], [-107.498006, 38.67073], [-108.001885, 38.67073], [-108.379794, 38.67073], [-107.514437, 39.212947]]]}}, {"type": "Feature", "properties": {"name": "Peach", "id": "13225", "FIPS": "13225", "FIPS State": 13, "ST": "GA", "County": "Peach County,GA", "State": "Georgia"}, "geometry": {"type": "Polygon", "coordinates": [[[-83.766424, 32.695388], [-83.7007, 32.689911], [-83.848578, 32.465356], [-84.018363, 32.503695], [-84.007409, 32.520126], [-84.001932, 32.531079], [-83.766424, 32.695388]]]}}, {"type": "Feature", "properties": {"name": "Floyd", "id": "13115", "FIPS": "13115", "FIPS State": 13, "ST": "GA", "County": "Floyd County,GA", "State": "Georgia"}, "geometry": {"type": "Polygon", "coordinates": [[[-85.09732, 34.584932], [-85.069935, 34.584932], [-85.004212, 34.393239], [-85.048028, 34.097484], [-85.42046, 34.081054], [-85.464275, 34.2837], [-85.108274, 34.584932], [-85.09732, 34.584932]]]}}, {"type": "Feature", "properties": {"name": "Dunn", "id": "55033", "FIPS": "55033", "FIPS State": 55, "ST": "WI", "County": "Dunn County,WI", "State": "Wisconsin"}, "geometry": {"type": "Polygon", "coordinates": [[[-92.157096, 45.210196], [-91.664172, 45.210196], [-91.653218, 44.854195], [-91.647741, 44.68441], [-91.894203, 44.68441], [-92.135188, 44.68441], [-92.135188, 44.859672], [-92.157096, 45.210196]]]}}, {"type": "Feature", "properties": {"name": "Clarion", "id": "42031", "FIPS": "42031", "FIPS State": 42, "ST": "PA", "County": "Clarion County,PA", "State": "Pennsylvania"}, "geometry": {"type": "Polygon", "coordinates": [[[-79.357487, 41.431108], [-79.209609, 41.332523], [-79.215086, 41.053199], [-79.603949, 41.020337], [-79.69158, 41.168214], [-79.697057, 41.173691], [-79.477979, 41.387292], [-79.357487, 41.431108]]]}}, {"type": "Feature", "properties": {"name": "Waller", "id": "48473", "FIPS": "48473", "FIPS State": 48, "ST": "TX", "County": "Waller County,TX", "State": "Texas"}, "geometry": {"type": "Polygon", "coordinates": [[[-95.821169, 30.247195], [-95.804738, 30.247195], [-95.804738, 30.088364], [-95.826646, 29.787132], [-95.826646, 29.787132], [-96.03477, 29.726886], [-96.144309, 30.071933], [-96.095016, 30.225288], [-95.821169, 30.247195]]]}}, {"type": "Feature", "properties": {"name": "Sebastian", "id": "05131", "FIPS": "05131", "FIPS State": 5, "ST": "AR", "County": "Sebastian County,AR", "State": "Arkansas"}, "geometry": {"type": "Polygon", "coordinates": [[[-94.380734, 35.444812], [-94.074025, 35.444812], [-94.03021, 35.21478], [-94.139749, 35.099764], [-94.183564, 35.083334], [-94.446457, 34.935456], [-94.430026, 35.379088], [-94.430026, 35.395519], [-94.380734, 35.444812]]]}}, {"type": "Feature", "properties": {"name": "Coahoma", "id": "28027", "FIPS": "28027", "FIPS State": 28, "ST": "MS", "County": "Coahoma County,MS", "State": "Mississippi"}, "geometry": {"type": "Polygon", "coordinates": [[[-90.568783, 34.524686], [-90.398998, 34.426101], [-90.448291, 34.075577], [-90.448291, 33.987946], [-90.656414, 33.987946], [-90.738569, 34.119392], [-90.957646, 34.119392], [-90.568783, 34.524686]]]}}, {"type": "Feature", "properties": {"name": "Wabash", "id": "18169", "FIPS": "18169", "FIPS State": 18, "ST": "IN", "County": "Wabash County,IN", "State": "Indiana"}, "geometry": {"type": "Polygon", "coordinates": [[[-85.683353, 41.047722], [-85.645014, 41.003906], [-85.639537, 40.653382], [-85.864092, 40.653382], [-85.946246, 40.998429], [-85.946246, 41.042245], [-85.683353, 41.047722]]]}}, {"type": "Feature", "properties": {"name": "Pike", "id": "21195", "FIPS": "21195", "FIPS State": 21, "ST": "KY", "County": "Pike County,KY", "State": "Kentucky"}, "geometry": {"type": "Polygon", "coordinates": [[[-82.145249, 37.569865], [-81.969987, 37.537003], [-82.315034, 37.296018], [-82.55602, 37.20291], [-82.566974, 37.197433], [-82.731282, 37.27411], [-82.709374, 37.285064], [-82.561497, 37.68488], [-82.331465, 37.73965], [-82.145249, 37.569865]]]}}, {"type": "Feature", "properties": {"name": "Potter", "id": "48375", "FIPS": "48375", "FIPS State": 48, "ST": "TX", "County": "Potter County,TX", "State": "Texas"}, "geometry": {"type": "Polygon", "coordinates": [[[-101.659588, 35.620074], [-101.621249, 35.620074], [-101.621249, 35.181919], [-101.988204, 35.181919], [-102.168943, 35.181919], [-102.163466, 35.620074], [-101.659588, 35.620074]]]}}, {"type": "Feature", "properties": {"name": "Lancaster", "id": "45057", "FIPS": "45057", "FIPS State": 45, "ST": "SC", "County": "Lancaster County,SC", "State": "South Carolina"}, "geometry": {"type": "Polygon", "coordinates": [[[-80.907461, 35.077857], [-80.907461, 35.077857], [-80.841737, 35.00118], [-80.562413, 34.814964], [-80.409059, 34.612317], [-80.880076, 34.458962], [-80.880076, 34.541117], [-80.896507, 34.820441], [-80.907461, 35.077857]]]}}, {"type": "Feature", "properties": {"name": "Caledonia", "id": "50005", "FIPS": "50005", "FIPS State": 50, "ST": "VT", "County": "Caledonia County,VT", "State": "Vermont"}, "geometry": {"type": "Polygon", "coordinates": [[[-71.941709, 44.766564], [-71.837647, 44.350317], [-72.040294, 44.153147], [-72.368911, 44.202439], [-72.42368, 44.503671], [-72.434634, 44.503671], [-72.374388, 44.585825], [-71.941709, 44.766564]]]}}, {"type": "Feature", "properties": {"name": "Orange", "id": "50017", "FIPS": "50017", "FIPS State": 50, "ST": "VT", "County": "Orange County,VT", "State": "Vermont"}, "geometry": {"type": "Polygon", "coordinates": [[[-72.434634, 44.153147], [-72.368911, 44.202439], [-72.040294, 44.153147], [-72.204602, 43.769761], [-72.790635, 43.961454], [-72.741343, 44.027177], [-72.434634, 44.153147]]]}}, {"type": "Feature", "properties": {"name": "Faribault", "id": "27043", "FIPS": "27043", "FIPS State": 27, "ST": "MN", "County": "Faribault County,MN", "State": "Minnesota"}, "geometry": {"type": "Polygon", "coordinates": [[[-93.893286, 43.846438], [-93.767317, 43.846438], [-93.646824, 43.846438], [-93.646824, 43.501391], [-93.969963, 43.501391], [-94.249287, 43.501391], [-94.249287, 43.846438], [-93.893286, 43.846438]]]}}, {"type": "Feature", "properties": {"name": "Greenwood", "id": "45047", "FIPS": "45047", "FIPS State": 45, "ST": "SC", "County": "Greenwood County,SC", "State": "South Carolina"}, "geometry": {"type": "Polygon", "coordinates": [[[-82.243834, 34.40967], [-81.942602, 34.201546], [-81.871402, 34.135823], [-82.008326, 33.960561], [-82.046664, 33.955084], [-82.325988, 34.064623], [-82.243834, 34.40967]]]}}, {"type": "Feature", "properties": {"name": "Palo Pinto", "id": "48363", "FIPS": "48363", "FIPS State": 48, "ST": "TX", "County": "Palo Pinto County,TX", "State": "Texas"}, "geometry": {"type": "Polygon", "coordinates": [[[-98.428193, 33.007573], [-98.055761, 33.002096], [-98.066715, 32.558464], [-98.066715, 32.509172], [-98.477485, 32.514649], [-98.57607, 32.514649], [-98.57607, 32.952804], [-98.428193, 33.007573]]]}}, {"type": "Feature", "properties": {"name": "Trempealeau", "id": "55121", "FIPS": "55121", "FIPS State": 55, "ST": "WI", "County": "Trempealeau County,WI", "State": "Wisconsin"}, "geometry": {"type": "Polygon", "coordinates": [[[-91.286263, 44.596779], [-91.16577, 44.596779], [-91.149339, 44.081947], [-91.176724, 44.087424], [-91.423186, 43.983362], [-91.56011, 44.027177], [-91.527248, 44.596779], [-91.286263, 44.596779]]]}}, {"type": "Feature", "properties": {"name": "Oldham", "id": "21185", "FIPS": "21185", "FIPS State": 21, "ST": "KY", "County": "Oldham County,KY", "State": "Kentucky"}, "geometry": {"type": "Polygon", "coordinates": [[[-85.639537, 38.380452], [-85.431413, 38.522852], [-85.316398, 38.489991], [-85.283536, 38.358544], [-85.469752, 38.287344], [-85.639537, 38.380452]]]}}, {"type": "Feature", "properties": {"name": "Adams", "id": "18001", "FIPS": "18001", "FIPS State": 18, "ST": "IN", "County": "Adams County,IN", "State": "Indiana"}, "geometry": {"type": "Polygon", "coordinates": [[[-84.878242, 40.921752], [-84.801565, 40.921752], [-84.801565, 40.730059], [-84.801565, 40.571228], [-85.069935, 40.565751], [-85.075412, 40.916275], [-84.878242, 40.921752]]]}}, {"type": "Feature", "properties": {"name": "Warren", "id": "42123", "FIPS": "42123", "FIPS State": 42, "ST": "PA", "County": "Warren County,PA", "State": "Pennsylvania"}, "geometry": {"type": "Polygon", "coordinates": [[[-79.061732, 42.000709], [-78.919331, 42.000709], [-78.95767, 41.6228], [-78.996008, 41.6228], [-79.510841, 41.6228], [-79.614903, 41.6228], [-79.609426, 41.847355], [-79.609426, 42.000709], [-79.061732, 42.000709]]]}}, {"type": "Feature", "properties": {"name": "Dodge", "id": "27039", "FIPS": "27039", "FIPS State": 27, "ST": "MN", "County": "Dodge County,MN", "State": "Minnesota"}, "geometry": {"type": "Polygon", "coordinates": [[[-92.918391, 44.196962], [-92.677405, 44.196962], [-92.688359, 43.846438], [-92.880052, 43.846438], [-93.04436, 43.846438], [-93.04436, 44.196962], [-93.038884, 44.196962], [-92.918391, 44.196962]]]}}, {"type": "Feature", "properties": {"name": "Fayette", "id": "01057", "FIPS": "01057", "FIPS State": 1, "ST": "AL", "County": "Fayette County,AL", "State": "Alabama"}, "geometry": {"type": "Polygon", "coordinates": [[[-87.950806, 33.922222], [-87.63862, 33.916745], [-87.42502, 33.60456], [-87.841267, 33.522406], [-87.945329, 33.522406], [-87.950806, 33.922222]]]}}, {"type": "Feature", "properties": {"name": "Kane", "id": "49025", "FIPS": "49025", "FIPS State": 49, "ST": "UT", "County": "Kane County,UT", "State": "Utah"}, "geometry": {"type": "Polygon", "coordinates": [[[-112.903746, 37.498664], [-112.684669, 37.54248], [-110.647247, 37.54248], [-111.414018, 37.000263], [-112.542268, 37.000263], [-112.898269, 37.000263], [-112.898269, 37.498664], [-112.903746, 37.498664]]]}}, {"type": "Feature", "properties": {"name": "Jackson", "id": "39079", "FIPS": "39079", "FIPS State": 39, "ST": "OH", "County": "Jackson County,OH", "State": "Ohio"}, "geometry": {"type": "Polygon", "coordinates": [[[-82.671035, 39.201993], [-82.435527, 39.037685], [-82.577927, 38.845992], [-82.649128, 38.851469], [-82.807959, 38.950054], [-82.786051, 39.169131], [-82.764143, 39.20747], [-82.671035, 39.201993]]]}}, {"type": "Feature", "properties": {"name": "Grant", "id": "55043", "FIPS": "55043", "FIPS State": 55, "ST": "WI", "County": "Grant County,WI", "State": "Wisconsin"}, "geometry": {"type": "Polygon", "coordinates": [[[-90.552353, 43.205636], [-90.43186, 43.200159], [-90.426383, 42.811297], [-90.426383, 42.504588], [-90.639984, 42.510065], [-90.8974, 42.674373], [-91.154816, 42.986559], [-90.667368, 43.172775], [-90.552353, 43.205636]]]}}, {"type": "Feature", "properties": {"name": "Sumter", "id": "45085", "FIPS": "45085", "FIPS State": 45, "ST": "SC", "County": "Sumter County,SC", "State": "South Carolina"}, "geometry": {"type": "Polygon", "coordinates": [[[-80.480259, 34.168685], [-79.998289, 34.048192], [-79.976381, 33.94413], [-80.332382, 33.779822], [-80.535029, 33.642898], [-80.62266, 33.741483], [-80.617183, 34.097484], [-80.480259, 34.168685]]]}}, {"type": "Feature", "properties": {"name": "Oxford", "id": "23017", "FIPS": "23017", "FIPS State": 23, "ST": "ME", "County": "Oxford County,ME", "State": "Maine"}, "geometry": {"type": "Polygon", "coordinates": [[[-70.835367, 45.27592], [-70.769644, 44.733703], [-70.238381, 44.459856], [-70.479366, 44.032654], [-70.676536, 44.142193], [-70.780598, 43.813577], [-70.988722, 43.791669], [-71.010629, 44.284593], [-71.08183, 45.303304], [-70.835367, 45.27592]]]}}, {"type": "Feature", "properties": {"name": "Coles", "id": "17029", "FIPS": "17029", "FIPS State": 17, "ST": "IL", "County": "Coles County,IL", "State": "Illinois"}, "geometry": {"type": "Polygon", "coordinates": [[[-88.065822, 39.651102], [-87.967237, 39.683964], [-87.96176, 39.481317], [-88.011052, 39.377255], [-88.142499, 39.377255], [-88.471115, 39.371778], [-88.471115, 39.448455], [-88.471115, 39.651102], [-88.065822, 39.651102]]]}}, {"type": "Feature", "properties": {"name": "Bradford", "id": "42015", "FIPS": "42015", "FIPS State": 42, "ST": "PA", "County": "Bradford County,PA", "State": "Pennsylvania"}, "geometry": {"type": "Polygon", "coordinates": [[[-76.920248, 42.000709], [-76.55877, 42.000709], [-76.147999, 42.000709], [-76.115138, 41.650185], [-76.2192, 41.540646], [-76.816186, 41.589939], [-76.876433, 41.595416], [-76.925725, 42.000709], [-76.920248, 42.000709]]]}}, {"type": "Feature", "properties": {"name": "Johnson", "id": "29101", "FIPS": "29101", "FIPS State": 29, "ST": "MO", "County": "Johnson County,MO", "State": "Missouri"}, "geometry": {"type": "Polygon", "coordinates": [[[-93.800178, 38.9391], [-93.498947, 38.928146], [-93.5099, 38.555714], [-93.794701, 38.561191], [-94.063071, 38.566668], [-94.117841, 38.835038], [-94.112364, 38.917192], [-93.800178, 38.9391]]]}}, {"type": "Feature", "properties": {"name": "Clearwater", "id": "27029", "FIPS": "27029", "FIPS State": 27, "ST": "MN", "County": "Clearwater County,MN", "State": "Minnesota"}, "geometry": {"type": "Polygon", "coordinates": [[[-95.580184, 48.019867], [-95.22966, 48.019867], [-95.185844, 47.411926], [-95.169413, 47.15451], [-95.552799, 47.149033], [-95.552799, 47.499557], [-95.580184, 47.932236], [-95.580184, 48.019867]]]}}]}