{"type": "FeatureCollection", "crs": {"type": "name", "properties": {"name": "urn:ogc:def:crs:OGC:1.3:CRS84"}}, "features": [{"type": "Feature", "properties": {"name": "Huron", "id": "39077", "FIPS": "39077", "FIPS State": 39, "ST": "OH", "County": "Huron County,OH", "State": "Ohio"}, "geometry": {"type": "Polygon", "coordinates": [[[-82.840821, 41.288707], [-82.342419, 41.28323], [-82.336942, 41.064153], [-82.375281, 41.064153], [-82.435527, 40.992952], [-82.687466, 40.992952], [-82.725805, 40.998429], [-82.829867, 40.998429], [-82.840821, 41.255845], [-82.840821, 41.288707]]]}}, {"type": "Feature", "properties": {"name": "Calvert", "id": "24009", "FIPS": "24009", "FIPS State": 24, "ST": "MD", "County": "Calvert County,MD", "State": "Maryland"}, "geometry": {"type": "Polygon", "coordinates": [[[-76.635447, 38.769315], [-76.531385, 38.714545], [-76.405416, 38.320205], [-76.673786, 38.500944], [-76.673786, 38.533806], [-76.68474, 38.747407], [-76.635447, 38.769315]]]}}, {"type": "Feature", "properties": {"name": "Ashtabula", "id": "39007", "FIPS": "39007", "FIPS State": 39, "ST": "OH", "County": "Ashtabula County,OH", "State": "Ohio"}, "geometry": {"type": "Polygon", "coordinates": [[[-80.518598, 41.978802], [-80.518598, 41.847355], [-80.518598, 41.502308], [-81.000569, 41.502308], [-81.006046, 41.715908], [-81.000569, 41.852832], [-80.518598, 41.978802], [-80.518598, 41.978802]]]}}, {"type": "Feature", "properties": {"name": "Colleton", "id": "45029", "FIPS": "45029", "FIPS State": 45, "ST": "SC", "County": "Colleton County,SC", "State": "South Carolina"}, "geometry": {"type": "Polygon", "coordinates": [[[-80.792445, 33.182835], [-80.403582, 32.859696], [-80.250228, 32.531079], [-80.474782, 32.487264], [-80.825307, 32.706342], [-81.055338, 33.002096], [-81.082723, 33.024004], [-80.797922, 33.177358], [-80.792445, 33.182835]]]}}, {"type": "Feature", "properties": {"name": "Cass", "id": "29037", "FIPS": "29037", "FIPS State": 29, "ST": "MO", "County": "Cass County,MO", "State": "Missouri"}, "geometry": {"type": "Polygon", "coordinates": [[[-94.583381, 38.845992], [-94.117841, 38.835038], [-94.063071, 38.566668], [-94.063071, 38.446175], [-94.610765, 38.479037], [-94.610765, 38.479037], [-94.610765, 38.736453], [-94.610765, 38.845992], [-94.583381, 38.845992]]]}}, {"type": "Feature", "properties": {"name": "Otsego", "id": "36077", "FIPS": "36077", "FIPS State": 36, "ST": "NY", "County": "Otsego County,NY", "State": "New York"}, "geometry": {"type": "Polygon", "coordinates": [[[-75.096427, 42.904404], [-74.762334, 42.860589], [-74.647318, 42.827727], [-74.713041, 42.515542], [-74.844488, 42.510065], [-75.414089, 42.312895], [-75.293597, 42.745573], [-75.249781, 42.871543], [-75.211443, 42.882497], [-75.096427, 42.904404]]]}}, {"type": "Feature", "properties": {"name": "Rockdale", "id": "13247", "FIPS": "13247", "FIPS State": 13, "ST": "GA", "County": "Rockdale County,GA", "State": "Georgia"}, "geometry": {"type": "Polygon", "coordinates": [[[-83.980024, 33.785299], [-83.914301, 33.74696], [-84.045747, 33.527883], [-84.182671, 33.648375], [-84.02384, 33.752437], [-83.980024, 33.785299]]]}}, {"type": "Feature", "properties": {"name": "Laurel", "id": "21125", "FIPS": "21125", "FIPS State": 21, "ST": "KY", "County": "Laurel County,KY", "State": "Kentucky"}, "geometry": {"type": "Polygon", "coordinates": [[[-84.138855, 37.306971], [-84.138855, 37.317925], [-83.941686, 37.252202], [-83.870485, 37.055032], [-84.089563, 36.956447], [-84.122425, 36.967401], [-84.297687, 36.945493], [-84.357933, 36.961924], [-84.286733, 37.153617], [-84.138855, 37.306971]]]}}, {"type": "Feature", "properties": {"name": "Montgomery", "id": "36057", "FIPS": "36057", "FIPS State": 36, "ST": "NY", "County": "Montgomery County,NY", "State": "New York"}, "geometry": {"type": "Polygon", "coordinates": [[[-74.581595, 42.997512], [-74.099624, 42.981082], [-74.094147, 42.953697], [-74.263932, 42.794866], [-74.647318, 42.827727], [-74.762334, 42.860589], [-74.762334, 43.046805], [-74.581595, 42.997512]]]}}, {"type": "Feature", "properties": {"name": "Boone", "id": "17007", "FIPS": "17007", "FIPS State": 17, "ST": "IL", "County": "Boone County,IL", "State": "Illinois"}, "geometry": {"type": "Polygon", "coordinates": [[[-88.942132, 42.493634], [-88.777824, 42.493634], [-88.706624, 42.493634], [-88.706624, 42.154064], [-88.942132, 42.154064], [-88.942132, 42.493634]]]}}, {"type": "Feature", "properties": {"name": "Pickens", "id": "45077", "FIPS": "45077", "FIPS State": 45, "ST": "SC", "County": "Pickens County,SC", "State": "South Carolina"}, "geometry": {"type": "Polygon", "coordinates": [[[-82.621743, 35.066903], [-82.484819, 34.820441], [-82.490296, 34.820441], [-82.840821, 34.623271], [-82.89559, 35.055949], [-82.764143, 35.066903], [-82.621743, 35.066903]]]}}, {"type": "Feature", "properties": {"name": "Muscatine", "id": "19139", "FIPS": "19139", "FIPS State": 19, "ST": "IA", "County": "Muscatine County,IA", "State": "Iowa"}, "geometry": {"type": "Polygon", "coordinates": [[[-91.30817, 41.595416], [-90.8974, 41.595416], [-90.787861, 41.453015], [-91.072662, 41.332523], [-91.368417, 41.425631], [-91.368417, 41.600893], [-91.30817, 41.595416]]]}}, {"type": "Feature", "properties": {"name": "Angelina", "id": "48005", "FIPS": "48005", "FIPS State": 48, "ST": "TX", "County": "Angelina County,TX", "State": "Texas"}, "geometry": {"type": "Polygon", "coordinates": [[[-94.868182, 31.528799], [-94.325965, 31.222091], [-94.128795, 31.101598], [-94.457411, 31.035875], [-94.561473, 31.057782], [-94.813412, 31.13446], [-94.840797, 31.145414], [-94.950336, 31.342583], [-94.955813, 31.386399], [-95.005105, 31.424737], [-94.868182, 31.528799]]]}}, {"type": "Feature", "properties": {"name": "Lake", "id": "06033", "FIPS": "06033", "FIPS State": 6, "ST": "CA", "County": "Lake County,CA", "State": "California"}, "geometry": {"type": "Polygon", "coordinates": [[[-122.882732, 39.579902], [-122.740331, 39.382732], [-122.340515, 38.922669], [-122.395284, 38.862422], [-122.625315, 38.665253], [-122.822485, 38.851469], [-123.090855, 39.070546], [-122.882732, 39.579902]]]}}, {"type": "Feature", "properties": {"name": "Kerr", "id": "48265", "FIPS": "48265", "FIPS State": 48, "ST": "TX", "County": "Kerr County,TX", "State": "Texas"}, "geometry": {"type": "Polygon", "coordinates": [[[-99.605735, 30.291011], [-99.304503, 30.285534], [-98.921118, 30.137656], [-98.915641, 29.781655], [-99.600258, 29.907625], [-99.759089, 30.071933], [-99.753612, 30.291011], [-99.605735, 30.291011]]]}}, {"type": "Feature", "properties": {"name": "Cleveland", "id": "37045", "FIPS": "37045", "FIPS State": 37, "ST": "NC", "County": "Cleveland County,NC", "State": "North Carolina"}, "geometry": {"type": "Polygon", "coordinates": [[[-81.586601, 35.565304], [-81.537309, 35.565304], [-81.455155, 35.417427], [-81.329185, 35.165488], [-81.367524, 35.165488], [-81.76734, 35.181919], [-81.690663, 35.581735], [-81.586601, 35.565304]]]}}, {"type": "Feature", "properties": {"name": "Carter", "id": "40019", "FIPS": "40019", "FIPS State": 40, "ST": "OK", "County": "Carter County,OK", "State": "Oklahoma"}, "geometry": {"type": "Polygon", "coordinates": [[[-97.562836, 34.508255], [-97.354713, 34.508255], [-96.932988, 34.332993], [-96.932988, 34.174162], [-96.971327, 34.0701], [-97.562836, 34.0701], [-97.562836, 34.289177], [-97.562836, 34.508255]]]}}, {"type": "Feature", "properties": {"name": "Carter", "id": "47019", "FIPS": "47019", "FIPS State": 47, "ST": "TN", "County": "Carter County,TN", "State": "Tennessee"}, "geometry": {"type": "Polygon", "coordinates": [[[-81.986418, 36.507338], [-81.931648, 36.266353], [-82.079526, 36.107521], [-82.221926, 36.156814], [-82.320511, 36.260876], [-82.342419, 36.255399], [-82.298603, 36.397799], [-81.986418, 36.507338]]]}}, {"type": "Feature", "properties": {"name": "Montrose", "id": "08085", "FIPS": "08085", "FIPS State": 8, "ST": "CO", "County": "Montrose County,CO", "State": "Colorado"}, "geometry": {"type": "Polygon", "coordinates": [[[-108.001885, 38.67073], [-107.498006, 38.67073], [-107.63493, 38.303775], [-107.963546, 38.15042], [-109.042503, 38.15042], [-109.058934, 38.500944], [-108.379794, 38.67073], [-108.001885, 38.67073]]]}}, {"type": "Feature", "properties": {"name": "Floyd", "id": "18043", "FIPS": "18043", "FIPS State": 18, "ST": "IN", "County": "Floyd County,IN", "State": "Indiana"}, "geometry": {"type": "Polygon", "coordinates": [[[-86.011969, 38.41879], [-85.995538, 38.41879], [-85.792891, 38.287344], [-85.90243, 38.177805], [-86.033877, 38.41879], [-86.011969, 38.41879]]]}}, {"type": "Feature", "properties": {"name": "Hoke", "id": "37093", "FIPS": "37093", "FIPS State": 37, "ST": "NC", "County": "Hoke County,NC", "State": "North Carolina"}, "geometry": {"type": "Polygon", "coordinates": [[[-79.127455, 35.165488], [-79.10007, 35.176442], [-79.034347, 34.951887], [-79.346533, 34.836871], [-79.461548, 35.044995], [-79.127455, 35.165488]]]}}, {"type": "Feature", "properties": {"name": "Anderson", "id": "47001", "FIPS": "47001", "FIPS State": 47, "ST": "TN", "County": "Anderson County,TN", "State": "Tennessee"}, "geometry": {"type": "Polygon", "coordinates": [[[-84.001932, 36.27183], [-83.941686, 36.184199], [-84.270302, 35.910352], [-84.341502, 36.047275], [-84.440087, 36.162291], [-84.374364, 36.21706], [-84.001932, 36.27183]]]}}, {"type": "Feature", "properties": {"name": "Johnston", "id": "37101", "FIPS": "37101", "FIPS State": 37, "ST": "NC", "County": "Johnston County,NC", "State": "North Carolina"}, "geometry": {"type": "Polygon", "coordinates": [[[-78.256622, 35.817244], [-78.190898, 35.729613], [-78.064929, 35.587212], [-78.305914, 35.28598], [-78.541422, 35.313365], [-78.711208, 35.521489], [-78.256622, 35.817244]]]}}, {"type": "Feature", "properties": {"name": "Cass", "id": "17017", "FIPS": "17017", "FIPS State": 17, "ST": "IL", "County": "Cass County,IL", "State": "Illinois"}, "geometry": {"type": "Polygon", "coordinates": [[[-90.355183, 40.122119], [-89.993705, 40.105688], [-89.993705, 39.903041], [-89.993705, 39.87018], [-90.585214, 39.875656], [-90.514014, 39.985195], [-90.355183, 40.122119]]]}}, {"type": "Feature", "properties": {"name": "Stephens", "id": "40137", "FIPS": "40137", "FIPS State": 40, "ST": "OK", "County": "Stephens County,OK", "State": "Oklahoma"}, "geometry": {"type": "Polygon", "coordinates": [[[-97.995515, 34.683517], [-97.666898, 34.683517], [-97.562836, 34.508255], [-97.562836, 34.289177], [-98.061238, 34.289177], [-98.137915, 34.289177], [-98.143392, 34.508255], [-98.143392, 34.508255], [-98.088623, 34.683517], [-97.995515, 34.683517]]]}}, {"type": "Feature", "properties": {"name": "Union", "id": "39159", "FIPS": "39159", "FIPS State": 39, "ST": "OH", "County": "Union County,OH", "State": "Ohio"}, "geometry": {"type": "Polygon", "coordinates": [[[-83.273499, 40.505505], [-83.246114, 40.445258], [-83.169437, 40.144027], [-83.207776, 40.105688], [-83.50353, 40.111165], [-83.552823, 40.231658], [-83.519961, 40.505505], [-83.415899, 40.505505], [-83.273499, 40.505505]]]}}, {"type": "Feature", "properties": {"name": "Upshur", "id": "54097", "FIPS": "54097", "FIPS State": 54, "ST": "WV", "County": "Upshur County,WV", "State": "West Virginia"}, "geometry": {"type": "Polygon", "coordinates": [[[-80.22832, 39.114362], [-80.08592, 38.944577], [-80.277612, 38.692637], [-80.392628, 38.725499], [-80.29952, 39.103408], [-80.22832, 39.114362]]]}}, {"type": "Feature", "properties": {"name": "Santa Fe", "id": "35049", "FIPS": "35049", "FIPS State": 35, "ST": "NM", "County": "Santa Fe County,NM", "State": "New Mexico"}, "geometry": {"type": "Polygon", "coordinates": [[[-106.068525, 35.997983], [-105.718001, 35.976075], [-105.718001, 35.872013], [-105.712524, 35.039518], [-106.243787, 35.039518], [-106.243787, 35.21478], [-106.249264, 35.756997], [-106.249264, 35.839151], [-106.249264, 35.855582], [-106.243787, 35.932259], [-106.068525, 35.997983]]]}}, {"type": "Feature", "properties": {"name": "Mecosta", "id": "26107", "FIPS": "26107", "FIPS State": 26, "ST": "MI", "County": "Mecosta County,MI", "State": "Michigan"}, "geometry": {"type": "Polygon", "coordinates": [[[-85.540952, 43.813577], [-85.086366, 43.813577], [-85.086366, 43.468529], [-85.551906, 43.468529], [-85.56286, 43.468529], [-85.56286, 43.813577], [-85.540952, 43.813577]]]}}, {"type": "Feature", "properties": {"name": "Frederick", "id": "51069", "FIPS": "51069", "FIPS State": 51, "ST": "VA", "County": "Frederick County,VA", "State": "Virginia"}, "geometry": {"type": "Polygon", "coordinates": [[[-78.349729, 39.464886], [-78.229237, 39.393686], [-78.032067, 39.262239], [-78.032067, 39.262239], [-78.15256, 39.037685], [-78.311391, 39.0103], [-78.338776, 39.103408], [-78.541422, 39.054115], [-78.508561, 39.086977], [-78.349729, 39.464886]]]}}, {"type": "Feature", "properties": {"name": "Iowa", "id": "55049", "FIPS": "55049", "FIPS State": 55, "ST": "WI", "County": "Iowa County,WI", "State": "Wisconsin"}, "geometry": {"type": "Polygon", "coordinates": [[[-90.294936, 43.205636], [-90.196352, 43.161821], [-89.84035, 43.205636], [-89.84035, 42.855112], [-89.84035, 42.811297], [-90.30589, 42.816773], [-90.426383, 42.811297], [-90.43186, 43.200159], [-90.294936, 43.205636]]]}}, {"type": "Feature", "properties": {"name": "Eau Claire", "id": "55035", "FIPS": "55035", "FIPS State": 55, "ST": "WI", "County": "Eau Claire County,WI", "State": "Wisconsin"}, "geometry": {"type": "Polygon", "coordinates": [[[-91.499863, 44.859672], [-90.924785, 44.859672], [-90.924785, 44.596779], [-91.16577, 44.596779], [-91.286263, 44.596779], [-91.527248, 44.596779], [-91.647741, 44.596779], [-91.647741, 44.68441], [-91.653218, 44.854195], [-91.499863, 44.859672]]]}}, {"type": "Feature", "properties": {"name": "Marion", "id": "39101", "FIPS": "39101", "FIPS State": 39, "ST": "OH", "County": "Marion County,OH", "State": "Ohio"}, "geometry": {"type": "Polygon", "coordinates": [[[-82.977744, 40.702674], [-82.857251, 40.702674], [-83.02156, 40.434304], [-83.246114, 40.445258], [-83.273499, 40.505505], [-83.415899, 40.505505], [-83.421376, 40.686244], [-83.109191, 40.702674], [-82.977744, 40.702674]]]}}, {"type": "Feature", "properties": {"name": "Aroostook", "id": "23003", "FIPS": "23003", "FIPS State": 23, "ST": "ME", "County": "Aroostook County,ME", "State": "Maine"}, "geometry": {"type": "Polygon", "coordinates": [[[-67.806619, 45.681213], [-68.047605, 45.637398], [-68.43099, 45.577151], [-68.513145, 46.382262], [-68.819853, 46.393216], [-68.819853, 46.573955], [-69.723548, 46.573955], [-70.02478, 46.573955], [-69.225147, 47.461219], [-68.902007, 47.176418], [-68.233821, 47.357157], [-67.790188, 47.066879], [-67.806619, 45.681213]]]}}, {"type": "Feature", "properties": {"name": "Seward", "id": "20175", "FIPS": "20175", "FIPS State": 20, "ST": "KS", "County": "Seward County,KS", "State": "Kansas"}, "geometry": {"type": "Polygon", "coordinates": [[[-100.750416, 37.389126], [-100.651831, 37.389126], [-100.6354, 37.000263], [-100.947585, 37.000263], [-101.068078, 37.000263], [-101.068078, 37.389126], [-100.750416, 37.389126]]]}}, {"type": "Feature", "properties": {"name": "Sutter", "id": "06101", "FIPS": "06101", "FIPS State": 6, "ST": "CA", "County": "Sutter County,CA", "State": "California"}, "geometry": {"type": "Polygon", "coordinates": [[[-121.623035, 39.295101], [-121.414912, 38.999346], [-121.486112, 38.736453], [-121.557312, 38.736453], [-121.601128, 38.736453], [-121.836636, 38.922669], [-121.907836, 39.306055], [-121.623035, 39.295101]]]}}, {"type": "Feature", "properties": {"name": "Chemung", "id": "36015", "FIPS": "36015", "FIPS State": 36, "ST": "NY", "County": "Chemung County,NY", "State": "New York"}, "geometry": {"type": "Polygon", "coordinates": [[[-76.766894, 42.296464], [-76.619016, 42.28551], [-76.536862, 42.280033], [-76.55877, 42.000709], [-76.920248, 42.000709], [-76.925725, 42.000709], [-76.964064, 42.000709], [-76.964064, 42.280033], [-76.766894, 42.296464]]]}}, {"type": "Feature", "properties": {"name": "Whitfield", "id": "13313", "FIPS": "13313", "FIPS State": 13, "ST": "GA", "County": "Whitfield County,GA", "State": "Georgia"}, "geometry": {"type": "Polygon", "coordinates": [[[-84.976827, 34.990226], [-84.812519, 34.990226], [-84.916581, 34.634225], [-85.048028, 34.623271], [-85.146612, 34.765671], [-84.982304, 34.990226], [-84.976827, 34.990226]]]}}, {"type": "Feature", "properties": {"name": "Washington", "id": "48477", "FIPS": "48477", "FIPS State": 48, "ST": "TX", "County": "Washington County,TX", "State": "Texas"}, "geometry": {"type": "Polygon", "coordinates": [[[-96.297663, 30.378642], [-96.155263, 30.329349], [-96.095016, 30.225288], [-96.144309, 30.071933], [-96.379817, 30.082887], [-96.620803, 30.044549], [-96.796065, 30.159564], [-96.64271, 30.296488], [-96.297663, 30.378642]]]}}, {"type": "Feature", "properties": {"name": "Clay", "id": "18021", "FIPS": "18021", "FIPS State": 18, "ST": "IN", "County": "Clay County,IN", "State": "Indiana"}, "geometry": {"type": "Polygon", "coordinates": [[[-87.200465, 39.607286], [-87.014249, 39.607286], [-86.937572, 39.47584], [-87.052588, 39.169131], [-87.211419, 39.169131], [-87.238804, 39.169131], [-87.238804, 39.256762], [-87.200465, 39.607286]]]}}, {"type": "Feature", "properties": {"name": "Oktibbeha", "id": "28105", "FIPS": "28105", "FIPS State": 28, "ST": "MS", "County": "Oktibbeha County,MS", "State": "Mississippi"}, "geometry": {"type": "Polygon", "coordinates": [[[-89.051671, 33.560744], [-89.018809, 33.560744], [-88.673762, 33.505975], [-88.668285, 33.286897], [-88.810686, 33.286897], [-89.09001, 33.286897], [-89.09001, 33.53336], [-89.051671, 33.560744]]]}}, {"type": "Feature", "properties": {"name": "Henderson", "id": "21101", "FIPS": "21101", "FIPS State": 21, "ST": "KY", "County": "Henderson County,KY", "State": "Kentucky"}, "geometry": {"type": "Polygon", "coordinates": [[[-87.698867, 37.898481], [-87.452404, 37.942297], [-87.304527, 37.898481], [-87.408589, 37.68488], [-87.49622, 37.646542], [-87.731728, 37.635588], [-87.928898, 37.903958], [-87.698867, 37.898481]]]}}, {"type": "Feature", "properties": {"name": "Buchanan", "id": "29021", "FIPS": "29021", "FIPS State": 29, "ST": "MO", "County": "Buchanan County,MO", "State": "Missouri"}, "geometry": {"type": "Polygon", "coordinates": [[[-94.769597, 39.820887], [-94.605288, 39.820887], [-94.599812, 39.749687], [-94.599812, 39.530609], [-95.10369, 39.530609], [-95.054398, 39.623717], [-94.879136, 39.820887], [-94.769597, 39.820887]]]}}, {"type": "Feature", "properties": {"name": "Marion", "id": "54049", "FIPS": "54049", "FIPS State": 54, "ST": "WV", "County": "Marion County,WV", "State": "West Virginia"}, "geometry": {"type": "Polygon", "coordinates": [[[-80.398105, 39.634671], [-79.938042, 39.453932], [-80.195458, 39.393686], [-80.49669, 39.470363], [-80.398105, 39.634671]]]}}, {"type": "Feature", "properties": {"name": "Tangipahoa", "id": "22105", "FIPS": "22105", "FIPS State": 22, "ST": "LA", "County": "Tangipahoa County,LA", "State": "Louisiana"}, "geometry": {"type": "Polygon", "coordinates": [[[-90.371614, 30.997536], [-90.349706, 31.003013], [-90.256598, 30.712735], [-90.245644, 30.225288], [-90.278506, 30.230764], [-90.398998, 30.285534], [-90.568783, 30.652489], [-90.568783, 30.997536], [-90.546876, 30.997536], [-90.371614, 30.997536]]]}}, {"type": "Feature", "properties": {"name": "Harrison", "id": "28047", "FIPS": "28047", "FIPS State": 28, "ST": "MS", "County": "Harrison County,MS", "State": "Mississippi"}, "geometry": {"type": "Polygon", "coordinates": [[[-88.881886, 30.679874], [-88.843547, 30.406027], [-89.341949, 30.373165], [-89.341949, 30.647012], [-88.881886, 30.679874]]]}}, {"type": "Feature", "properties": {"name": "Jones", "id": "19105", "FIPS": "19105", "FIPS State": 19, "ST": "IA", "County": "Jones County,IA", "State": "Iowa"}, "geometry": {"type": "Polygon", "coordinates": [[[-91.36294, 42.296464], [-91.127431, 42.296464], [-90.8974, 42.296464], [-90.8974, 42.033571], [-90.8974, 41.94594], [-91.012416, 41.94594], [-91.368417, 41.94594], [-91.36294, 42.296464]]]}}, {"type": "Feature", "properties": {"name": "Campbell", "id": "21037", "FIPS": "21037", "FIPS State": 21, "ST": "KY", "County": "Campbell County,KY", "State": "Kentucky"}, "geometry": {"type": "Polygon", "coordinates": [[[-84.319594, 39.021254], [-84.231963, 38.873376], [-84.418179, 38.807653], [-84.50581, 39.092454], [-84.319594, 39.021254]]]}}, {"type": "Feature", "properties": {"name": "Livingston", "id": "17105", "FIPS": "17105", "FIPS State": 17, "ST": "IL", "County": "Livingston County,IL", "State": "Illinois"}, "geometry": {"type": "Polygon", "coordinates": [[[-88.410869, 41.107968], [-88.252038, 41.113445], [-88.246561, 40.992952], [-88.460161, 40.615043], [-88.712101, 40.757444], [-88.931178, 40.751967], [-88.931178, 40.927229], [-88.586131, 41.107968], [-88.410869, 41.107968]]]}}, {"type": "Feature", "properties": {"name": "Bartholomew", "id": "18005", "FIPS": "18005", "FIPS State": 18, "ST": "IN", "County": "Bartholomew County,IN", "State": "Indiana"}, "geometry": {"type": "Polygon", "coordinates": [[[-85.798368, 39.34987], [-85.683353, 39.34987], [-85.68883, 39.130793], [-85.798368, 39.070546], [-86.077692, 39.048638], [-86.083169, 39.344393], [-85.951723, 39.34987], [-85.798368, 39.34987]]]}}, {"type": "Feature", "properties": {"name": "Sullivan", "id": "33019", "FIPS": "33019", "FIPS State": 33, "ST": "NH", "County": "Sullivan County,NH", "State": "New Hampshire"}, "geometry": {"type": "Polygon", "coordinates": [[[-72.330572, 43.599976], [-71.936232, 43.528776], [-72.007433, 43.189205], [-72.040294, 43.128959], [-72.199125, 43.178252], [-72.451065, 43.161821], [-72.434634, 43.233021], [-72.330572, 43.599976]]]}}, {"type": "Feature", "properties": {"name": "Iron", "id": "49021", "FIPS": "49021", "FIPS State": 49, "ST": "UT", "County": "Iron County,UT", "State": "Utah"}, "geometry": {"type": "Polygon", "coordinates": [[[-112.876362, 38.15042], [-112.476545, 38.144943], [-112.684669, 37.54248], [-112.903746, 37.498664], [-112.898269, 37.498664], [-114.053904, 37.602726], [-114.048427, 38.15042], [-112.876362, 38.15042]]]}}, {"type": "Feature", "properties": {"name": "Laurens", "id": "13175", "FIPS": "13175", "FIPS State": 13, "ST": "GA", "County": "Laurens County,GA", "State": "Georgia"}, "geometry": {"type": "Polygon", "coordinates": [[[-83.224206, 32.585849], [-82.955836, 32.706342], [-82.649128, 32.514649], [-82.720328, 32.312002], [-82.884636, 32.196986], [-83.136575, 32.421541], [-83.224206, 32.585849]]]}}, {"type": "Feature", "properties": {"name": "Kittitas", "id": "53037", "FIPS": "53037", "FIPS State": 53, "ST": "WA", "County": "Kittitas County,WA", "State": "Washington"}, "geometry": {"type": "Polygon", "coordinates": [[[-121.11368, 47.598142], [-121.11368, 47.598142], [-120.094969, 47.264049], [-120.007338, 47.220233], [-119.974476, 46.738263], [-120.511216, 46.738263], [-121.38205, 47.088787], [-121.11368, 47.598142]]]}}, {"type": "Feature", "properties": {"name": "Dorchester", "id": "24019", "FIPS": "24019", "FIPS State": 24, "ST": "MD", "County": "Dorchester County,MD", "State": "Maryland"}, "geometry": {"type": "Polygon", "coordinates": [[[-75.841291, 38.703591], [-75.709844, 38.637868], [-75.69889, 38.561191], [-75.813906, 38.489991], [-75.923445, 38.265436], [-76.153476, 38.632391], [-75.945353, 38.676207], [-75.841291, 38.703591]]]}}, {"type": "Feature", "properties": {"name": "Onslow", "id": "37133", "FIPS": "37133", "FIPS State": 37, "ST": "NC", "County": "Onslow County,NC", "State": "North Carolina"}, "geometry": {"type": "Polygon", "coordinates": [[[-77.676066, 34.973795], [-77.16671, 34.787579], [-77.111941, 34.639701], [-77.517235, 34.442532], [-77.681543, 34.721856], [-77.676066, 34.973795]]]}}, {"type": "Feature", "properties": {"name": "Nash", "id": "37127", "FIPS": "37127", "FIPS State": 37, "ST": "NC", "County": "Nash County,NC", "State": "North Carolina"}, "geometry": {"type": "Polygon", "coordinates": [[[-78.053975, 36.134906], [-78.004682, 36.200629], [-77.697974, 36.151337], [-77.82942, 35.866536], [-78.190898, 35.729613], [-78.256622, 35.817244], [-78.053975, 36.134906]]]}}, {"type": "Feature", "properties": {"name": "Muskingum", "id": "39119", "FIPS": "39119", "FIPS State": 39, "ST": "OH", "County": "Muskingum County,OH", "State": "Ohio"}, "geometry": {"type": "Polygon", "coordinates": [[[-82.189065, 40.165934], [-81.718048, 40.149503], [-81.69614, 39.842795], [-81.69614, 39.755164], [-82.074049, 39.771595], [-82.23288, 39.913995], [-82.189065, 40.165934]]]}}, {"type": "Feature", "properties": {"name": "Berkeley", "id": "54003", "FIPS": "54003", "FIPS State": 54, "ST": "WV", "County": "Berkeley County,WV", "State": "West Virginia"}, "geometry": {"type": "Polygon", "coordinates": [[[-78.021113, 39.61824], [-77.823943, 39.492271], [-77.823943, 39.492271], [-78.032067, 39.262239], [-78.229237, 39.393686], [-78.021113, 39.61824]]]}}, {"type": "Feature", "properties": {"name": "Whitley", "id": "18183", "FIPS": "18183", "FIPS State": 18, "ST": "IN", "County": "Whitley County,IN", "State": "Indiana"}, "geometry": {"type": "Polygon", "coordinates": [[[-85.650491, 41.294184], [-85.305444, 41.266799], [-85.332828, 41.003906], [-85.376644, 41.003906], [-85.645014, 41.003906], [-85.683353, 41.047722], [-85.650491, 41.294184]]]}}, {"type": "Feature", "properties": {"name": "Schuylkill", "id": "42107", "FIPS": "42107", "FIPS State": 42, "ST": "PA", "County": "Schuylkill County,PA", "State": "Pennsylvania"}, "geometry": {"type": "Polygon", "coordinates": [[[-76.208246, 40.949137], [-75.994645, 40.910798], [-75.759137, 40.735536], [-75.890583, 40.67529], [-76.438277, 40.494551], [-76.536862, 40.554797], [-76.70117, 40.658859], [-76.378031, 40.773875], [-76.208246, 40.949137]]]}}, {"type": "Feature", "properties": {"name": "Orangeburg", "id": "45075", "FIPS": "45075", "FIPS State": 45, "ST": "SC", "County": "Orangeburg County,SC", "State": "South Carolina"}, "geometry": {"type": "Polygon", "coordinates": [[[-81.044384, 33.708622], [-80.49669, 33.560744], [-80.222843, 33.445728], [-80.359767, 33.259513], [-80.502167, 33.33619], [-80.792445, 33.182835], [-80.797922, 33.177358], [-81.10463, 33.380005], [-81.225123, 33.440252], [-81.373001, 33.489544], [-81.186785, 33.653852], [-81.044384, 33.708622]]]}}, {"type": "Feature", "properties": {"name": "Huntingdon", "id": "42061", "FIPS": "42061", "FIPS State": 42, "ST": "PA", "County": "Huntingdon County,PA", "State": "Pennsylvania"}, "geometry": {"type": "Polygon", "coordinates": [[[-78.114221, 40.741013], [-77.681543, 40.730059], [-77.752743, 40.379535], [-77.703451, 40.264519], [-77.862282, 40.061872], [-78.136129, 40.165934], [-78.256622, 40.297381], [-78.114221, 40.741013]]]}}, {"type": "Feature", "properties": {"name": "Walworth", "id": "55127", "FIPS": "55127", "FIPS State": 55, "ST": "WI", "County": "Walworth County,WI", "State": "Wisconsin"}, "geometry": {"type": "Polygon", "coordinates": [[[-88.547792, 42.844158], [-88.542316, 42.844158], [-88.306807, 42.844158], [-88.306807, 42.60865], [-88.306807, 42.493634], [-88.706624, 42.493634], [-88.777824, 42.493634], [-88.777824, 42.844158], [-88.547792, 42.844158]]]}}, {"type": "Feature", "properties": {"name": "Klamath", "id": "41035", "FIPS": "41035", "FIPS State": 41, "ST": "OR", "County": "Klamath County,OR", "State": "Oregon"}, "geometry": {"type": "Polygon", "coordinates": [[[-121.486112, 43.616407], [-121.332757, 43.616407], [-121.349188, 42.745573], [-120.883648, 42.745573], [-120.878171, 41.995232], [-121.316327, 41.995232], [-121.447773, 41.995232], [-122.291222, 42.006186], [-122.280268, 42.992036], [-122.280268, 42.997512], [-122.132391, 43.441145], [-122.000944, 43.616407], [-121.486112, 43.616407]]]}}, {"type": "Feature", "properties": {"name": "Beltrami", "id": "27007", "FIPS": "27007", "FIPS State": 27, "ST": "MN", "County": "Beltrami County,MN", "State": "Minnesota"}, "geometry": {"type": "Polygon", "coordinates": [[[-95.344675, 48.540176], [-94.430026, 48.364914], [-94.419073, 47.844605], [-94.413596, 47.444788], [-94.671012, 47.411926], [-95.185844, 47.411926], [-95.22966, 48.019867], [-95.580184, 48.019867], [-95.591138, 48.173221], [-95.602092, 48.540176], [-95.344675, 48.540176]]]}}, {"type": "Feature", "properties": {"name": "Jackson", "id": "17077", "FIPS": "17077", "FIPS State": 17, "ST": "IL", "County": "Jackson County,IL", "State": "Illinois"}, "geometry": {"type": "Polygon", "coordinates": [[[-89.566503, 37.95325], [-89.177641, 37.947773], [-89.150256, 37.860142], [-89.155733, 37.602726], [-89.522688, 37.569865], [-89.676042, 37.805373], [-89.593888, 37.95325], [-89.566503, 37.95325]]]}}, {"type": "Feature", "properties": {"name": "Northumberland", "id": "42097", "FIPS": "42097", "FIPS State": 42, "ST": "PA", "County": "Northumberland County,PA", "State": "Pennsylvania"}, "geometry": {"type": "Polygon", "coordinates": [[[-76.799755, 41.173691], [-76.734032, 41.173691], [-76.525908, 40.883413], [-76.378031, 40.773875], [-76.70117, 40.658859], [-76.947633, 40.625997], [-76.936679, 40.636951], [-76.799755, 40.883413], [-76.89834, 41.14083], [-76.799755, 41.173691]]]}}, {"type": "Feature", "properties": {"name": "Carbon", "id": "42025", "FIPS": "42025", "FIPS State": 42, "ST": "PA", "County": "Carbon County,PA", "State": "Pennsylvania"}, "geometry": {"type": "Polygon", "coordinates": [[[-75.687936, 41.129876], [-75.649598, 41.124399], [-75.474336, 40.812213], [-75.611259, 40.784829], [-75.759137, 40.735536], [-75.994645, 40.910798], [-75.687936, 41.129876]]]}}, {"type": "Feature", "properties": {"name": "Faulkner", "id": "05045", "FIPS": "05045", "FIPS State": 5, "ST": "AR", "County": "Faulkner County,AR", "State": "Arkansas"}, "geometry": {"type": "Polygon", "coordinates": [[[-92.480236, 35.368135], [-92.250204, 35.362658], [-92.113281, 35.362658], [-92.118758, 35.066903], [-92.118758, 35.012133], [-92.228296, 34.957364], [-92.545959, 34.951887], [-92.556913, 35.110718], [-92.480236, 35.368135], [-92.480236, 35.368135]]]}}, {"type": "Feature", "properties": {"name": "Wilson", "id": "37195", "FIPS": "37195", "FIPS State": 37, "ST": "NC", "County": "Wilson County,NC", "State": "North Carolina"}, "geometry": {"type": "Polygon", "coordinates": [[[-77.82942, 35.866536], [-77.659635, 35.674843], [-77.697974, 35.652935], [-77.823943, 35.570781], [-78.064929, 35.587212], [-78.190898, 35.729613], [-77.82942, 35.866536], [-77.82942, 35.866536]]]}}, {"type": "Feature", "properties": {"name": "Henderson", "id": "37089", "FIPS": "37089", "FIPS State": 37, "ST": "NC", "County": "Henderson County,NC", "State": "North Carolina"}, "geometry": {"type": "Polygon", "coordinates": [[[-82.408142, 35.472196], [-82.265742, 35.466719], [-82.260265, 35.395519], [-82.353373, 35.192872], [-82.572451, 35.14358], [-82.747713, 35.422904], [-82.408142, 35.472196]]]}}, {"type": "Feature", "properties": {"name": "Burke", "id": "37023", "FIPS": "37023", "FIPS State": 37, "ST": "NC", "County": "Burke County,NC", "State": "North Carolina"}, "geometry": {"type": "Polygon", "coordinates": [[[-81.898787, 35.997983], [-81.805679, 35.959644], [-81.362047, 35.767951], [-81.531832, 35.570781], [-81.537309, 35.565304], [-81.586601, 35.565304], [-81.690663, 35.581735], [-81.82211, 35.576258], [-81.942602, 35.959644], [-81.898787, 35.997983]]]}}, {"type": "Feature", "properties": {"name": "Jackson", "id": "37099", "FIPS": "37099", "FIPS State": 37, "ST": "NC", "County": "Jackson County,NC", "State": "North Carolina"}, "geometry": {"type": "Polygon", "coordinates": [[[-83.207776, 35.516012], [-83.185868, 35.516012], [-82.922975, 35.291457], [-83.010606, 35.028564], [-83.109191, 35.00118], [-83.339222, 35.329796], [-83.207776, 35.516012]]]}}, {"type": "Feature", "properties": {"name": "Columbia", "id": "55021", "FIPS": "55021", "FIPS State": 55, "ST": "WI", "County": "Columbia County,WI", "State": "Wisconsin"}, "geometry": {"type": "Polygon", "coordinates": [[[-89.243364, 43.643791], [-89.007855, 43.632838], [-89.007855, 43.282313], [-89.413149, 43.293267], [-89.719858, 43.293267], [-89.785581, 43.638314], [-89.599365, 43.643791], [-89.243364, 43.643791]]]}}, {"type": "Feature", "properties": {"name": "Vernon", "id": "22115", "FIPS": "22115", "FIPS State": 22, "ST": "LA", "County": "Vernon County,LA", "State": "Louisiana"}, "geometry": {"type": "Polygon", "coordinates": [[[-93.236053, 31.364491], [-92.984114, 31.34806], [-92.825283, 30.887997], [-92.978637, 30.877043], [-93.011499, 30.877043], [-93.559193, 30.86609], [-93.553716, 31.183752], [-93.236053, 31.364491]]]}}, {"type": "Feature", "properties": {"name": "Windsor", "id": "50027", "FIPS": "50027", "FIPS State": 50, "ST": "VT", "County": "Windsor County,VT", "State": "Vermont"}, "geometry": {"type": "Polygon", "coordinates": [[[-72.790635, 43.961454], [-72.204602, 43.769761], [-72.330572, 43.599976], [-72.434634, 43.233021], [-72.81802, 43.254929], [-72.867312, 43.298744], [-72.96042, 43.82453], [-72.790635, 43.961454]]]}}, {"type": "Feature", "properties": {"name": "Robertson", "id": "47147", "FIPS": "47147", "FIPS State": 47, "ST": "TN", "County": "Robertson County,TN", "State": "Tennessee"}, "geometry": {"type": "Polygon", "coordinates": [[[-86.76231, 36.649739], [-86.56514, 36.633308], [-86.756833, 36.403276], [-86.76231, 36.403276], [-86.915664, 36.381369], [-87.118311, 36.458046], [-87.112834, 36.644262], [-87.058065, 36.644262], [-86.76231, 36.649739]]]}}, {"type": "Feature", "properties": {"name": "Monroe", "id": "55081", "FIPS": "55081", "FIPS State": 55, "ST": "WI", "County": "Monroe County,WI", "State": "Wisconsin"}, "geometry": {"type": "Polygon", "coordinates": [[[-90.492106, 44.158624], [-90.311367, 44.153147], [-90.311367, 43.731422], [-90.908354, 43.725946], [-90.974077, 44.070993], [-90.492106, 44.158624]]]}}, {"type": "Feature", "properties": {"name": "Sauk", "id": "55111", "FIPS": "55111", "FIPS State": 55, "ST": "WI", "County": "Sauk County,WI", "State": "Wisconsin"}, "geometry": {"type": "Polygon", "coordinates": [[[-90.294936, 43.643791], [-89.785581, 43.638314], [-89.719858, 43.293267], [-89.84035, 43.205636], [-90.196352, 43.161821], [-90.190875, 43.55616], [-90.311367, 43.55616], [-90.311367, 43.638314], [-90.294936, 43.643791]]]}}, {"type": "Feature", "properties": {"name": "Allen", "id": "39003", "FIPS": "39003", "FIPS State": 39, "ST": "OH", "County": "Allen County,OH", "State": "Ohio"}, "geometry": {"type": "Polygon", "coordinates": [[[-83.881439, 40.921752], [-83.881439, 40.81769], [-83.881439, 40.642428], [-84.253871, 40.686244], [-84.396272, 40.686244], [-84.341502, 40.861506], [-83.881439, 40.921752]]]}}, {"type": "Feature", "properties": {"name": "Itasca", "id": "27061", "FIPS": "27061", "FIPS State": 27, "ST": "MN", "County": "Itasca County,MN", "State": "Minnesota"}, "geometry": {"type": "Polygon", "coordinates": [[[-93.597531, 47.899374], [-93.082699, 47.893897], [-93.055314, 47.028541], [-93.712547, 47.028541], [-93.772794, 47.028541], [-94.052118, 47.428357], [-94.413596, 47.444788], [-94.419073, 47.844605], [-93.597531, 47.899374]]]}}, {"type": "Feature", "properties": {"name": "Randolph", "id": "29175", "FIPS": "29175", "FIPS State": 29, "ST": "MO", "County": "Randolph County,MO", "State": "Missouri"}, "geometry": {"type": "Polygon", "coordinates": [[[-92.693836, 39.612763], [-92.299497, 39.607286], [-92.31045, 39.34987], [-92.315927, 39.245808], [-92.430943, 39.251285], [-92.70479, 39.322485], [-92.693836, 39.612763]]]}}, {"type": "Feature", "properties": {"name": "Whitman", "id": "53075", "FIPS": "53075", "FIPS State": 53, "ST": "WA", "County": "Whitman County,WA", "State": "Washington"}, "geometry": {"type": "Polygon", "coordinates": [[[-117.822039, 47.258572], [-117.038836, 47.258572], [-117.038836, 47.127126], [-117.038836, 46.541093], [-117.038836, 46.426077], [-117.230529, 46.464416], [-117.849423, 46.623247], [-118.216378, 46.590385], [-118.210901, 46.738263], [-117.958962, 47.258572], [-117.822039, 47.258572]]]}}, {"type": "Feature", "properties": {"name": "Madison", "id": "18095", "FIPS": "18095", "FIPS State": 18, "ST": "IN", "County": "Madison County,IN", "State": "Indiana"}, "geometry": {"type": "Polygon", "coordinates": [[[-85.672399, 40.379535], [-85.579291, 40.379535], [-85.573814, 40.078303], [-85.573814, 39.946857], [-85.617629, 39.946857], [-85.864092, 39.94138], [-85.864092, 40.220704], [-85.864092, 40.379535], [-85.672399, 40.379535]]]}}, {"type": "Feature", "properties": {"name": "Benton", "id": "41003", "FIPS": "41003", "FIPS State": 41, "ST": "OR", "County": "Benton County,OR", "State": "Oregon"}, "geometry": {"type": "Polygon", "coordinates": [[[-123.561872, 44.722749], [-123.151102, 44.722749], [-123.200394, 44.284593], [-123.775473, 44.284593], [-123.600211, 44.722749], [-123.561872, 44.722749]]]}}, {"type": "Feature", "properties": {"name": "Cheshire", "id": "33005", "FIPS": "33005", "FIPS State": 33, "ST": "NH", "County": "Cheshire County,NH", "State": "New Hampshire"}, "geometry": {"type": "Polygon", "coordinates": [[[-72.199125, 43.178252], [-72.040294, 43.128959], [-71.930755, 42.712712], [-72.28128, 42.723665], [-72.456542, 42.729142], [-72.451065, 43.161821], [-72.199125, 43.178252]]]}}, {"type": "Feature", "properties": {"name": "Lawrence", "id": "42073", "FIPS": "42073", "FIPS State": 42, "ST": "PA", "County": "Lawrence County,PA", "State": "Pennsylvania"}, "geometry": {"type": "Polygon", "coordinates": [[[-80.518598, 41.124399], [-80.096873, 41.069629], [-80.15712, 40.856029], [-80.255705, 40.856029], [-80.518598, 40.850552], [-80.518598, 40.899844], [-80.518598, 41.124399]]]}}, {"type": "Feature", "properties": {"name": "Douglas", "id": "41019", "FIPS": "41019", "FIPS State": 41, "ST": "OR", "County": "Douglas County,OR", "State": "Oregon"}, "geometry": {"type": "Polygon", "coordinates": [[[-123.824765, 43.945023], [-123.140148, 43.780715], [-123.107286, 43.53973], [-122.132391, 43.441145], [-122.280268, 42.997512], [-123.227779, 42.701758], [-123.715227, 42.783912], [-123.813811, 42.789389], [-123.874058, 43.61093], [-124.147905, 43.61093], [-124.219105, 43.61093], [-124.158859, 43.862869], [-123.824765, 43.945023]]]}}, {"type": "Feature", "properties": {"name": "York", "id": "51199", "FIPS": "51199", "FIPS State": 51, "ST": "VA", "County": "York County,VA", "State": "Virginia"}, "geometry": {"type": "Polygon", "coordinates": [[[-76.657355, 37.378172], [-76.498524, 37.241248], [-76.399939, 37.164571], [-76.394462, 37.104325], [-76.4328, 37.093371], [-76.55877, 37.213863], [-76.591632, 37.213863], [-76.679263, 37.268633], [-76.728555, 37.306971], [-76.657355, 37.378172]]]}}, {"type": "Feature", "properties": {"name": "Russell", "id": "01113", "FIPS": "01113", "FIPS State": 1, "ST": "AL", "County": "Russell County,AL", "State": "Alabama"}, "geometry": {"type": "Polygon", "coordinates": [[[-85.020643, 32.509172], [-84.998735, 32.509172], [-84.982304, 32.372248], [-84.922058, 32.229848], [-85.053504, 32.06554], [-85.354736, 32.147694], [-85.409506, 32.147694], [-85.431413, 32.235325], [-85.431413, 32.410587], [-85.020643, 32.509172]]]}}, {"type": "Feature", "properties": {"name": "Humboldt", "id": "06023", "FIPS": "06023", "FIPS State": 6, "ST": "CA", "County": "Humboldt County,CA", "State": "California"}, "geometry": {"type": "Polygon", "coordinates": [[[-124.054797, 41.463969], [-123.660457, 41.381815], [-123.408518, 41.179168], [-123.545441, 40.001626], [-124.021935, 40.001626], [-124.410798, 40.439781], [-124.065751, 41.463969], [-124.054797, 41.463969]]]}}, {"type": "Feature", "properties": {"name": "Lafourche", "id": "22057", "FIPS": "22057", "FIPS State": 22, "ST": "LA", "County": "Lafourche County,LA", "State": "Louisiana"}, "geometry": {"type": "Polygon", "coordinates": [[[-90.727615, 29.913102], [-90.656414, 29.891194], [-90.541399, 29.891194], [-90.229213, 29.694024], [-90.032043, 29.431131], [-90.064905, 29.212054], [-90.086813, 29.162761], [-90.409952, 29.195623], [-90.815246, 29.776178], [-91.006939, 29.715932], [-90.886446, 29.907625], [-90.727615, 29.913102]]]}}, {"type": "Feature", "properties": {"name": "Warren", "id": "28149", "FIPS": "28149", "FIPS State": 28, "ST": "MS", "County": "Warren County,MS", "State": "Mississippi"}, "geometry": {"type": "Polygon", "coordinates": [[[-91.045277, 32.574895], [-90.722138, 32.61871], [-90.552353, 32.509172], [-90.727615, 32.224371], [-91.028846, 32.114832], [-91.028846, 32.120309], [-91.050754, 32.125786], [-91.121954, 32.213417], [-91.067185, 32.563941], [-91.045277, 32.574895]]]}}, {"type": "Feature", "properties": {"name": "Eagle", "id": "08037", "FIPS": "08037", "FIPS State": 8, "ST": "CO", "County": "Eagle County,CO", "State": "Colorado"}, "geometry": {"type": "Polygon", "coordinates": [[[-106.627173, 39.924949], [-106.43548, 39.924949], [-106.205448, 39.377255], [-106.424526, 39.360824], [-107.04342, 39.366301], [-107.11462, 39.366301], [-107.032466, 39.919472], [-106.627173, 39.924949]]]}}, {"type": "Feature", "properties": {"name": "Camden", "id": "13039", "FIPS": "13039", "FIPS State": 13, "ST": "GA", "County": "Camden County,GA", "State": "Georgia"}, "geometry": {"type": "Polygon", "coordinates": [[[-81.76734, 31.167321], [-81.444201, 31.013967], [-81.444201, 30.707258], [-81.904264, 30.816797], [-81.937125, 31.046829], [-81.76734, 31.167321]]]}}, {"type": "Feature", "properties": {"name": "Carroll", "id": "13045", "FIPS": "13045", "FIPS State": 13, "ST": "GA", "County": "Carroll County,GA", "State": "Georgia"}, "geometry": {"type": "Polygon", "coordinates": [[[-85.037074, 33.812683], [-84.90015, 33.779822], [-84.807042, 33.571698], [-84.850858, 33.511452], [-85.015166, 33.423821], [-85.29449, 33.429298], [-85.305444, 33.484067], [-85.338305, 33.653852], [-85.037074, 33.812683]]]}}, {"type": "Feature", "properties": {"name": "Simpson", "id": "28127", "FIPS": "28127", "FIPS State": 28, "ST": "MS", "County": "Simpson County,MS", "State": "Mississippi"}, "geometry": {"type": "Polygon", "coordinates": [[[-90.190875, 32.049109], [-89.730812, 32.049109], [-89.654134, 31.780739], [-89.752719, 31.775262], [-89.977274, 31.764308], [-90.125151, 31.753354], [-90.229213, 32.049109], [-90.190875, 32.049109]]]}}, {"type": "Feature", "properties": {"name": "Johnson", "id": "48251", "FIPS": "48251", "FIPS State": 48, "ST": "TX", "County": "Johnson County,TX", "State": "Texas"}, "geometry": {"type": "Polygon", "coordinates": [[[-97.551882, 32.552987], [-97.086342, 32.54751], [-97.086342, 32.268186], [-97.113727, 32.257232], [-97.475205, 32.175078], [-97.617606, 32.202463], [-97.617606, 32.317479], [-97.617606, 32.552987], [-97.551882, 32.552987]]]}}, {"type": "Feature", "properties": {"name": "Ellis", "id": "48139", "FIPS": "48139", "FIPS State": 48, "ST": "TX", "County": "Ellis County,TX", "State": "Texas"}, "geometry": {"type": "Polygon", "coordinates": [[[-97.086342, 32.54751], [-97.03705, 32.54751], [-96.527695, 32.54751], [-96.451017, 32.361294], [-96.385294, 32.328433], [-96.89465, 32.076493], [-97.086342, 32.268186], [-97.086342, 32.54751]]]}}, {"type": "Feature", "properties": {"name": "Livingston", "id": "22063", "FIPS": "22063", "FIPS State": 22, "ST": "LA", "County": "Livingston County,LA", "State": "Louisiana"}, "geometry": {"type": "Polygon", "coordinates": [[[-90.744046, 30.652489], [-90.568783, 30.652489], [-90.398998, 30.285534], [-90.634507, 30.219811], [-90.891923, 30.34578], [-90.908354, 30.647012], [-90.744046, 30.652489]]]}}, {"type": "Feature", "properties": {"name": "Kaufman", "id": "48257", "FIPS": "48257", "FIPS State": 48, "ST": "TX", "County": "Kaufman County,TX", "State": "Texas"}, "geometry": {"type": "Polygon", "coordinates": [[[-96.297663, 32.843265], [-96.078585, 32.837788], [-96.078585, 32.355817], [-96.215509, 32.361294], [-96.451017, 32.361294], [-96.527695, 32.54751], [-96.516741, 32.81588], [-96.297663, 32.843265]]]}}, {"type": "Feature", "properties": {"name": "Lamoille", "id": "50015", "FIPS": "50015", "FIPS State": 50, "ST": "VT", "County": "Lamoille County,VT", "State": "Vermont"}, "geometry": {"type": "Polygon", "coordinates": [[[-72.675619, 44.793949], [-72.577034, 44.782995], [-72.374388, 44.585825], [-72.434634, 44.503671], [-72.807066, 44.454379], [-72.922082, 44.635118], [-72.675619, 44.793949]]]}}, {"type": "Feature", "properties": {"name": "Wilson", "id": "47189", "FIPS": "47189", "FIPS State": 47, "ST": "TN", "County": "Wilson County,TN", "State": "Tennessee"}, "geometry": {"type": "Polygon", "coordinates": [[[-86.36797, 36.353984], [-86.285816, 36.348507], [-86.137939, 36.293737], [-86.061262, 36.085614], [-86.017446, 35.959644], [-86.15437, 35.954167], [-86.515848, 36.102045], [-86.592525, 36.244445], [-86.36797, 36.353984]]]}}, {"type": "Feature", "properties": {"name": "Grayson", "id": "21085", "FIPS": "21085", "FIPS State": 21, "ST": "KY", "County": "Grayson County,KY", "State": "Kentucky"}, "geometry": {"type": "Polygon", "coordinates": [[[-86.472032, 37.602726], [-86.274862, 37.591772], [-86.044831, 37.449372], [-86.159846, 37.334356], [-86.466555, 37.323402], [-86.614433, 37.394602], [-86.592525, 37.564388], [-86.472032, 37.602726]]]}}, {"type": "Feature", "properties": {"name": "Escambia", "id": "01053", "FIPS": "01053", "FIPS State": 1, "ST": "AL", "County": "Escambia County,AL", "State": "Alabama"}, "geometry": {"type": "Polygon", "coordinates": [[[-86.948526, 31.260429], [-86.702064, 31.194706], [-86.685633, 30.992059], [-86.784218, 30.997536], [-87.162127, 30.997536], [-87.249758, 30.997536], [-87.600282, 30.997536], [-87.616713, 31.243998], [-87.42502, 31.260429], [-86.948526, 31.260429]]]}}, {"type": "Feature", "properties": {"name": "Clinton", "id": "36019", "FIPS": "36019", "FIPS State": 36, "ST": "NY", "County": "Clinton County,NY", "State": "New York"}, "geometry": {"type": "Polygon", "coordinates": [[[-73.343806, 45.013027], [-73.360237, 44.563917], [-73.338329, 44.547487], [-73.907931, 44.426994], [-74.028424, 44.996596], [-73.343806, 45.013027]]]}}, {"type": "Feature", "properties": {"name": "Webster", "id": "19187", "FIPS": "19187", "FIPS State": 19, "ST": "IA", "County": "Webster County,IA", "State": "Iowa"}, "geometry": {"type": "Polygon", "coordinates": [[[-94.44098, 42.646988], [-93.969963, 42.646988], [-93.969963, 42.559357], [-93.931625, 42.208833], [-94.167133, 42.208833], [-94.397165, 42.208833], [-94.44098, 42.559357], [-94.44098, 42.646988]]]}}, {"type": "Feature", "properties": {"name": "Fairfield", "id": "39045", "FIPS": "39045", "FIPS State": 39, "ST": "OH", "County": "Fairfield County,OH", "State": "Ohio"}, "geometry": {"type": "Polygon", "coordinates": [[[-82.797005, 39.94138], [-82.780574, 39.94138], [-82.462912, 39.930426], [-82.375281, 39.656579], [-82.731282, 39.552517], [-82.82439, 39.793502], [-82.797005, 39.94138]]]}}, {"type": "Feature", "properties": {"name": "Saline", "id": "05125", "FIPS": "05125", "FIPS State": 5, "ST": "AR", "County": "Saline County,AR", "State": "Arkansas"}, "geometry": {"type": "Polygon", "coordinates": [[[-92.967683, 34.858779], [-92.737652, 34.853302], [-92.244727, 34.491824], [-92.392605, 34.497301], [-92.666452, 34.415147], [-92.792421, 34.502778], [-93.077222, 34.771148], [-92.967683, 34.858779]]]}}, {"type": "Feature", "properties": {"name": "Monroe", "id": "26115", "FIPS": "26115", "FIPS State": 26, "ST": "MI", "County": "Monroe County,MI", "State": "Michigan"}, "geometry": {"type": "Polygon", "coordinates": [[[-83.421376, 42.093817], [-83.185868, 42.033571], [-83.454238, 41.732339], [-83.760947, 41.721385], [-83.7719, 42.082863], [-83.541869, 42.082863], [-83.421376, 42.093817]]]}}, {"type": "Feature", "properties": {"name": "Goodhue", "id": "27049", "FIPS": "27049", "FIPS State": 27, "ST": "MN", "County": "Goodhue County,MN", "State": "Minnesota"}, "geometry": {"type": "Polygon", "coordinates": [[[-92.732175, 44.711795], [-92.315927, 44.54201], [-92.244727, 44.454379], [-92.430943, 44.454379], [-92.551436, 44.196962], [-92.666452, 44.196962], [-92.677405, 44.196962], [-92.918391, 44.196962], [-93.038884, 44.196962], [-93.038884, 44.470809], [-92.732175, 44.711795]]]}}, {"type": "Feature", "properties": {"name": "Juneau", "id": "02110", "FIPS": "02110", "FIPS State": 2, "ST": "AK", "County": "Juneau County,AK", "State": "Alaska"}, "geometry": {"type": "Polygon", "coordinates": [[[-135.178463, 58.973748], [-134.329537, 58.962794], [-133.382026, 58.426053], [-133.173903, 58.152206], [-133.529904, 57.911221], [-133.601104, 57.861929], [-135.074401, 58.502731], [-135.178463, 58.973748]]]}}, {"type": "Feature", "properties": {"name": "Fillmore", "id": "27045", "FIPS": "27045", "FIPS State": 27, "ST": "MN", "County": "Fillmore County,MN", "State": "Minnesota"}, "geometry": {"type": "Polygon", "coordinates": [[[-92.381651, 43.846438], [-92.080419, 43.846438], [-91.729895, 43.846438], [-91.729895, 43.501391], [-91.850387, 43.501391], [-92.080419, 43.501391], [-92.447374, 43.501391], [-92.447374, 43.835484], [-92.381651, 43.846438]]]}}, {"type": "Feature", "properties": {"name": "Columbia", "id": "42037", "FIPS": "42037", "FIPS State": 42, "ST": "PA", "County": "Columbia County,PA", "State": "Pennsylvania"}, "geometry": {"type": "Polygon", "coordinates": [[[-76.317785, 41.310615], [-76.312308, 41.310615], [-76.208246, 40.949137], [-76.378031, 40.773875], [-76.525908, 40.883413], [-76.640924, 41.157261], [-76.449231, 41.277753], [-76.317785, 41.310615]]]}}, {"type": "Feature", "properties": {"name": "Ward", "id": "38101", "FIPS": "38101", "FIPS State": 38, "ST": "ND", "County": "Ward County,ND", "State": "North Dakota"}, "geometry": {"type": "Polygon", "coordinates": [[[-102.152512, 48.808546], [-102.021066, 48.808546], [-101.840327, 48.458022], [-101.062601, 48.458022], [-100.969493, 47.850082], [-101.873188, 47.850082], [-101.971773, 48.545653], [-102.234666, 48.545653], [-102.152512, 48.808546]]]}}, {"type": "Feature", "properties": {"name": "Yamhill", "id": "41071", "FIPS": "41071", "FIPS State": 41, "ST": "OR", "County": "Yamhill County,OR", "State": "Oregon"}, "geometry": {"type": "Polygon", "coordinates": [[[-123.063471, 45.401889], [-122.866301, 45.319735], [-122.84987, 45.259489], [-122.964886, 45.286874], [-123.068948, 45.073273], [-123.622119, 45.07875], [-123.72618, 45.07875], [-123.463287, 45.434751], [-123.063471, 45.401889]]]}}, {"type": "Feature", "properties": {"name": "Franklin", "id": "37069", "FIPS": "37069", "FIPS State": 37, "ST": "NC", "County": "Franklin County,NC", "State": "North Carolina"}, "geometry": {"type": "Polygon", "coordinates": [[[-78.163514, 36.249922], [-78.004682, 36.200629], [-78.053975, 36.134906], [-78.256622, 35.817244], [-78.546899, 36.01989], [-78.497607, 36.173245], [-78.305914, 36.266353], [-78.163514, 36.249922]]]}}, {"type": "Feature", "properties": {"name": "Kendall", "id": "17093", "FIPS": "17093", "FIPS State": 17, "ST": "IL", "County": "Kendall County,IL", "State": "Illinois"}, "geometry": {"type": "Polygon", "coordinates": [[[-88.262992, 41.726862], [-88.262992, 41.726862], [-88.252038, 41.463969], [-88.279422, 41.463969], [-88.597085, 41.458492], [-88.602562, 41.633754], [-88.602562, 41.721385], [-88.262992, 41.726862]]]}}, {"type": "Feature", "properties": {"name": "Poweshiek", "id": "19157", "FIPS": "19157", "FIPS State": 19, "ST": "IA", "County": "Poweshiek County,IA", "State": "Iowa"}, "geometry": {"type": "Polygon", "coordinates": [[[-92.299497, 41.863786], [-92.299497, 41.507785], [-92.414512, 41.507785], [-92.458328, 41.507785], [-92.754083, 41.507785], [-92.765037, 41.863786], [-92.299497, 41.863786]]]}}]}