{"type": "FeatureCollection", "crs": {"type": "name", "properties": {"name": "urn:ogc:def:crs:OGC:1.3:CRS84"}}, "features": [{"type": "Feature", "properties": {"name": "Wapello", "id": "19179", "FIPS": "19179", "FIPS State": 19, "ST": "IA", "County": "Wapello County,IA", "State": "Iowa"}, "geometry": {"type": "Polygon", "coordinates": [[[-92.261158, 41.162737], [-92.179004, 41.162737], [-92.179004, 40.899844], [-92.639067, 40.899844], [-92.639067, 41.162737], [-92.409035, 41.162737], [-92.261158, 41.162737]]]}}, {"type": "Feature", "properties": {"name": "Benzie", "id": "26019", "FIPS": "26019", "FIPS State": 26, "ST": "MI", "County": "Benzie County,MI", "State": "Michigan"}, "geometry": {"type": "Polygon", "coordinates": [[[-86.039354, 44.777518], [-85.814799, 44.772041], [-85.814799, 44.514625], [-86.181754, 44.520102], [-86.231047, 44.520102], [-86.072215, 44.777518], [-86.039354, 44.777518]]]}}, {"type": "Feature", "properties": {"name": "Clay", "id": "37043", "FIPS": "37043", "FIPS State": 37, "ST": "NC", "County": "Clay County,NC", "State": "North Carolina"}, "geometry": {"type": "Polygon", "coordinates": [[[-83.739039, 35.154534], [-83.481623, 34.995703], [-83.547346, 34.990226], [-83.936209, 34.984749], [-84.007409, 34.984749], [-83.739039, 35.154534]]]}}, {"type": "Feature", "properties": {"name": "Greene", "id": "18055", "FIPS": "18055", "FIPS State": 18, "ST": "IN", "County": "Greene County,IN", "State": "Indiana"}, "geometry": {"type": "Polygon", "coordinates": [[[-87.211419, 39.169131], [-87.052588, 39.169131], [-86.685633, 39.163654], [-86.680156, 38.993869], [-86.680156, 38.906238], [-86.756833, 38.906238], [-86.90471, 38.906238], [-87.096403, 38.906238], [-87.238804, 38.906238], [-87.238804, 39.169131], [-87.211419, 39.169131]]]}}, {"type": "Feature", "properties": {"name": "Arenac", "id": "26011", "FIPS": "26011", "FIPS State": 26, "ST": "MI", "County": "Arenac County,MI", "State": "Michigan"}, "geometry": {"type": "Polygon", "coordinates": [[[-83.569254, 44.164101], [-83.563777, 44.164101], [-83.908824, 43.912162], [-84.105994, 43.999793], [-84.16624, 43.994316], [-84.16624, 44.164101], [-83.886916, 44.164101], [-83.569254, 44.164101]]]}}, {"type": "Feature", "properties": {"name": "Edgecombe", "id": "37065", "FIPS": "37065", "FIPS State": 37, "ST": "NC", "County": "Edgecombe County,NC", "State": "North Carolina"}, "geometry": {"type": "Polygon", "coordinates": [[[-77.697974, 36.151337], [-77.402219, 36.00346], [-77.352926, 35.817244], [-77.413173, 35.822721], [-77.659635, 35.674843], [-77.82942, 35.866536], [-77.82942, 35.866536], [-77.697974, 36.151337]]]}}, {"type": "Feature", "properties": {"name": "Perquimans", "id": "37143", "FIPS": "37143", "FIPS State": 37, "ST": "NC", "County": "Perquimans County,NC", "State": "North Carolina"}, "geometry": {"type": "Polygon", "coordinates": [[[-76.454708, 36.375892], [-76.191815, 36.118475], [-76.410893, 36.07466], [-76.55877, 36.353984], [-76.454708, 36.375892]]]}}, {"type": "Feature", "properties": {"name": "Polk", "id": "37149", "FIPS": "37149", "FIPS State": 37, "ST": "NC", "County": "Polk County,NC", "State": "North Carolina"}, "geometry": {"type": "Polygon", "coordinates": [[[-82.09048, 35.357181], [-81.969987, 35.187396], [-82.216449, 35.198349], [-82.353373, 35.192872], [-82.260265, 35.395519], [-82.09048, 35.357181]]]}}, {"type": "Feature", "properties": {"name": "Surry", "id": "37171", "FIPS": "37171", "FIPS State": 37, "ST": "NC", "County": "Surry County,NC", "State": "North Carolina"}, "geometry": {"type": "Polygon", "coordinates": [[[-80.83626, 36.556631], [-80.611706, 36.556631], [-80.441921, 36.551154], [-80.452875, 36.260876], [-80.452875, 36.238968], [-80.874599, 36.238968], [-80.967707, 36.403276], [-80.901984, 36.562108], [-80.83626, 36.556631], [-80.83626, 36.556631]]]}}, {"type": "Feature", "properties": {"name": "Burke", "id": "13033", "FIPS": "13033", "FIPS State": 13, "ST": "GA", "County": "Burke County,GA", "State": "Georgia"}, "geometry": {"type": "Polygon", "coordinates": [[[-82.189065, 33.292374], [-81.849494, 33.248559], [-81.756386, 33.199266], [-81.613986, 33.095204], [-81.542786, 33.045912], [-81.76734, 32.908988], [-81.860448, 32.952804], [-82.145249, 32.810403], [-82.315034, 32.837788], [-82.265742, 33.264989], [-82.189065, 33.292374]]]}}, {"type": "Feature", "properties": {"name": "Washington", "id": "37187", "FIPS": "37187", "FIPS State": 37, "ST": "NC", "County": "Washington County,NC", "State": "North Carolina"}, "geometry": {"type": "Polygon", "coordinates": [[[-76.367077, 35.943213], [-76.394462, 35.696751], [-76.635447, 35.707705], [-76.640924, 35.707705], [-76.843571, 35.707705], [-76.761417, 35.866536], [-76.690217, 35.943213], [-76.367077, 35.943213]]]}}, {"type": "Feature", "properties": {"name": "Logan", "id": "38047", "FIPS": "38047", "FIPS State": 38, "ST": "ND", "County": "Logan County,ND", "State": "North Dakota"}, "geometry": {"type": "Polygon", "coordinates": [[[-99.917921, 46.634201], [-99.452381, 46.634201], [-99.036133, 46.628724], [-99.036133, 46.283677], [-99.348319, 46.283677], [-99.879582, 46.283677], [-99.917921, 46.634201]]]}}, {"type": "Feature", "properties": {"name": "Richland", "id": "22083", "FIPS": "22083", "FIPS State": 22, "ST": "LA", "County": "Richland County,LA", "State": "Louisiana"}, "geometry": {"type": "Polygon", "coordinates": [[[-91.598448, 32.668003], [-91.445094, 32.580372], [-91.456048, 32.536556], [-91.477956, 32.40511], [-91.57654, 32.40511], [-91.894203, 32.153171], [-92.036603, 32.27914], [-91.910634, 32.503695], [-91.636787, 32.668003], [-91.598448, 32.668003]]]}}, {"type": "Feature", "properties": {"name": "Nelson", "id": "38063", "FIPS": "38063", "FIPS State": 38, "ST": "ND", "County": "Nelson County,ND", "State": "North Dakota"}, "geometry": {"type": "Polygon", "coordinates": [[[-97.91336, 48.195129], [-97.902407, 48.195129], [-97.880499, 47.67482], [-97.979084, 47.67482], [-97.984561, 47.67482], [-98.11053, 47.67482], [-98.499393, 47.67482], [-98.526778, 47.844605], [-98.526778, 47.915805], [-98.291269, 48.195129], [-97.91336, 48.195129]]]}}, {"type": "Feature", "properties": {"name": "Pointe Coupee", "id": "22077", "FIPS": "22077", "FIPS State": 22, "ST": "LA", "County": "Pointe Coupee County,LA", "State": "Louisiana"}, "geometry": {"type": "Polygon", "coordinates": [[[-91.762756, 31.00849], [-91.751803, 31.019444], [-91.658695, 30.992059], [-91.664172, 30.970151], [-91.330078, 30.657966], [-91.483432, 30.499135], [-91.521771, 30.499135], [-91.70251, 30.499135], [-91.75728, 30.499135], [-91.817526, 30.849659], [-91.762756, 31.00849]]]}}, {"type": "Feature", "properties": {"name": "Pierce", "id": "38069", "FIPS": "38069", "FIPS State": 38, "ST": "ND", "County": "Pierce County,ND", "State": "North Dakota"}, "geometry": {"type": "Polygon", "coordinates": [[[-99.616689, 48.545653], [-99.490719, 48.545653], [-99.490719, 48.370391], [-99.819336, 48.370391], [-99.813859, 47.850082], [-100.000075, 47.850082], [-100.071275, 47.844605], [-100.197245, 47.850082], [-100.279399, 48.545653], [-100.147952, 48.545653], [-99.616689, 48.545653]]]}}, {"type": "Feature", "properties": {"name": "Ransom", "id": "38073", "FIPS": "38073", "FIPS State": 38, "ST": "ND", "County": "Ransom County,ND", "State": "North Dakota"}, "geometry": {"type": "Polygon", "coordinates": [[[-97.957176, 46.628724], [-97.683329, 46.628724], [-97.278035, 46.628724], [-97.278035, 46.283677], [-98.006468, 46.283677], [-98.033853, 46.283677], [-98.033853, 46.628724], [-97.957176, 46.628724]]]}}, {"type": "Feature", "properties": {"name": "Walsh", "id": "38099", "FIPS": "38099", "FIPS State": 38, "ST": "ND", "County": "Walsh County,ND", "State": "North Dakota"}, "geometry": {"type": "Polygon", "coordinates": [[[-98.017422, 48.545653], [-97.929791, 48.545653], [-97.16302, 48.540176], [-97.141112, 48.195129], [-97.825729, 48.195129], [-97.902407, 48.195129], [-97.91336, 48.195129], [-98.291269, 48.195129], [-98.318654, 48.545653], [-98.017422, 48.545653]]]}}, {"type": "Feature", "properties": {"name": "Jefferson", "id": "18077", "FIPS": "18077", "FIPS State": 18, "ST": "IN", "County": "Jefferson County,IN", "State": "Indiana"}, "geometry": {"type": "Polygon", "coordinates": [[[-85.299967, 38.911715], [-85.201382, 38.911715], [-85.201382, 38.692637], [-85.332828, 38.736453], [-85.425936, 38.588575], [-85.568337, 38.605006], [-85.683353, 38.81313], [-85.442367, 38.911715], [-85.299967, 38.911715]]]}}, {"type": "Feature", "properties": {"name": "Atkinson", "id": "13003", "FIPS": "13003", "FIPS State": 13, "ST": "GA", "County": "Atkinson County,GA", "State": "Georgia"}, "geometry": {"type": "Polygon", "coordinates": [[[-83.142052, 31.419261], [-82.62722, 31.364491], [-82.671035, 31.183752], [-82.972267, 31.183752], [-83.032514, 31.183752], [-83.048944, 31.183752], [-83.142052, 31.419261]]]}}, {"type": "Feature", "properties": {"name": "Cook", "id": "13075", "FIPS": "13075", "FIPS State": 13, "ST": "GA", "County": "Cook County,GA", "State": "Georgia"}, "geometry": {"type": "Polygon", "coordinates": [[[-83.43233, 31.34806], [-83.295407, 31.024921], [-83.383038, 31.030398], [-83.476146, 31.030398], [-83.498053, 31.052306], [-83.574731, 31.07969], [-83.514484, 31.326153], [-83.43233, 31.34806]]]}}, {"type": "Feature", "properties": {"name": "Cass", "id": "26027", "FIPS": "26027", "FIPS State": 26, "ST": "MI", "County": "Cass County,MI", "State": "Michigan"}, "geometry": {"type": "Polygon", "coordinates": [[[-86.22557, 42.07191], [-85.765507, 42.07191], [-85.792891, 41.759724], [-85.990061, 41.759724], [-86.061262, 41.759724], [-86.22557, 41.759724], [-86.22557, 42.07191]]]}}, {"type": "Feature", "properties": {"name": "Beaufort", "id": "37013", "FIPS": "37013", "FIPS State": 37, "ST": "NC", "County": "Beaufort County,NC", "State": "North Carolina"}, "geometry": {"type": "Polygon", "coordinates": [[[-77.172187, 35.73509], [-76.843571, 35.707705], [-76.640924, 35.707705], [-76.547816, 35.390042], [-76.602586, 35.335273], [-76.624493, 35.253119], [-76.89834, 35.253119], [-77.188618, 35.417427], [-77.172187, 35.73509]]]}}, {"type": "Feature", "properties": {"name": "Cheboygan", "id": "26031", "FIPS": "26031", "FIPS State": 26, "ST": "MI", "County": "Cheboygan County,MI", "State": "Michigan"}, "geometry": {"type": "Polygon", "coordinates": [[[-84.730365, 45.779798], [-84.730365, 45.785275], [-84.204579, 45.626444], [-84.248394, 45.199243], [-84.368887, 45.199243], [-84.735842, 45.204719], [-84.730365, 45.286874], [-84.730365, 45.779798]]]}}, {"type": "Feature", "properties": {"name": "Lamar", "id": "13171", "FIPS": "13171", "FIPS State": 13, "ST": "GA", "County": "Lamar County,GA", "State": "Georgia"}, "geometry": {"type": "Polygon", "coordinates": [[[-84.040271, 33.204743], [-84.122425, 32.930896], [-84.270302, 32.991142], [-84.248394, 33.188312], [-84.122425, 33.204743], [-84.040271, 33.204743]]]}}, {"type": "Feature", "properties": {"name": "Jones", "id": "13169", "FIPS": "13169", "FIPS State": 13, "ST": "GA", "County": "Jones County,GA", "State": "Georgia"}, "geometry": {"type": "Polygon", "coordinates": [[[-83.426853, 33.182835], [-83.355653, 32.925419], [-83.404945, 32.898034], [-83.514484, 32.843265], [-83.711654, 32.952804], [-83.815716, 33.133543], [-83.547346, 33.171881], [-83.426853, 33.182835]]]}}, {"type": "Feature", "properties": {"name": "Jefferson", "id": "13163", "FIPS": "13163", "FIPS State": 13, "ST": "GA", "County": "Jefferson County,GA", "State": "Georgia"}, "geometry": {"type": "Polygon", "coordinates": [[[-82.386235, 33.314282], [-82.353373, 33.314282], [-82.265742, 33.264989], [-82.315034, 32.837788], [-82.435527, 32.761111], [-82.523158, 32.821357], [-82.660082, 33.128066], [-82.43005, 33.275943], [-82.386235, 33.314282]]]}}, {"type": "Feature", "properties": {"name": "Merrick", "id": "31121", "FIPS": "31121", "FIPS State": 31, "ST": "NE", "County": "Merrick County,NE", "State": "Nebraska"}, "geometry": {"type": "Polygon", "coordinates": [[[-97.705237, 41.392769], [-97.601175, 41.332523], [-97.825729, 41.173691], [-98.280315, 40.87246], [-98.285792, 41.047722], [-98.285792, 41.392769], [-97.705237, 41.392769]]]}}, {"type": "Feature", "properties": {"name": "Saunders", "id": "31155", "FIPS": "31155", "FIPS State": 31, "ST": "NE", "County": "Saunders County,NE", "State": "Nebraska"}, "geometry": {"type": "Polygon", "coordinates": [[[-96.905603, 41.453015], [-96.472925, 41.392769], [-96.325048, 41.190122], [-96.319571, 41.047722], [-96.461971, 41.01486], [-96.91108, 41.047722], [-96.905603, 41.453015]]]}}, {"type": "Feature", "properties": {"name": "Irwin", "id": "13155", "FIPS": "13155", "FIPS State": 13, "ST": "GA", "County": "Irwin County,GA", "State": "Georgia"}, "geometry": {"type": "Polygon", "coordinates": [[[-83.454238, 31.758831], [-82.999652, 31.6712], [-83.147529, 31.47403], [-83.240637, 31.47403], [-83.339222, 31.47403], [-83.498053, 31.594523], [-83.454238, 31.758831]]]}}, {"type": "Feature", "properties": {"name": "Stanton", "id": "31167", "FIPS": "31167", "FIPS State": 31, "ST": "NE", "County": "Stanton County,NE", "State": "Nebraska"}, "geometry": {"type": "Polygon", "coordinates": [[[-97.36019, 42.08834], [-97.020619, 42.08834], [-97.020619, 41.743293], [-97.250651, 41.743293], [-97.250651, 41.743293], [-97.365666, 41.743293], [-97.365666, 42.08834], [-97.36019, 42.08834]]]}}, {"type": "Feature", "properties": {"name": "Valley", "id": "31175", "FIPS": "31175", "FIPS State": 31, "ST": "NE", "County": "Valley County,NE", "State": "Nebraska"}, "geometry": {"type": "Polygon", "coordinates": [[[-99.074472, 41.737816], [-98.756809, 41.737816], [-98.751332, 41.737816], [-98.751332, 41.392769], [-98.822533, 41.392769], [-99.205918, 41.392769], [-99.211395, 41.743293], [-99.074472, 41.737816]]]}}, {"type": "Feature", "properties": {"name": "York", "id": "31185", "FIPS": "31185", "FIPS State": 31, "ST": "NE", "County": "York County,NE", "State": "Nebraska"}, "geometry": {"type": "Polygon", "coordinates": [[[-97.365666, 41.047722], [-97.365666, 40.697198], [-97.798345, 40.697198], [-97.825729, 40.697198], [-97.825729, 40.697198], [-97.825729, 41.047722], [-97.365666, 41.047722]]]}}, {"type": "Feature", "properties": {"name": "Morehouse", "id": "22067", "FIPS": "22067", "FIPS State": 22, "ST": "LA", "County": "Morehouse County,LA", "State": "Louisiana"}, "geometry": {"type": "Polygon", "coordinates": [[[-92.069465, 33.007573], [-91.461525, 33.007573], [-91.43414, 33.007573], [-91.636787, 32.668003], [-91.910634, 32.503695], [-91.998265, 32.706342], [-92.063988, 32.722772], [-92.069465, 33.007573]]]}}, {"type": "Feature", "properties": {"name": "Eureka", "id": "32011", "FIPS": "32011", "FIPS State": 32, "ST": "NV", "County": "Eureka County,NV", "State": "Nevada"}, "geometry": {"type": "Polygon", "coordinates": [[[-116.58425, 40.998429], [-116.157049, 40.998429], [-115.833909, 40.127596], [-115.90511, 39.163654], [-116.233726, 39.163654], [-116.600681, 39.163654], [-116.58425, 40.998429]]]}}, {"type": "Feature", "properties": {"name": "Grant", "id": "35017", "FIPS": "35017", "FIPS State": 35, "ST": "NM", "County": "Grant County,NM", "State": "New Mexico"}, "geometry": {"type": "Polygon", "coordinates": [[[-108.182624, 33.199266], [-108.001885, 33.199266], [-107.607545, 32.607757], [-108.231916, 32.514649], [-108.215485, 31.862893], [-108.522194, 31.862893], [-108.538625, 32.514649], [-109.04798, 32.777542], [-109.04798, 33.21022], [-108.182624, 33.199266]]]}}, {"type": "Feature", "properties": {"name": "Huron", "id": "26063", "FIPS": "26063", "FIPS State": 26, "ST": "MI", "County": "Huron County,MI", "State": "Michigan"}, "geometry": {"type": "Polygon", "coordinates": [[[-82.605312, 43.693084], [-82.69842, 43.687607], [-83.120145, 43.676653], [-83.465192, 43.725946], [-83.465192, 43.731422], [-82.917498, 44.070993], [-82.605312, 43.693084]]]}}, {"type": "Feature", "properties": {"name": "Franklin", "id": "13119", "FIPS": "13119", "FIPS State": 13, "ST": "GA", "County": "Franklin County,GA", "State": "Georgia"}, "geometry": {"type": "Polygon", "coordinates": [[[-83.125621, 34.519209], [-83.103714, 34.53564], [-83.048944, 34.497301], [-83.114668, 34.272746], [-83.120145, 34.272746], [-83.355653, 34.223454], [-83.399469, 34.458962], [-83.125621, 34.519209]]]}}, {"type": "Feature", "properties": {"name": "Roosevelt", "id": "35041", "FIPS": "35041", "FIPS State": 35, "ST": "NM", "County": "Roosevelt County,NM", "State": "New Mexico"}, "geometry": {"type": "Polygon", "coordinates": [[[-103.740825, 34.60684], [-103.740825, 34.305608], [-103.045254, 34.300131], [-103.045254, 33.823637], [-103.050731, 33.571698], [-103.510794, 33.571698], [-103.877749, 34.081054], [-103.943472, 34.081054], [-103.948949, 34.60684], [-103.740825, 34.60684]]]}}, {"type": "Feature", "properties": {"name": "Gratiot", "id": "26057", "FIPS": "26057", "FIPS State": 26, "ST": "MI", "County": "Gratiot County,MI", "State": "Michigan"}, "geometry": {"type": "Polygon", "coordinates": [[[-84.774181, 43.468529], [-84.609872, 43.468529], [-84.368887, 43.468529], [-84.368887, 43.128959], [-84.368887, 43.118005], [-84.719411, 43.118005], [-84.834427, 43.118005], [-84.845381, 43.468529], [-84.774181, 43.468529]]]}}, {"type": "Feature", "properties": {"name": "Socorro", "id": "35053", "FIPS": "35053", "FIPS State": 35, "ST": "NM", "County": "Socorro County,NM", "State": "New Mexico"}, "geometry": {"type": "Polygon", "coordinates": [[[-107.536345, 34.579455], [-107.202251, 34.579455], [-106.419049, 34.442532], [-105.926124, 34.261793], [-106.052094, 33.648375], [-106.375233, 33.47859], [-107.711607, 33.47859], [-107.722561, 34.579455], [-107.536345, 34.579455]]]}}, {"type": "Feature", "properties": {"name": "Livingston", "id": "36051", "FIPS": "36051", "FIPS State": 36, "ST": "NY", "County": "Livingston County,NY", "State": "New York"}, "geometry": {"type": "Polygon", "coordinates": [[[-77.823943, 42.986559], [-77.582958, 42.942743], [-77.48985, 42.575788], [-77.648681, 42.581265], [-77.725358, 42.471726], [-78.037544, 42.521019], [-77.95539, 42.860589], [-77.911574, 42.986559], [-77.823943, 42.986559]]]}}, {"type": "Feature", "properties": {"name": "Clare", "id": "26035", "FIPS": "26035", "FIPS State": 26, "ST": "MI", "County": "Clare County,MI", "State": "Michigan"}, "geometry": {"type": "Polygon", "coordinates": [[[-85.086366, 44.164101], [-84.850858, 44.158624], [-84.609872, 44.158624], [-84.604395, 43.813577], [-84.752273, 43.813577], [-85.086366, 43.813577], [-85.086366, 44.164101]]]}}, {"type": "Feature", "properties": {"name": "Wyoming", "id": "36121", "FIPS": "36121", "FIPS State": 36, "ST": "NY", "County": "Wyoming County,NY", "State": "New York"}, "geometry": {"type": "Polygon", "coordinates": [[[-78.09779, 42.871543], [-77.95539, 42.860589], [-78.037544, 42.521019], [-78.22376, 42.521019], [-78.311391, 42.521019], [-78.464745, 42.537449], [-78.464745, 42.866066], [-78.09779, 42.871543]]]}}, {"type": "Feature", "properties": {"name": "Humboldt", "id": "32013", "FIPS": "32013", "FIPS State": 32, "ST": "NV", "County": "Humboldt County,NV", "State": "Nevada"}, "geometry": {"type": "Polygon", "coordinates": [[[-117.027882, 42.000709], [-117.016928, 42.000709], [-117.016928, 40.998429], [-117.301729, 40.527412], [-118.013732, 40.856029], [-119.311766, 40.960091], [-119.32272, 41.995232], [-118.194471, 41.995232], [-117.027882, 42.000709]]]}}, {"type": "Feature", "properties": {"name": "Fulton", "id": "39051", "FIPS": "39051", "FIPS State": 39, "ST": "OH", "County": "Fulton County,OH", "State": "Ohio"}, "geometry": {"type": "Polygon", "coordinates": [[[-83.89787, 41.721385], [-83.881439, 41.721385], [-83.881439, 41.485877], [-83.886916, 41.485877], [-84.341502, 41.485877], [-84.401749, 41.704955], [-84.357933, 41.704955], [-83.89787, 41.721385]]]}}, {"type": "Feature", "properties": {"name": "Madison", "id": "22065", "FIPS": "22065", "FIPS State": 22, "ST": "LA", "County": "Madison County,LA", "State": "Louisiana"}, "geometry": {"type": "Polygon", "coordinates": [[[-91.368417, 32.536556], [-91.067185, 32.563941], [-91.121954, 32.213417], [-91.494386, 32.202463], [-91.477956, 32.40511], [-91.456048, 32.536556], [-91.368417, 32.536556]]]}}, {"type": "Feature", "properties": {"name": "Hardin", "id": "39065", "FIPS": "39065", "FIPS State": 39, "ST": "OH", "County": "Hardin County,OH", "State": "Ohio"}, "geometry": {"type": "Polygon", "coordinates": [[[-83.574731, 40.81769], [-83.514484, 40.81769], [-83.421376, 40.686244], [-83.415899, 40.505505], [-83.519961, 40.505505], [-83.881439, 40.538366], [-83.881439, 40.642428], [-83.881439, 40.81769], [-83.574731, 40.81769]]]}}, {"type": "Feature", "properties": {"name": "Major", "id": "40093", "FIPS": "40093", "FIPS State": 40, "ST": "OK", "County": "Major County,OK", "State": "Oklahoma"}, "geometry": {"type": "Polygon", "coordinates": [[[-98.959456, 36.501861], [-98.959456, 36.507338], [-98.532255, 36.463523], [-98.105053, 36.463523], [-98.105053, 36.162291], [-98.209115, 36.162291], [-98.488439, 36.162291], [-98.636317, 36.162291], [-98.953979, 36.162291], [-98.959456, 36.501861]]]}}, {"type": "Feature", "properties": {"name": "Owen", "id": "18119", "FIPS": "18119", "FIPS State": 18, "ST": "IN", "County": "Owen County,IN", "State": "Indiana"}, "geometry": {"type": "Polygon", "coordinates": [[[-86.937572, 39.47584], [-86.685633, 39.470363], [-86.630863, 39.34987], [-86.685633, 39.163654], [-87.052588, 39.169131], [-86.937572, 39.47584]]]}}, {"type": "Feature", "properties": {"name": "Murray", "id": "40099", "FIPS": "40099", "FIPS State": 40, "ST": "OK", "County": "Murray County,OK", "State": "Oklahoma"}, "geometry": {"type": "Polygon", "coordinates": [[[-97.091819, 34.639701], [-96.932988, 34.634225], [-96.828926, 34.508255], [-96.878219, 34.502778], [-96.932988, 34.332993], [-97.354713, 34.508255], [-97.091819, 34.639701]]]}}, {"type": "Feature", "properties": {"name": "Simpson", "id": "21213", "FIPS": "21213", "FIPS State": 21, "ST": "KY", "County": "Simpson County,KY", "State": "Kentucky"}, "geometry": {"type": "Polygon", "coordinates": [[[-86.608956, 36.885247], [-86.406309, 36.775708], [-86.411786, 36.649739], [-86.56514, 36.633308], [-86.76231, 36.649739], [-86.608956, 36.885247]]]}}, {"type": "Feature", "properties": {"name": "Osage", "id": "40113", "FIPS": "40113", "FIPS State": 40, "ST": "OK", "County": "Osage County,OK", "State": "Oklahoma"}, "geometry": {"type": "Polygon", "coordinates": [[[-96.730341, 37.000263], [-96.527695, 37.000263], [-96.001908, 37.000263], [-96.001908, 36.425184], [-96.270278, 36.162291], [-96.724864, 36.529246], [-97.009665, 36.507338], [-97.058958, 36.594969], [-96.752249, 37.000263], [-96.730341, 37.000263]]]}}, {"type": "Feature", "properties": {"name": "Scott", "id": "21209", "FIPS": "21209", "FIPS State": 21, "ST": "KY", "County": "Scott County,KY", "State": "Kentucky"}, "geometry": {"type": "Polygon", "coordinates": [[[-84.555103, 38.495467], [-84.440087, 38.281867], [-84.401749, 38.20519], [-84.626303, 38.117559], [-84.724888, 38.194236], [-84.741319, 38.353067], [-84.582488, 38.47356], [-84.555103, 38.495467]]]}}, {"type": "Feature", "properties": {"name": "Pittsburg", "id": "40121", "FIPS": "40121", "FIPS State": 40, "ST": "OK", "County": "Pittsburg County,OK", "State": "Oklahoma"}, "geometry": {"type": "Polygon", "coordinates": [[[-95.706154, 35.203826], [-95.448737, 35.296934], [-95.350152, 35.055949], [-95.514461, 34.683517], [-95.673292, 34.595886], [-96.089539, 34.67804], [-96.089539, 34.765671], [-95.985477, 35.149057], [-95.706154, 35.203826]]]}}, {"type": "Feature", "properties": {"name": "Pontotoc", "id": "40123", "FIPS": "40123", "FIPS State": 40, "ST": "OK", "County": "Pontotoc County,OK", "State": "Oklahoma"}, "geometry": {"type": "Polygon", "coordinates": [[[-96.932988, 34.962841], [-96.774157, 34.902595], [-96.489356, 34.908072], [-96.407202, 34.765671], [-96.511264, 34.502778], [-96.828926, 34.508255], [-96.932988, 34.634225], [-96.932988, 34.853302], [-96.932988, 34.962841]]]}}, {"type": "Feature", "properties": {"name": "Pulaski", "id": "21199", "FIPS": "21199", "FIPS State": 21, "ST": "KY", "County": "Pulaski County,KY", "State": "Kentucky"}, "geometry": {"type": "Polygon", "coordinates": [[[-84.670119, 37.27411], [-84.500334, 37.328879], [-84.286733, 37.153617], [-84.357933, 36.961924], [-84.577011, 36.868816], [-84.807042, 36.989309], [-84.834427, 36.994786], [-84.90015, 37.115279], [-84.719411, 37.235771], [-84.670119, 37.27411]]]}}, {"type": "Feature", "properties": {"name": "Logan", "id": "40083", "FIPS": "40083", "FIPS State": 40, "ST": "OK", "County": "Logan County,OK", "State": "Oklahoma"}, "geometry": {"type": "Polygon", "coordinates": [[[-97.677852, 36.162291], [-97.458774, 36.162291], [-97.354713, 36.156814], [-97.141112, 35.943213], [-97.141112, 35.724136], [-97.672375, 35.724136], [-97.677852, 36.162291]]]}}, {"type": "Feature", "properties": {"name": "Owsley", "id": "21189", "FIPS": "21189", "FIPS State": 21, "ST": "KY", "County": "Owsley County,KY", "State": "Kentucky"}, "geometry": {"type": "Polygon", "coordinates": [[[-83.651408, 37.537003], [-83.580208, 37.504141], [-83.547346, 37.334356], [-83.525438, 37.257679], [-83.574731, 37.279587], [-83.782854, 37.350787], [-83.886916, 37.520572], [-83.651408, 37.537003]]]}}, {"type": "Feature", "properties": {"name": "Woodward", "id": "40153", "FIPS": "40153", "FIPS State": 40, "ST": "OK", "County": "Woodward County,OK", "State": "Oklahoma"}, "geometry": {"type": "Polygon", "coordinates": [[[-99.293549, 36.819524], [-98.959456, 36.507338], [-98.959456, 36.501861], [-98.953979, 36.162291], [-99.38118, 36.162291], [-99.605735, 36.594969], [-99.293549, 36.819524]]]}}, {"type": "Feature", "properties": {"name": "Clatsop", "id": "41007", "FIPS": "41007", "FIPS State": 41, "ST": "OR", "County": "Clatsop County,OR", "State": "Oregon"}, "geometry": {"type": "Polygon", "coordinates": [[[-123.364702, 46.146753], [-123.359225, 45.779798], [-123.841196, 45.785275], [-123.967166, 45.785275], [-124.010981, 46.22343], [-123.545441, 46.261769], [-123.364702, 46.146753]]]}}, {"type": "Feature", "properties": {"name": "Putnam", "id": "18133", "FIPS": "18133", "FIPS State": 18, "ST": "IN", "County": "Putnam County,IN", "State": "Indiana"}, "geometry": {"type": "Polygon", "coordinates": [[[-87.008772, 39.864703], [-86.696587, 39.864703], [-86.658248, 39.601809], [-86.685633, 39.470363], [-86.937572, 39.47584], [-87.014249, 39.607286], [-87.008772, 39.864703]]]}}, {"type": "Feature", "properties": {"name": "Murray", "id": "27101", "FIPS": "27101", "FIPS State": 27, "ST": "MN", "County": "Murray County,MN", "State": "Minnesota"}, "geometry": {"type": "Polygon", "coordinates": [[[-96.012862, 44.196962], [-95.591138, 44.196962], [-95.459691, 44.196962], [-95.465168, 43.846438], [-96.051201, 43.846438], [-96.062155, 43.846438], [-96.062155, 44.196962], [-96.012862, 44.196962]]]}}, {"type": "Feature", "properties": {"name": "Livingston", "id": "21139", "FIPS": "21139", "FIPS State": 21, "ST": "KY", "County": "Livingston County,KY", "State": "Kentucky"}, "geometry": {"type": "Polygon", "coordinates": [[[-88.361576, 37.405556], [-88.3561, 37.405556], [-88.191791, 37.14814], [-88.241084, 36.983832], [-88.432777, 37.049555], [-88.482069, 37.022171], [-88.564223, 37.082417], [-88.487546, 37.065986], [-88.416346, 37.421987], [-88.361576, 37.405556]]]}}, {"type": "Feature", "properties": {"name": "Tipton", "id": "18159", "FIPS": "18159", "FIPS State": 18, "ST": "IN", "County": "Tipton County,IN", "State": "Indiana"}, "geometry": {"type": "Polygon", "coordinates": [[[-85.864092, 40.40692], [-85.864092, 40.379535], [-85.864092, 40.220704], [-85.875046, 40.220704], [-86.242001, 40.215227], [-86.242001, 40.374058], [-85.864092, 40.40692]]]}}, {"type": "Feature", "properties": {"name": "Mifflin", "id": "42087", "FIPS": "42087", "FIPS State": 42, "ST": "PA", "County": "Mifflin County,PA", "State": "Pennsylvania"}, "geometry": {"type": "Polygon", "coordinates": [[[-77.36388, 40.845075], [-77.358403, 40.806736], [-77.287203, 40.691721], [-77.752743, 40.379535], [-77.681543, 40.730059], [-77.36388, 40.845075]]]}}, {"type": "Feature", "properties": {"name": "Baker", "id": "12003", "FIPS": "12003", "FIPS State": 12, "ST": "FL", "County": "Baker County,FL", "State": "Florida"}, "geometry": {"type": "Polygon", "coordinates": [[[-82.419096, 30.581289], [-82.216449, 30.570335], [-82.052141, 30.362211], [-82.046664, 30.27458], [-82.052141, 30.186949], [-82.052141, 30.143133], [-82.145249, 30.143133], [-82.298603, 30.143133], [-82.457435, 30.137656], [-82.457435, 30.586766], [-82.419096, 30.581289]]]}}, {"type": "Feature", "properties": {"name": "Lawrence", "id": "21127", "FIPS": "21127", "FIPS State": 21, "ST": "KY", "County": "Lawrence County,KY", "State": "Kentucky"}, "geometry": {"type": "Polygon", "coordinates": [[[-82.791528, 38.243528], [-82.605312, 38.249005], [-82.495773, 37.947773], [-82.610789, 37.876573], [-82.851774, 37.975158], [-82.988698, 37.964204], [-83.02156, 38.00802], [-82.922975, 38.177805], [-82.791528, 38.243528]]]}}, {"type": "Feature", "properties": {"name": "Texas", "id": "40139", "FIPS": "40139", "FIPS State": 40, "ST": "OK", "County": "Texas County,OK", "State": "Oklahoma"}, "geometry": {"type": "Polygon", "coordinates": [[[-100.947585, 37.000263], [-100.953062, 36.501861], [-101.084509, 36.501861], [-101.621249, 36.501861], [-101.812942, 36.501861], [-102.03202, 36.501861], [-102.026543, 36.994786], [-101.555526, 36.994786], [-101.068078, 37.000263], [-100.947585, 37.000263]]]}}, {"type": "Feature", "properties": {"name": "Knox", "id": "31107", "FIPS": "31107", "FIPS State": 31, "ST": "NE", "County": "Knox County,NE", "State": "Nebraska"}, "geometry": {"type": "Polygon", "coordinates": [[[-98.3077, 42.882497], [-98.154346, 42.838681], [-97.634037, 42.849635], [-97.486159, 42.849635], [-97.486159, 42.438865], [-97.836683, 42.438865], [-98.302223, 42.438865], [-98.3077, 42.762004], [-98.3077, 42.882497]]]}}, {"type": "Feature", "properties": {"name": "Lincoln", "id": "40081", "FIPS": "40081", "FIPS State": 40, "ST": "OK", "County": "Lincoln County,OK", "State": "Oklahoma"}, "geometry": {"type": "Polygon", "coordinates": [[[-97.080866, 35.943213], [-96.620803, 35.943213], [-96.620803, 35.636505], [-96.626279, 35.461243], [-97.141112, 35.466719], [-97.141112, 35.724136], [-97.141112, 35.943213], [-97.080866, 35.943213]]]}}, {"type": "Feature", "properties": {"name": "Levy", "id": "12075", "FIPS": "12075", "FIPS State": 12, "ST": "FL", "County": "Levy County,FL", "State": "Florida"}, "geometry": {"type": "Polygon", "coordinates": [[[-82.873682, 29.589962], [-82.654605, 29.562578], [-82.408142, 29.485901], [-82.534112, 29.042268], [-82.758666, 28.992976], [-83.16396, 29.288731], [-82.939406, 29.589962], [-82.873682, 29.589962]]]}}, {"type": "Feature", "properties": {"name": "Union", "id": "12125", "FIPS": "12125", "FIPS State": 12, "ST": "FL", "County": "Union County,FL", "State": "Florida"}, "geometry": {"type": "Polygon", "coordinates": [[[-82.298603, 30.143133], [-82.145249, 30.143133], [-82.419096, 29.924056], [-82.506727, 29.940487], [-82.528635, 29.940487], [-82.457435, 30.137656], [-82.298603, 30.143133]]]}}, {"type": "Feature", "properties": {"name": "Franklin", "id": "22041", "FIPS": "22041", "FIPS State": 22, "ST": "LA", "County": "Franklin County,LA", "State": "Louisiana"}, "geometry": {"type": "Polygon", "coordinates": [[[-91.57654, 32.40511], [-91.477956, 32.40511], [-91.494386, 32.202463], [-91.57654, 31.8848], [-91.647741, 31.972432], [-91.888726, 31.972432], [-91.894203, 32.153171], [-91.57654, 32.40511]]]}}, {"type": "Feature", "properties": {"name": "Suwannee", "id": "12121", "FIPS": "12121", "FIPS State": 12, "ST": "FL", "County": "Suwannee County,FL", "State": "Florida"}, "geometry": {"type": "Polygon", "coordinates": [[[-83.081806, 30.438888], [-82.797005, 30.334826], [-82.802482, 29.93501], [-82.879159, 29.885717], [-83.246114, 30.258149], [-83.169437, 30.384119], [-83.081806, 30.438888]]]}}, {"type": "Feature", "properties": {"name": "Holmes", "id": "39075", "FIPS": "39075", "FIPS State": 39, "ST": "OH", "County": "Holmes County,OH", "State": "Ohio"}, "geometry": {"type": "Polygon", "coordinates": [[[-81.657801, 40.669813], [-81.652325, 40.669813], [-81.652325, 40.636951], [-81.707094, 40.445258], [-82.183588, 40.456212], [-82.221926, 40.565751], [-82.128818, 40.669813], [-81.657801, 40.669813]]]}}, {"type": "Feature", "properties": {"name": "Meigs", "id": "39105", "FIPS": "39105", "FIPS State": 39, "ST": "OH", "County": "Meigs County,OH", "State": "Ohio"}, "geometry": {"type": "Polygon", "coordinates": [[[-82.28765, 39.201993], [-82.271219, 39.201993], [-81.756386, 39.180085], [-81.745433, 39.097931], [-81.909741, 38.878853], [-82.101434, 38.95553], [-82.320511, 39.026731], [-82.28765, 39.201993]]]}}, {"type": "Feature", "properties": {"name": "Evangeline", "id": "22039", "FIPS": "22039", "FIPS State": 22, "ST": "LA", "County": "Evangeline County,LA", "State": "Louisiana"}, "geometry": {"type": "Polygon", "coordinates": [[[-92.387128, 31.003013], [-92.283066, 30.964674], [-92.211866, 30.849659], [-92.49119, 30.482704], [-92.63359, 30.482704], [-92.628113, 30.488181], [-92.595251, 30.893474], [-92.387128, 31.003013]]]}}, {"type": "Feature", "properties": {"name": "Concordia", "id": "22029", "FIPS": "22029", "FIPS State": 22, "ST": "LA", "County": "Concordia County,LA", "State": "Louisiana"}, "geometry": {"type": "Polygon", "coordinates": [[[-91.428663, 31.753354], [-91.379371, 31.731446], [-91.587494, 31.189229], [-91.636787, 30.997536], [-91.664172, 30.970151], [-91.658695, 30.992059], [-91.724418, 31.046829], [-91.833957, 31.265906], [-91.543679, 31.753354], [-91.428663, 31.753354]]]}}, {"type": "Feature", "properties": {"name": "Assumption", "id": "22007", "FIPS": "22007", "FIPS State": 22, "ST": "LA", "County": "Assumption County,LA", "State": "Louisiana"}, "geometry": {"type": "Polygon", "coordinates": [[[-91.078139, 30.07741], [-90.963123, 30.066456], [-90.886446, 29.907625], [-91.006939, 29.715932], [-91.083616, 29.628301], [-91.100047, 29.699501], [-91.253401, 29.973348], [-91.226016, 30.022641], [-91.105524, 30.060979], [-91.078139, 30.07741]]]}}, {"type": "Feature", "properties": {"name": "Allen", "id": "22003", "FIPS": "22003", "FIPS State": 22, "ST": "LA", "County": "Allen County,LA", "State": "Louisiana"}, "geometry": {"type": "Polygon", "coordinates": [[[-92.660975, 30.898951], [-92.595251, 30.893474], [-92.628113, 30.488181], [-92.770513, 30.488181], [-93.131992, 30.422457], [-92.978637, 30.877043], [-92.825283, 30.887997], [-92.660975, 30.898951]]]}}, {"type": "Feature", "properties": {"name": "Kingfisher", "id": "40073", "FIPS": "40073", "FIPS State": 40, "ST": "OK", "County": "Kingfisher County,OK", "State": "Oklahoma"}, "geometry": {"type": "Polygon", "coordinates": [[[-98.0941, 36.167768], [-97.677852, 36.162291], [-97.672375, 35.724136], [-97.973607, 35.724136], [-98.209115, 35.724136], [-98.209115, 36.162291], [-98.105053, 36.162291], [-98.0941, 36.167768]]]}}, {"type": "Feature", "properties": {"name": "Miami", "id": "18103", "FIPS": "18103", "FIPS State": 18, "ST": "IN", "County": "Miami County,IN", "State": "Indiana"}, "geometry": {"type": "Polygon", "coordinates": [[[-85.946246, 40.998429], [-85.864092, 40.653382], [-85.864092, 40.565751], [-85.875046, 40.565751], [-86.165323, 40.560274], [-86.1708, 40.910798], [-85.946246, 40.998429]]]}}, {"type": "Feature", "properties": {"name": "Beckham", "id": "40009", "FIPS": "40009", "FIPS State": 40, "ST": "OK", "County": "Beckham County,OK", "State": "Oklahoma"}, "geometry": {"type": "Polygon", "coordinates": [[[-99.36475, 35.510535], [-99.36475, 35.466719], [-99.359273, 35.116195], [-99.408565, 35.116195], [-99.709797, 35.116195], [-99.890536, 35.028564], [-99.934351, 35.028564], [-100.000075, 35.028564], [-100.000075, 35.181919], [-100.000075, 35.422904], [-99.36475, 35.510535]]]}}, {"type": "Feature", "properties": {"name": "Blaine", "id": "40011", "FIPS": "40011", "FIPS State": 40, "ST": "OK", "County": "Blaine County,OK", "State": "Oklahoma"}, "geometry": {"type": "Polygon", "coordinates": [[[-98.488439, 36.162291], [-98.209115, 36.162291], [-98.209115, 35.724136], [-98.313177, 35.548874], [-98.587024, 35.548874], [-98.625363, 35.548874], [-98.63084, 35.811767], [-98.636317, 36.162291], [-98.488439, 36.162291]]]}}, {"type": "Feature", "properties": {"name": "Caddo", "id": "40015", "FIPS": "40015", "FIPS State": 40, "ST": "OK", "County": "Caddo County,OK", "State": "Oklahoma"}, "geometry": {"type": "Polygon", "coordinates": [[[-98.587024, 35.548874], [-98.313177, 35.548874], [-98.0941, 35.379088], [-98.0941, 34.853302], [-98.619886, 34.853302], [-98.619886, 35.099764], [-98.625363, 35.466719], [-98.625363, 35.548874], [-98.587024, 35.548874]]]}}, {"type": "Feature", "properties": {"name": "Cherokee", "id": "40021", "FIPS": "40021", "FIPS State": 40, "ST": "OK", "County": "Cherokee County,OK", "State": "Oklahoma"}, "geometry": {"type": "Polygon", "coordinates": [[[-95.027013, 36.162291], [-95.010582, 36.162291], [-94.796981, 36.162291], [-94.807935, 35.636505], [-94.851751, 35.636505], [-95.125598, 35.636505], [-95.267998, 35.811767], [-95.207752, 36.07466], [-95.027013, 36.162291]]]}}, {"type": "Feature", "properties": {"name": "Woodford", "id": "21239", "FIPS": "21239", "FIPS State": 21, "ST": "KY", "County": "Woodford County,KY", "State": "Kentucky"}, "geometry": {"type": "Polygon", "coordinates": [[[-84.867289, 38.117559], [-84.724888, 38.194236], [-84.626303, 38.117559], [-84.659165, 38.002543], [-84.708457, 37.860142], [-84.796088, 37.969681], [-84.867289, 38.117559]]]}}, {"type": "Feature", "properties": {"name": "Union", "id": "21225", "FIPS": "21225", "FIPS State": 21, "ST": "KY", "County": "Union County,KY", "State": "Kentucky"}, "geometry": {"type": "Polygon", "coordinates": [[[-88.027483, 37.799896], [-87.928898, 37.903958], [-87.731728, 37.635588], [-87.934375, 37.482234], [-88.060345, 37.504141], [-88.131545, 37.575342], [-88.027483, 37.799896]]]}}, {"type": "Feature", "properties": {"name": "Trigg", "id": "21221", "FIPS": "21221", "FIPS State": 21, "ST": "KY", "County": "Trigg County,KY", "State": "Kentucky"}, "geometry": {"type": "Polygon", "coordinates": [[[-87.731728, 37.000263], [-87.69339, 36.638785], [-88.071299, 36.677123], [-88.109637, 36.748324], [-88.15893, 36.868816], [-87.879606, 36.961924], [-87.731728, 37.000263]]]}}, {"type": "Feature", "properties": {"name": "Hughes", "id": "40063", "FIPS": "40063", "FIPS State": 40, "ST": "OK", "County": "Hughes County,OK", "State": "Oklahoma"}, "geometry": {"type": "Polygon", "coordinates": [[[-96.199078, 35.291457], [-95.980001, 35.291457], [-95.985477, 35.149057], [-96.089539, 34.765671], [-96.407202, 34.765671], [-96.489356, 34.908072], [-96.440064, 35.291457], [-96.199078, 35.291457]]]}}, {"type": "Feature", "properties": {"name": "Orange", "id": "18117", "FIPS": "18117", "FIPS State": 18, "ST": "IN", "County": "Orange County,IN", "State": "Indiana"}, "geometry": {"type": "Polygon", "coordinates": [[[-86.307724, 38.68716], [-86.307724, 38.424267], [-86.680156, 38.396883], [-86.680156, 38.528329], [-86.685633, 38.68716], [-86.307724, 38.68716]]]}}, {"type": "Feature", "properties": {"name": "Wyandot", "id": "39175", "FIPS": "39175", "FIPS State": 39, "ST": "OH", "County": "Wyandot County,OH", "State": "Ohio"}, "geometry": {"type": "Polygon", "coordinates": [[[-83.114668, 40.992952], [-83.109191, 40.702674], [-83.421376, 40.686244], [-83.514484, 40.81769], [-83.421376, 40.992952], [-83.114668, 40.992952]]]}}, {"type": "Feature", "properties": {"name": "Barnwell", "id": "45011", "FIPS": "45011", "FIPS State": 45, "ST": "SC", "County": "Barnwell County,SC", "State": "South Carolina"}, "geometry": {"type": "Polygon", "coordinates": [[[-81.373001, 33.489544], [-81.225123, 33.440252], [-81.192262, 33.117112], [-81.613986, 33.095204], [-81.756386, 33.199266], [-81.373001, 33.489544]]]}}, {"type": "Feature", "properties": {"name": "Clinton", "id": "18023", "FIPS": "18023", "FIPS State": 18, "ST": "IN", "County": "Clinton County,IN", "State": "Indiana"}, "geometry": {"type": "Polygon", "coordinates": [[[-86.357016, 40.434304], [-86.242001, 40.374058], [-86.242001, 40.215227], [-86.242001, 40.182365], [-86.696587, 40.176888], [-86.696587, 40.215227], [-86.696587, 40.434304], [-86.373447, 40.434304], [-86.357016, 40.434304]]]}}, {"type": "Feature", "properties": {"name": "Hooker", "id": "31091", "FIPS": "31091", "FIPS State": 31, "ST": "NE", "County": "Hooker County,NE", "State": "Nebraska"}, "geometry": {"type": "Polygon", "coordinates": [[[-101.424079, 42.093817], [-100.843524, 42.08834], [-100.843524, 41.737816], [-101.407648, 41.743293], [-101.424079, 41.743293], [-101.424079, 42.093817]]]}}, {"type": "Feature", "properties": {"name": "Noxubee", "id": "28103", "FIPS": "28103", "FIPS State": 28, "ST": "MS", "County": "Noxubee County,MS", "State": "Mississippi"}, "geometry": {"type": "Polygon", "coordinates": [[[-88.668285, 33.286897], [-88.306807, 33.286897], [-88.339669, 32.991142], [-88.345146, 32.930896], [-88.810686, 32.925419], [-88.810686, 33.286897], [-88.668285, 33.286897]]]}}, {"type": "Feature", "properties": {"name": "Pike", "id": "28113", "FIPS": "28113", "FIPS State": 28, "ST": "MS", "County": "Pike County,MS", "State": "Mississippi"}, "geometry": {"type": "Polygon", "coordinates": [[[-90.355183, 31.34806], [-90.262075, 31.34806], [-90.262075, 31.003013], [-90.349706, 31.003013], [-90.371614, 30.997536], [-90.546876, 30.997536], [-90.546876, 31.34806], [-90.355183, 31.34806]]]}}, {"type": "Feature", "properties": {"name": "Pontotoc", "id": "28115", "FIPS": "28115", "FIPS State": 28, "ST": "MS", "County": "Pontotoc County,MS", "State": "Mississippi"}, "geometry": {"type": "Polygon", "coordinates": [[[-89.09001, 34.382285], [-88.827116, 34.365854], [-88.827116, 34.075577], [-89.139302, 34.075577], [-89.243364, 34.163208], [-89.248841, 34.376808], [-89.09001, 34.382285]]]}}, {"type": "Feature", "properties": {"name": "Scott", "id": "28123", "FIPS": "28123", "FIPS State": 28, "ST": "MS", "County": "Scott County,MS", "State": "Mississippi"}, "geometry": {"type": "Polygon", "coordinates": [[[-89.730812, 32.635141], [-89.320041, 32.574895], [-89.320041, 32.224371], [-89.456965, 32.224371], [-89.730812, 32.224371], [-89.785581, 32.585849], [-89.730812, 32.635141]]]}}, {"type": "Feature", "properties": {"name": "White", "id": "17193", "FIPS": "17193", "FIPS State": 17, "ST": "IL", "County": "White County,IL", "State": "Illinois"}, "geometry": {"type": "Polygon", "coordinates": [[[-88.005575, 38.259959], [-87.989145, 38.259959], [-87.972714, 38.232574], [-87.978191, 38.232574], [-88.054868, 37.88205], [-88.137022, 37.909435], [-88.37253, 37.909435], [-88.37253, 38.254482], [-88.153453, 38.254482], [-88.005575, 38.259959]]]}}, {"type": "Feature", "properties": {"name": "Fayette", "id": "17051", "FIPS": "17051", "FIPS State": 17, "ST": "IL", "County": "Fayette County,IL", "State": "Illinois"}, "geometry": {"type": "Polygon", "coordinates": [[[-89.139302, 39.218424], [-88.805209, 39.218424], [-88.69567, 38.917192], [-88.69567, 38.824084], [-88.777824, 38.824084], [-89.139302, 38.736453], [-89.254318, 38.74193], [-89.248841, 39.026731], [-89.139302, 39.218424]]]}}, {"type": "Feature", "properties": {"name": "Tishomingo", "id": "28141", "FIPS": "28141", "FIPS State": 28, "ST": "MS", "County": "Tishomingo County,MS", "State": "Mississippi"}, "geometry": {"type": "Polygon", "coordinates": [[[-88.252038, 34.995703], [-88.202745, 34.995703], [-88.098683, 34.891641], [-88.142499, 34.579455], [-88.15893, 34.464439], [-88.328715, 34.464439], [-88.367053, 34.754717], [-88.361576, 34.995703], [-88.252038, 34.995703]]]}}, {"type": "Feature", "properties": {"name": "Union", "id": "28145", "FIPS": "28145", "FIPS State": 28, "ST": "MS", "County": "Union County,MS", "State": "Mississippi"}, "geometry": {"type": "Polygon", "coordinates": [[[-89.09001, 34.595886], [-88.734008, 34.595886], [-88.734008, 34.508255], [-88.827116, 34.365854], [-89.09001, 34.382285], [-89.248841, 34.376808], [-89.248841, 34.497301], [-89.243364, 34.584932], [-89.09001, 34.595886]]]}}, {"type": "Feature", "properties": {"name": "Cook", "id": "27031", "FIPS": "27031", "FIPS State": 27, "ST": "MN", "County": "Cook County,MN", "State": "Minnesota"}, "geometry": {"type": "Polygon", "coordinates": [[[-91.023369, 47.466696], [-91.034323, 48.189652], [-89.582934, 47.997959], [-91.023369, 47.466696]]]}}, {"type": "Feature", "properties": {"name": "Winston", "id": "28159", "FIPS": "28159", "FIPS State": 28, "ST": "MS", "County": "Winston County,MS", "State": "Mississippi"}, "geometry": {"type": "Polygon", "coordinates": [[[-89.09001, 33.286897], [-88.810686, 33.286897], [-88.810686, 32.925419], [-88.914747, 32.925419], [-89.155733, 32.930896], [-89.320041, 32.930896], [-89.320041, 33.106158], [-89.09001, 33.286897]]]}}, {"type": "Feature", "properties": {"name": "Adair", "id": "29001", "FIPS": "29001", "FIPS State": 29, "ST": "MO", "County": "Adair County,MO", "State": "Missouri"}, "geometry": {"type": "Polygon", "coordinates": [[[-92.348789, 40.346673], [-92.348789, 40.302858], [-92.343312, 40.039965], [-92.677405, 40.039965], [-92.847191, 40.039965], [-92.858145, 40.039965], [-92.858145, 40.341196], [-92.682882, 40.341196], [-92.348789, 40.346673]]]}}, {"type": "Feature", "properties": {"name": "Audrain", "id": "29007", "FIPS": "29007", "FIPS State": 29, "ST": "MO", "County": "Audrain County,MO", "State": "Missouri"}, "geometry": {"type": "Polygon", "coordinates": [[[-92.31045, 39.34987], [-91.718941, 39.338916], [-91.439617, 39.317009], [-91.406755, 39.141746], [-91.625833, 39.147223], [-91.63131, 39.059592], [-92.107804, 39.065069], [-92.315927, 39.245808], [-92.31045, 39.34987]]]}}, {"type": "Feature", "properties": {"name": "Barry", "id": "29009", "FIPS": "29009", "FIPS State": 29, "ST": "MO", "County": "Barry County,MO", "State": "Missouri"}, "geometry": {"type": "Polygon", "coordinates": [[[-94.008302, 36.929063], [-93.608485, 36.923586], [-93.586578, 36.496384], [-93.728978, 36.496384], [-93.865902, 36.496384], [-94.079502, 36.496384], [-94.068548, 36.748324], [-94.063071, 36.929063], [-94.008302, 36.929063]]]}}, {"type": "Feature", "properties": {"name": "Crawford", "id": "29055", "FIPS": "29055", "FIPS State": 29, "ST": "MO", "County": "Crawford County,MO", "State": "Missouri"}, "geometry": {"type": "Polygon", "coordinates": [[[-91.532725, 38.210667], [-91.368417, 38.210667], [-91.09457, 38.20519], [-91.100047, 37.73965], [-91.154816, 37.695834], [-91.527248, 37.788942], [-91.532725, 38.15042], [-91.532725, 38.210667]]]}}, {"type": "Feature", "properties": {"name": "Harrison", "id": "29081", "FIPS": "29081", "FIPS State": 29, "ST": "MO", "County": "Harrison County,MO", "State": "Missouri"}, "geometry": {"type": "Polygon", "coordinates": [[[-93.772794, 40.576705], [-93.76184, 40.264519], [-93.76184, 40.133073], [-94.216426, 40.13855], [-94.216426, 40.385012], [-94.232857, 40.571228], [-94.013779, 40.571228], [-93.772794, 40.576705]]]}}, {"type": "Feature", "properties": {"name": "Washington", "id": "16087", "FIPS": "16087", "FIPS State": 16, "ST": "ID", "County": "Washington County,ID", "State": "Idaho"}, "geometry": {"type": "Polygon", "coordinates": [[[-116.901913, 44.843241], [-116.299449, 44.443425], [-116.452804, 44.153147], [-116.896436, 44.153147], [-117.219575, 44.301024], [-116.901913, 44.843241]]]}}, {"type": "Feature", "properties": {"name": "Valley", "id": "16085", "FIPS": "16085", "FIPS State": 16, "ST": "ID", "County": "Valley County,ID", "State": "Idaho"}, "geometry": {"type": "Polygon", "coordinates": [[[-115.828432, 45.193766], [-114.694706, 45.199243], [-114.809722, 44.81038], [-115.04523, 44.750133], [-115.297169, 44.339363], [-115.680555, 44.235301], [-116.211818, 44.153147], [-116.157049, 44.498194], [-116.146095, 45.106135], [-115.828432, 45.193766]]]}}, {"type": "Feature", "properties": {"name": "Holt", "id": "29087", "FIPS": "29087", "FIPS State": 29, "ST": "MO", "County": "Holt County,MO", "State": "Missouri"}, "geometry": {"type": "Polygon", "coordinates": [[[-95.503507, 40.264519], [-95.180367, 40.264519], [-95.043444, 40.127596], [-94.994151, 39.897564], [-95.306337, 40.001626], [-95.552799, 40.264519], [-95.552799, 40.264519], [-95.503507, 40.264519]]]}}, {"type": "Feature", "properties": {"name": "Howard", "id": "29089", "FIPS": "29089", "FIPS State": 29, "ST": "MO", "County": "Howard County,MO", "State": "Missouri"}, "geometry": {"type": "Polygon", "coordinates": [[[-92.847191, 39.223901], [-92.70479, 39.322485], [-92.430943, 39.251285], [-92.556913, 38.971961], [-92.918391, 39.032208], [-92.934822, 39.065069], [-92.847191, 39.223901]]]}}, {"type": "Feature", "properties": {"name": "Grant", "id": "27051", "FIPS": "27051", "FIPS State": 27, "ST": "MN", "County": "Grant County,MN", "State": "Minnesota"}, "geometry": {"type": "Polygon", "coordinates": [[[-96.264801, 46.108415], [-95.771877, 46.108415], [-95.760923, 45.75789], [-96.253848, 45.75789], [-96.264801, 46.020784], [-96.264801, 46.108415]]]}}, {"type": "Feature", "properties": {"name": "Jersey", "id": "17083", "FIPS": "17083", "FIPS State": 17, "ST": "IL", "County": "Jersey County,IL", "State": "Illinois"}, "geometry": {"type": "Polygon", "coordinates": [[[-90.147059, 39.262239], [-90.147059, 38.999346], [-90.240167, 38.999346], [-90.278506, 38.922669], [-90.448291, 38.966484], [-90.601645, 39.119839], [-90.147059, 39.262239]]]}}, {"type": "Feature", "properties": {"name": "Washington", "id": "17189", "FIPS": "17189", "FIPS State": 17, "ST": "IL", "County": "Washington County,IL", "State": "Illinois"}, "geometry": {"type": "Polygon", "coordinates": [[[-89.320041, 38.511898], [-89.144779, 38.500944], [-89.144779, 38.47356], [-89.144779, 38.210667], [-89.593888, 38.22162], [-89.703427, 38.22162], [-89.703427, 38.41879], [-89.320041, 38.511898]]]}}, {"type": "Feature", "properties": {"name": "Jefferson", "id": "28063", "FIPS": "28063", "FIPS State": 28, "ST": "MS", "County": "Jefferson County,MS", "State": "Mississippi"}, "geometry": {"type": "Polygon", "coordinates": [[[-91.247924, 31.86837], [-90.738569, 31.786216], [-90.738569, 31.698584], [-90.738569, 31.610953], [-91.154816, 31.610953], [-91.319124, 31.758831], [-91.346509, 31.753354], [-91.247924, 31.86837]]]}}, {"type": "Feature", "properties": {"name": "Pope", "id": "17151", "FIPS": "17151", "FIPS State": 17, "ST": "IL", "County": "Pope County,IL", "State": "Illinois"}, "geometry": {"type": "Polygon", "coordinates": [[[-88.410869, 37.597249], [-88.416346, 37.421987], [-88.487546, 37.065986], [-88.712101, 37.334356], [-88.706624, 37.597249], [-88.410869, 37.597249]]]}}]}