{"type": "FeatureCollection", "crs": {"type": "name", "properties": {"name": "urn:ogc:def:crs:OGC:1.3:CRS84"}}, "features": [{"type": "Feature", "properties": {"name": "Kossuth", "id": "19109", "FIPS": "19109", "FIPS State": 19, "ST": "IA", "County": "Kossuth County,IA", "State": "Iowa"}, "geometry": {"type": "Polygon", "coordinates": [[[-94.249287, 43.501391], [-93.969963, 43.501391], [-93.969963, 43.254929], [-93.969963, 42.909881], [-94.090456, 42.909881], [-94.44098, 42.909881], [-94.44098, 43.254929], [-94.44098, 43.501391], [-94.249287, 43.501391]]]}}, {"type": "Feature", "properties": {"name": "Mitchell", "id": "19131", "FIPS": "19131", "FIPS State": 19, "ST": "IA", "County": "Mitchell County,IA", "State": "Iowa"}, "geometry": {"type": "Polygon", "coordinates": [[[-92.551436, 43.501391], [-92.556913, 43.211113], [-92.797898, 43.211113], [-93.022453, 43.211113], [-93.022453, 43.254929], [-93.022453, 43.501391], [-92.551436, 43.501391]]]}}, {"type": "Feature", "properties": {"name": "Morgan", "id": "54065", "FIPS": "54065", "FIPS State": 54, "ST": "WV", "County": "Morgan County,WV", "State": "West Virginia"}, "geometry": {"type": "Polygon", "coordinates": [[[-78.185421, 39.694917], [-78.021113, 39.61824], [-78.229237, 39.393686], [-78.349729, 39.464886], [-78.470222, 39.514178], [-78.333299, 39.634671], [-78.185421, 39.694917]]]}}, {"type": "Feature", "properties": {"name": "Preston", "id": "54077", "FIPS": "54077", "FIPS State": 54, "ST": "WV", "County": "Preston County,WV", "State": "West Virginia"}, "geometry": {"type": "Polygon", "coordinates": [[[-79.609426, 39.722302], [-79.477979, 39.722302], [-79.488933, 39.20747], [-79.488933, 39.196516], [-79.812073, 39.229378], [-79.894227, 39.300578], [-79.894227, 39.437501], [-79.76278, 39.722302], [-79.609426, 39.722302]]]}}, {"type": "Feature", "properties": {"name": "Montgomery", "id": "19137", "FIPS": "19137", "FIPS State": 19, "ST": "IA", "County": "Montgomery County,IA", "State": "Iowa"}, "geometry": {"type": "Polygon", "coordinates": [[[-95.267998, 41.157261], [-95.158459, 41.157261], [-94.928428, 41.157261], [-94.928428, 40.899844], [-95.289906, 40.899844], [-95.383014, 40.899844], [-95.383014, 41.157261], [-95.267998, 41.157261]]]}}, {"type": "Feature", "properties": {"name": "Doniphan", "id": "20043", "FIPS": "20043", "FIPS State": 20, "ST": "KS", "County": "Doniphan County,KS", "State": "Kansas"}, "geometry": {"type": "Polygon", "coordinates": [[[-95.339199, 40.001626], [-95.306337, 40.001626], [-94.994151, 39.897564], [-94.879136, 39.820887], [-95.054398, 39.623717], [-95.339199, 39.651102], [-95.339199, 40.001626]]]}}, {"type": "Feature", "properties": {"name": "Page", "id": "19145", "FIPS": "19145", "FIPS State": 19, "ST": "IA", "County": "Page County,IA", "State": "Iowa"}, "geometry": {"type": "Polygon", "coordinates": [[[-95.289906, 40.899844], [-94.928428, 40.899844], [-94.917474, 40.576705], [-95.163936, 40.576705], [-95.202275, 40.576705], [-95.37206, 40.582182], [-95.383014, 40.899844], [-95.289906, 40.899844]]]}}, {"type": "Feature", "properties": {"name": "Jackson", "id": "01071", "FIPS": "01071", "FIPS State": 1, "ST": "AL", "County": "Jackson County,AL", "State": "Alabama"}, "geometry": {"type": "Polygon", "coordinates": [[[-85.864092, 34.990226], [-85.606675, 34.984749], [-85.584768, 34.858779], [-86.055785, 34.475393], [-86.329632, 34.601363], [-86.313201, 34.990226], [-85.864092, 34.990226]]]}}, {"type": "Feature", "properties": {"name": "Ashland", "id": "55003", "FIPS": "55003", "FIPS State": 55, "ST": "WI", "County": "Ashland County,WI", "State": "Wisconsin"}, "geometry": {"type": "Polygon", "coordinates": [[[-90.546876, 46.584908], [-90.300413, 45.982445], [-90.678322, 45.982445], [-90.924785, 46.15223], [-90.924785, 46.584908], [-90.546876, 46.584908]]]}}, {"type": "Feature", "properties": {"name": "Geneva", "id": "01061", "FIPS": "01061", "FIPS State": 1, "ST": "AL", "County": "Geneva County,AL", "State": "Alabama"}, "geometry": {"type": "Polygon", "coordinates": [[[-85.486183, 31.200183], [-85.486183, 30.997536], [-85.497137, 30.997536], [-86.033877, 30.992059], [-86.187231, 30.992059], [-86.192708, 31.194706], [-85.792891, 31.194706], [-85.710737, 31.194706], [-85.486183, 31.200183]]]}}, {"type": "Feature", "properties": {"name": "Marengo", "id": "01091", "FIPS": "01091", "FIPS State": 1, "ST": "AL", "County": "Marengo County,AL", "State": "Alabama"}, "geometry": {"type": "Polygon", "coordinates": [[[-87.813882, 32.525602], [-87.523605, 32.481787], [-87.474312, 32.306525], [-87.474312, 32.262709], [-87.666005, 31.988862], [-87.819359, 31.988862], [-88.071299, 31.988862], [-87.928898, 32.312002], [-87.852221, 32.531079], [-87.813882, 32.525602]]]}}, {"type": "Feature", "properties": {"name": "Palo Alto", "id": "19147", "FIPS": "19147", "FIPS State": 19, "ST": "IA", "County": "Palo Alto County,IA", "State": "Iowa"}, "geometry": {"type": "Polygon", "coordinates": [[[-94.588858, 43.254929], [-94.44098, 43.254929], [-94.44098, 42.909881], [-94.911997, 42.909881], [-94.911997, 43.254929], [-94.588858, 43.254929]]]}}, {"type": "Feature", "properties": {"name": "Chase", "id": "20017", "FIPS": "20017", "FIPS State": 20, "ST": "KS", "County": "Chase County,KS", "State": "Kansas"}, "geometry": {"type": "Polygon", "coordinates": [[[-96.817972, 38.522852], [-96.352432, 38.522852], [-96.357909, 38.172328], [-96.522218, 38.084697], [-96.83988, 38.084697], [-96.817972, 38.522852]]]}}, {"type": "Feature", "properties": {"name": "Winneshiek", "id": "19191", "FIPS": "19191", "FIPS State": 19, "ST": "IA", "County": "Winneshiek County,IA", "State": "Iowa"}, "geometry": {"type": "Polygon", "coordinates": [[[-91.850387, 43.501391], [-91.729895, 43.501391], [-91.609402, 43.501391], [-91.603925, 43.079667], [-92.080419, 43.085144], [-92.080419, 43.211113], [-92.080419, 43.501391], [-91.850387, 43.501391]]]}}, {"type": "Feature", "properties": {"name": "Coffee", "id": "01031", "FIPS": "01031", "FIPS State": 1, "ST": "AL", "County": "Coffee County,AL", "State": "Alabama"}, "geometry": {"type": "Polygon", "coordinates": [[[-86.055785, 31.61643], [-85.787415, 31.61643], [-85.792891, 31.194706], [-86.192708, 31.194706], [-86.192708, 31.441168], [-86.143416, 31.61643], [-86.055785, 31.61643]]]}}, {"type": "Feature", "properties": {"name": "Choctaw", "id": "01023", "FIPS": "01023", "FIPS State": 1, "ST": "AL", "County": "Choctaw County,AL", "State": "Alabama"}, "geometry": {"type": "Polygon", "coordinates": [[[-87.994621, 32.312002], [-87.928898, 32.312002], [-88.071299, 31.988862], [-88.087729, 31.698584], [-88.186314, 31.698584], [-88.465638, 31.698584], [-88.471115, 31.895754], [-88.432777, 32.229848], [-88.421823, 32.306525], [-87.994621, 32.312002]]]}}, {"type": "Feature", "properties": {"name": "Vilas", "id": "55125", "FIPS": "55125", "FIPS State": 55, "ST": "WI", "County": "Vilas County,WI", "State": "Wisconsin"}, "geometry": {"type": "Polygon", "coordinates": [[[-89.927981, 46.300108], [-88.991425, 46.097461], [-88.931178, 46.075553], [-89.046194, 45.894814], [-89.298133, 45.872906], [-90.042997, 45.894814], [-90.042997, 45.982445], [-89.927981, 46.300108]]]}}, {"type": "Feature", "properties": {"name": "Waushara", "id": "55137", "FIPS": "55137", "FIPS State": 55, "ST": "WI", "County": "Waushara County,WI", "State": "Wisconsin"}, "geometry": {"type": "Polygon", "coordinates": [[[-89.599365, 44.246255], [-89.226933, 44.246255], [-88.887363, 44.240778], [-88.887363, 43.983362], [-88.936655, 43.983362], [-89.166687, 43.983362], [-89.599365, 43.983362], [-89.599365, 44.246255]]]}}, {"type": "Feature", "properties": {"name": "Carbon", "id": "56007", "FIPS": "56007", "FIPS State": 56, "ST": "WY", "County": "Carbon County,WY", "State": "Wyoming"}, "geometry": {"type": "Polygon", "coordinates": [[[-107.037943, 42.433388], [-106.074002, 42.433388], [-106.074002, 42.433388], [-106.068525, 41.392769], [-106.320464, 40.998429], [-106.857204, 41.003906], [-107.317267, 41.003906], [-107.919731, 41.003906], [-107.930684, 41.661139], [-107.50896, 41.655662], [-107.525391, 42.263602], [-107.525391, 42.433388], [-107.037943, 42.433388]]]}}, {"type": "Feature", "properties": {"name": "Lincoln", "id": "56023", "FIPS": "56023", "FIPS State": 56, "ST": "WY", "County": "Lincoln County,WY", "State": "Wyoming"}, "geometry": {"type": "Polygon", "coordinates": [[[-111.047063, 43.315175], [-110.576047, 43.233021], [-110.543185, 42.280033], [-110.055737, 42.269079], [-110.05026, 41.578985], [-111.047063, 41.578985], [-111.047063, 42.000709], [-111.047063, 42.515542], [-111.041587, 43.01942], [-111.047063, 43.315175]]]}}, {"type": "Feature", "properties": {"name": "Park", "id": "56029", "FIPS": "56029", "FIPS State": 56, "ST": "WY", "County": "Park County,WY", "State": "Wyoming"}, "geometry": {"type": "Polygon", "coordinates": [[[-109.798321, 45.002073], [-108.620779, 45.002073], [-108.549579, 44.169578], [-108.549579, 44.081947], [-109.310873, 43.813577], [-110.055737, 44.010746], [-110.3734, 44.580348], [-111.058017, 44.667979], [-111.041587, 45.002073], [-109.798321, 45.002073]]]}}, {"type": "Feature", "properties": {"name": "Crawford", "id": "55023", "FIPS": "55023", "FIPS State": 55, "ST": "WI", "County": "Crawford County,WI", "State": "Wisconsin"}, "geometry": {"type": "Polygon", "coordinates": [[[-90.9686, 43.424714], [-90.667368, 43.424714], [-90.667368, 43.172775], [-91.154816, 42.986559], [-91.176724, 43.079667], [-91.204109, 43.424714], [-90.9686, 43.424714]]]}}, {"type": "Feature", "properties": {"name": "Marion", "id": "01093", "FIPS": "01093", "FIPS State": 1, "ST": "AL", "County": "Marion County,AL", "State": "Alabama"}, "geometry": {"type": "Polygon", "coordinates": [[[-88.175361, 34.322039], [-87.633143, 34.305608], [-87.63862, 34.004376], [-87.63862, 33.916745], [-87.950806, 33.922222], [-88.208222, 34.059146], [-88.202745, 34.08653], [-88.175361, 34.322039]]]}}, {"type": "Feature", "properties": {"name": "Mills", "id": "19129", "FIPS": "19129", "FIPS State": 19, "ST": "IA", "County": "Mills County,IA", "State": "Iowa"}, "geometry": {"type": "Polygon", "coordinates": [[[-95.673292, 41.157261], [-95.383014, 41.157261], [-95.383014, 40.899844], [-95.519938, 40.899844], [-95.815692, 40.899844], [-95.881416, 41.053199], [-95.881416, 41.157261], [-95.673292, 41.157261]]]}}, {"type": "Feature", "properties": {"name": "Marshall", "id": "54051", "FIPS": "54051", "FIPS State": 54, "ST": "WV", "County": "Marshall County,WV", "State": "West Virginia"}, "geometry": {"type": "Polygon", "coordinates": [[[-80.726722, 40.034488], [-80.518598, 40.018057], [-80.518598, 39.963288], [-80.518598, 39.722302], [-80.830783, 39.722302], [-80.81983, 39.848272], [-80.732199, 40.034488], [-80.726722, 40.034488]]]}}, {"type": "Feature", "properties": {"name": "Smyth", "id": "51173", "FIPS": "51173", "FIPS State": 51, "ST": "VA", "County": "Smyth County,VA", "State": "Virginia"}, "geometry": {"type": "Polygon", "coordinates": [[[-81.477062, 36.989309], [-81.438724, 37.011217], [-81.378478, 36.95097], [-81.263462, 36.764754], [-81.608509, 36.638785], [-81.838541, 36.929063], [-81.778294, 36.956447], [-81.477062, 36.989309]]]}}, {"type": "Feature", "properties": {"name": "Sitka", "id": "02220", "FIPS": "02220", "FIPS State": 2, "ST": "AK", "County": "Sitka County,AK", "State": "Alaska"}, "geometry": {"type": "MultiPolygon", "coordinates": [[[[-136.372436, 57.829067], [-135.589233, 57.89479], [-134.937477, 57.763344], [-134.822462, 57.500451], [-135.572802, 57.675713], [-135.890465, 57.407343], [-136.372436, 57.829067]]], [[[-134.66363, 56.28457], [-134.669107, 56.169554], [-135.413971, 56.810356], [-135.687818, 57.369004], [-135.419448, 57.566174], [-134.849846, 57.407343], [-134.636246, 56.28457], [-134.66363, 56.28457]]]]}}, {"type": "Feature", "properties": {"name": "Washington", "id": "51191", "FIPS": "51191", "FIPS State": 51, "ST": "VA", "County": "Washington County,VA", "State": "Virginia"}, "geometry": {"type": "Polygon", "coordinates": [[[-81.838541, 36.929063], [-81.608509, 36.638785], [-81.646848, 36.6114], [-81.827587, 36.616877], [-82.145249, 36.594969], [-82.145249, 36.671646], [-82.243834, 36.594969], [-82.293127, 36.594969], [-82.331465, 36.709985], [-81.838541, 36.929063]]]}}, {"type": "Feature", "properties": {"name": "Ketchikan Gateway", "id": "02130", "FIPS": "02130", "FIPS State": 2, "ST": "AK", "County": "Ketchikan Gateway County,AK", "State": "Alaska"}, "geometry": {"type": "Polygon", "coordinates": [[[-131.706083, 55.89023], [-131.240543, 55.977861], [-131.032419, 55.28229], [-131.843006, 55.457552], [-131.706083, 55.89023]]]}}, {"type": "Feature", "properties": {"name": "Wythe", "id": "51197", "FIPS": "51197", "FIPS State": 51, "ST": "VA", "County": "Wythe County,VA", "State": "Virginia"}, "geometry": {"type": "Polygon", "coordinates": [[[-80.912938, 37.071463], [-80.743152, 36.87977], [-81.044384, 36.80857], [-81.263462, 36.764754], [-81.378478, 36.95097], [-80.912938, 37.071463]]]}}, {"type": "Feature", "properties": {"name": "Lee", "id": "19111", "FIPS": "19111", "FIPS State": 19, "ST": "IA", "County": "Lee County,IA", "State": "Iowa"}, "geometry": {"type": "Polygon", "coordinates": [[[-91.603925, 40.812213], [-91.406755, 40.812213], [-91.111001, 40.697198], [-91.187678, 40.636951], [-91.417709, 40.379535], [-91.718941, 40.598613], [-91.718941, 40.812213], [-91.603925, 40.812213]]]}}, {"type": "Feature", "properties": {"name": "Jefferson", "id": "53031", "FIPS": "53031", "FIPS State": 53, "ST": "WA", "County": "Jefferson County,WA", "State": "Washington"}, "geometry": {"type": "Polygon", "coordinates": [[[-122.751285, 47.740543], [-122.948455, 47.603619], [-123.507103, 47.515988], [-124.323167, 47.532419], [-124.356029, 47.532419], [-124.613445, 47.882943], [-122.948455, 47.866512], [-122.926547, 48.063682], [-122.751285, 47.740543]]]}}, {"type": "Feature", "properties": {"name": "Lincoln", "id": "53043", "FIPS": "53043", "FIPS State": 53, "ST": "WA", "County": "Lincoln County,WA", "State": "Washington"}, "geometry": {"type": "Polygon", "coordinates": [[[-118.972196, 47.94319], [-118.851704, 47.95962], [-118.342348, 47.893897], [-117.822039, 47.822697], [-117.822039, 47.258572], [-117.958962, 47.258572], [-118.950288, 47.264049], [-118.977673, 47.264049], [-118.972196, 47.94319]]]}}, {"type": "Feature", "properties": {"name": "Washington", "id": "01129", "FIPS": "01129", "FIPS State": 1, "ST": "AL", "County": "Washington County,AL", "State": "Alabama"}, "geometry": {"type": "Polygon", "coordinates": [[[-88.186314, 31.698584], [-88.087729, 31.698584], [-87.945329, 31.194706], [-87.972714, 31.161844], [-88.432777, 31.112552], [-88.449208, 31.435691], [-88.465638, 31.698584], [-88.186314, 31.698584]]]}}, {"type": "Feature", "properties": {"name": "Skamania", "id": "53059", "FIPS": "53059", "FIPS State": 53, "ST": "WA", "County": "Skamania County,WA", "State": "Washington"}, "geometry": {"type": "Polygon", "coordinates": [[[-121.52445, 46.387739], [-121.52445, 46.042691], [-121.52445, 45.725029], [-121.924267, 45.648352], [-122.247407, 45.549767], [-122.247407, 46.053645], [-122.24193, 46.387739], [-121.52445, 46.387739]]]}}, {"type": "Feature", "properties": {"name": "Tallapoosa", "id": "01123", "FIPS": "01123", "FIPS State": 1, "ST": "AL", "County": "Tallapoosa County,AL", "State": "Alabama"}, "geometry": {"type": "Polygon", "coordinates": [[[-85.655968, 33.106158], [-85.595722, 33.106158], [-85.595722, 32.728249], [-85.694307, 32.596803], [-85.885999, 32.492741], [-86.006492, 32.755634], [-86.006492, 33.089727], [-85.655968, 33.106158]]]}}, {"type": "Feature", "properties": {"name": "Brooke", "id": "54009", "FIPS": "54009", "FIPS State": 54, "ST": "WV", "County": "Brooke County,WV", "State": "West Virginia"}, "geometry": {"type": "Polygon", "coordinates": [[[-80.518598, 40.401443], [-80.518598, 40.160457], [-80.682906, 40.187842], [-80.633614, 40.395966], [-80.518598, 40.401443]]]}}, {"type": "Feature", "properties": {"name": "Marion", "id": "20115", "FIPS": "20115", "FIPS State": 20, "ST": "KS", "County": "Marion County,KS", "State": "Kansas"}, "geometry": {"type": "Polygon", "coordinates": [[[-97.261605, 38.610483], [-96.932988, 38.610483], [-96.817972, 38.522852], [-96.83988, 38.084697], [-97.113727, 38.084697], [-97.152066, 38.090174], [-97.152066, 38.172328], [-97.371143, 38.172328], [-97.371143, 38.610483], [-97.261605, 38.610483]]]}}, {"type": "Feature", "properties": {"name": "Hampshire", "id": "54027", "FIPS": "54027", "FIPS State": 54, "ST": "WV", "County": "Hampshire County,WV", "State": "West Virginia"}, "geometry": {"type": "Polygon", "coordinates": [[[-78.656438, 39.536086], [-78.470222, 39.514178], [-78.349729, 39.464886], [-78.508561, 39.086977], [-78.979578, 39.240331], [-78.656438, 39.536086]]]}}, {"type": "Feature", "properties": {"name": "Randolph", "id": "01111", "FIPS": "01111", "FIPS State": 1, "ST": "AL", "County": "Randolph County,AL", "State": "Alabama"}, "geometry": {"type": "Polygon", "coordinates": [[[-85.645014, 33.495021], [-85.305444, 33.484067], [-85.29449, 33.429298], [-85.234244, 33.128066], [-85.234244, 33.106158], [-85.404029, 33.106158], [-85.595722, 33.106158], [-85.655968, 33.106158], [-85.645014, 33.495021]]]}}, {"type": "Feature", "properties": {"name": "Linn", "id": "20107", "FIPS": "20107", "FIPS State": 20, "ST": "KS", "County": "Linn County,KS", "State": "Kansas"}, "geometry": {"type": "Polygon", "coordinates": [[[-95.010582, 38.391406], [-94.610765, 38.391406], [-94.616242, 38.062789], [-94.616242, 38.035405], [-94.933905, 38.035405], [-95.076305, 38.035405], [-95.065351, 38.391406], [-95.010582, 38.391406]]]}}, {"type": "Feature", "properties": {"name": "Pickens", "id": "01107", "FIPS": "01107", "FIPS State": 1, "ST": "AL", "County": "Pickens County,AL", "State": "Alabama"}, "geometry": {"type": "Polygon", "coordinates": [[[-88.273945, 33.53336], [-87.945329, 33.522406], [-87.841267, 33.522406], [-87.83579, 33.155451], [-88.169884, 32.996619], [-88.339669, 32.991142], [-88.306807, 33.286897], [-88.273945, 33.53336]]]}}, {"type": "Feature", "properties": {"name": "Perry", "id": "01105", "FIPS": "01105", "FIPS State": 1, "ST": "AL", "County": "Perry County,AL", "State": "Alabama"}, "geometry": {"type": "Polygon", "coordinates": [[[-87.326435, 32.876127], [-87.019726, 32.837788], [-87.019726, 32.728249], [-87.025203, 32.717295], [-87.474312, 32.306525], [-87.523605, 32.481787], [-87.419543, 32.876127], [-87.326435, 32.876127]]]}}, {"type": "Feature", "properties": {"name": "Jefferson", "id": "20087", "FIPS": "20087", "FIPS State": 20, "ST": "KS", "County": "Jefferson County,KS", "State": "Kansas"}, "geometry": {"type": "Polygon", "coordinates": [[[-95.465168, 39.42107], [-95.180367, 39.42107], [-95.185844, 39.043162], [-95.49803, 39.054115], [-95.591138, 39.218424], [-95.56923, 39.42107], [-95.465168, 39.42107]]]}}, {"type": "Feature", "properties": {"name": "Lewis", "id": "54041", "FIPS": "54041", "FIPS State": 54, "ST": "WV", "County": "Lewis County,WV", "State": "West Virginia"}, "geometry": {"type": "Polygon", "coordinates": [[[-80.452875, 39.141746], [-80.29952, 39.103408], [-80.392628, 38.725499], [-80.458352, 38.74193], [-80.606229, 38.906238], [-80.726722, 39.097931], [-80.595275, 39.169131], [-80.452875, 39.141746]]]}}, {"type": "Feature", "properties": {"name": "Logan", "id": "54045", "FIPS": "54045", "FIPS State": 54, "ST": "WV", "County": "Logan County,WV", "State": "West Virginia"}, "geometry": {"type": "Polygon", "coordinates": [[[-81.931648, 38.024451], [-81.608509, 37.788942], [-81.800202, 37.662973], [-82.189065, 37.975158], [-81.931648, 38.024451]]]}}, {"type": "Feature", "properties": {"name": "Anderson", "id": "21005", "FIPS": "21005", "FIPS State": 21, "ST": "KY", "County": "Anderson County,KY", "State": "Kentucky"}, "geometry": {"type": "Polygon", "coordinates": [[[-84.998735, 38.128512], [-84.867289, 38.117559], [-84.796088, 37.969681], [-85.031597, 37.893004], [-85.152089, 37.898481], [-85.16852, 37.969681], [-85.102797, 38.035405], [-85.02612, 38.128512], [-84.998735, 38.128512]]]}}, {"type": "Feature", "properties": {"name": "Medina", "id": "48325", "FIPS": "48325", "FIPS State": 48, "ST": "TX", "County": "Medina County,TX", "State": "Texas"}, "geometry": {"type": "Polygon", "coordinates": [[[-98.806102, 29.688547], [-98.806102, 29.250392], [-98.806102, 29.091561], [-98.904687, 29.091561], [-99.414042, 29.091561], [-99.414042, 29.628301], [-98.806102, 29.688547]]]}}, {"type": "Feature", "properties": {"name": "Robertson", "id": "48395", "FIPS": "48395", "FIPS State": 48, "ST": "TX", "County": "Robertson County,TX", "State": "Texas"}, "geometry": {"type": "Polygon", "coordinates": [[[-96.319571, 31.359014], [-96.242894, 30.975628], [-96.566033, 30.696304], [-96.620803, 30.729166], [-96.828926, 31.107075], [-96.598895, 31.222091], [-96.319571, 31.359014]]]}}, {"type": "Feature", "properties": {"name": "Matagorda", "id": "48321", "FIPS": "48321", "FIPS State": 48, "ST": "TX", "County": "Matagorda County,TX", "State": "Texas"}, "geometry": {"type": "Polygon", "coordinates": [[[-95.864985, 29.223007], [-95.508984, 28.823191], [-96.379817, 28.385036], [-96.37434, 28.401466], [-96.325048, 28.642452], [-96.325048, 28.675313], [-96.308617, 28.965591], [-95.875939, 29.228484], [-95.864985, 29.223007]]]}}, {"type": "Feature", "properties": {"name": "Wells", "id": "18179", "FIPS": "18179", "FIPS State": 18, "ST": "IN", "County": "Wells County,IN", "State": "Indiana"}, "geometry": {"type": "Polygon", "coordinates": [[[-85.108274, 40.916275], [-85.075412, 40.916275], [-85.069935, 40.565751], [-85.201382, 40.565751], [-85.22329, 40.565751], [-85.447844, 40.565751], [-85.447844, 40.653382], [-85.338305, 40.916275], [-85.108274, 40.916275]]]}}, {"type": "Feature", "properties": {"name": "Elbert", "id": "08039", "FIPS": "08039", "FIPS State": 8, "ST": "CO", "County": "Elbert County,CO", "State": "Colorado"}, "geometry": {"type": "Polygon", "coordinates": [[[-104.195411, 39.563471], [-103.71344, 39.568948], [-103.718917, 38.867899], [-104.053011, 38.867899], [-104.053011, 39.130793], [-104.660951, 39.130793], [-104.660951, 39.563471], [-104.195411, 39.563471]]]}}, {"type": "Feature", "properties": {"name": "Cumberland", "id": "21057", "FIPS": "21057", "FIPS State": 21, "ST": "KY", "County": "Cumberland County,KY", "State": "Kentucky"}, "geometry": {"type": "Polygon", "coordinates": [[[-85.447844, 36.940016], [-85.234244, 36.923586], [-85.217813, 36.852385], [-85.29449, 36.627831], [-85.43689, 36.616877], [-85.595722, 36.819524], [-85.453321, 36.940016], [-85.447844, 36.940016]]]}}, {"type": "Feature", "properties": {"name": "Crittenden", "id": "21055", "FIPS": "21055", "FIPS State": 21, "ST": "KY", "County": "Crittenden County,KY", "State": "Kentucky"}, "geometry": {"type": "Polygon", "coordinates": [[[-88.060345, 37.504141], [-87.934375, 37.482234], [-87.802929, 37.378172], [-88.098683, 37.181002], [-88.191791, 37.14814], [-88.3561, 37.405556], [-88.060345, 37.504141]]]}}, {"type": "Feature", "properties": {"name": "Clinton", "id": "21053", "FIPS": "21053", "FIPS State": 21, "ST": "KY", "County": "Clinton County,KY", "State": "Kentucky"}, "geometry": {"type": "Polygon", "coordinates": [[[-85.217813, 36.852385], [-85.064458, 36.857862], [-84.976827, 36.616877], [-85.278059, 36.627831], [-85.29449, 36.627831], [-85.217813, 36.852385]]]}}, {"type": "Feature", "properties": {"name": "Grundy", "id": "47061", "FIPS": "47061", "FIPS State": 47, "ST": "TN", "County": "Grundy County,TN", "State": "Tennessee"}, "geometry": {"type": "Polygon", "coordinates": [[[-85.590245, 35.521489], [-85.557383, 35.318842], [-85.601199, 35.307888], [-85.875046, 35.225734], [-85.913384, 35.291457], [-85.875046, 35.521489], [-85.606675, 35.532443], [-85.590245, 35.521489]]]}}, {"type": "Feature", "properties": {"name": "Hardin", "id": "47071", "FIPS": "47071", "FIPS State": 47, "ST": "TN", "County": "Hardin County,TN", "State": "Tennessee"}, "geometry": {"type": "Polygon", "coordinates": [[[-88.361576, 35.417427], [-88.241084, 35.422904], [-88.022006, 35.390042], [-87.983668, 35.006656], [-88.202745, 34.995703], [-88.252038, 34.995703], [-88.361576, 34.995703], [-88.378007, 34.995703], [-88.361576, 35.379088], [-88.361576, 35.417427]]]}}, {"type": "Feature", "properties": {"name": "Archuleta", "id": "08007", "FIPS": "08007", "FIPS State": 8, "ST": "CO", "County": "Archuleta County,CO", "State": "Colorado"}, "geometry": {"type": "Polygon", "coordinates": [[[-107.131051, 37.421987], [-106.709327, 37.405556], [-106.676465, 37.405556], [-106.473818, 36.994786], [-107.421329, 37.000263], [-107.481575, 37.000263], [-107.481575, 37.421987], [-107.131051, 37.421987]]]}}, {"type": "Feature", "properties": {"name": "Hawkins", "id": "47073", "FIPS": "47073", "FIPS State": 47, "ST": "TN", "County": "Hawkins County,TN", "State": "Tennessee"}, "geometry": {"type": "Polygon", "coordinates": [[[-82.654605, 36.594969], [-82.610789, 36.594969], [-82.681989, 36.430661], [-82.703897, 36.408753], [-83.081806, 36.244445], [-83.158483, 36.332076], [-83.257068, 36.288261], [-83.278976, 36.392322], [-82.829867, 36.594969], [-82.654605, 36.594969]]]}}, {"type": "Feature", "properties": {"name": "Chester", "id": "47023", "FIPS": "47023", "FIPS State": 47, "ST": "TN", "County": "Chester County,TN", "State": "Tennessee"}, "geometry": {"type": "Polygon", "coordinates": [[[-88.701147, 35.477673], [-88.613516, 35.587212], [-88.361576, 35.417427], [-88.361576, 35.379088], [-88.378007, 35.373611], [-88.783301, 35.247642], [-88.843547, 35.428381], [-88.701147, 35.477673]]]}}, {"type": "Feature", "properties": {"name": "Henderson", "id": "47077", "FIPS": "47077", "FIPS State": 47, "ST": "TN", "County": "Henderson County,TN", "State": "Tennessee"}, "geometry": {"type": "Polygon", "coordinates": [[[-88.514931, 35.822721], [-88.180837, 35.817244], [-88.241084, 35.422904], [-88.361576, 35.417427], [-88.613516, 35.587212], [-88.608039, 35.789859], [-88.514931, 35.822721]]]}}, {"type": "Feature", "properties": {"name": "Houston", "id": "47083", "FIPS": "47083", "FIPS State": 47, "ST": "TN", "County": "Houston County,TN", "State": "Tennessee"}, "geometry": {"type": "Polygon", "coordinates": [[[-87.753636, 36.34303], [-87.594805, 36.364938], [-87.512651, 36.332076], [-87.56742, 36.178722], [-87.879606, 36.233491], [-87.950806, 36.244445], [-87.983668, 36.353984], [-87.753636, 36.34303]]]}}, {"type": "Feature", "properties": {"name": "Humphreys", "id": "47085", "FIPS": "47085", "FIPS State": 47, "ST": "TN", "County": "Humphreys County,TN", "State": "Tennessee"}, "geometry": {"type": "Polygon", "coordinates": [[[-87.879606, 36.233491], [-87.56742, 36.178722], [-87.534558, 35.992506], [-87.715298, 35.839151], [-87.96176, 35.839151], [-87.950806, 36.244445], [-87.879606, 36.233491]]]}}, {"type": "Feature", "properties": {"name": "Jackson", "id": "47087", "FIPS": "47087", "FIPS State": 47, "ST": "TN", "County": "Jackson County,TN", "State": "Tennessee"}, "geometry": {"type": "Polygon", "coordinates": [[[-85.814799, 36.501861], [-85.497137, 36.403276], [-85.497137, 36.304691], [-85.497137, 36.299214], [-85.781938, 36.238968], [-85.825753, 36.41423], [-85.814799, 36.501861]]]}}, {"type": "Feature", "properties": {"name": "Lauderdale", "id": "47097", "FIPS": "47097", "FIPS State": 47, "ST": "TN", "County": "Lauderdale County,TN", "State": "Tennessee"}, "geometry": {"type": "Polygon", "coordinates": [[[-89.489826, 35.94869], [-89.341949, 35.882967], [-89.35838, 35.817244], [-89.50078, 35.581735], [-89.643181, 35.647459], [-89.911551, 35.53792], [-89.643181, 35.904875], [-89.489826, 35.94869]]]}}, {"type": "Feature", "properties": {"name": "Ballard", "id": "21007", "FIPS": "21007", "FIPS State": 21, "ST": "KY", "County": "Ballard County,KY", "State": "Kentucky"}, "geometry": {"type": "Polygon", "coordinates": [[[-88.936655, 37.230294], [-88.816163, 36.956447], [-89.100963, 36.945493], [-89.133825, 36.983832], [-89.172164, 37.065986], [-88.936655, 37.230294]]]}}, {"type": "Feature", "properties": {"name": "Marshall", "id": "47117", "FIPS": "47117", "FIPS State": 47, "ST": "TN", "County": "Marshall County,TN", "State": "Tennessee"}, "geometry": {"type": "Polygon", "coordinates": [[[-86.784218, 35.707705], [-86.685633, 35.707705], [-86.641817, 35.685797], [-86.598002, 35.362658], [-86.828033, 35.264073], [-86.95948, 35.417427], [-86.784218, 35.707705]]]}}, {"type": "Feature", "properties": {"name": "Audubon", "id": "19009", "FIPS": "19009", "FIPS State": 19, "ST": "IA", "County": "Audubon County,IA", "State": "Iowa"}, "geometry": {"type": "Polygon", "coordinates": [[[-95.092736, 41.863786], [-94.742212, 41.863786], [-94.698396, 41.502308], [-95.043444, 41.502308], [-95.092736, 41.863786]]]}}, {"type": "Feature", "properties": {"name": "Benton", "id": "19011", "FIPS": "19011", "FIPS State": 19, "ST": "IA", "County": "Benton County,IA", "State": "Iowa"}, "geometry": {"type": "Polygon", "coordinates": [[[-91.888726, 42.296464], [-91.82848, 42.296464], [-91.833957, 41.863786], [-92.063988, 41.863786], [-92.299497, 41.863786], [-92.299497, 42.296464], [-92.063988, 42.296464], [-91.888726, 42.296464]]]}}, {"type": "Feature", "properties": {"name": "Stewart", "id": "47161", "FIPS": "47161", "FIPS State": 47, "ST": "TN", "County": "Stewart County,TN", "State": "Tennessee"}, "geometry": {"type": "Polygon", "coordinates": [[[-88.071299, 36.677123], [-87.69339, 36.638785], [-87.63862, 36.638785], [-87.594805, 36.364938], [-87.753636, 36.34303], [-87.983668, 36.353984], [-87.989145, 36.359461], [-88.054868, 36.496384], [-88.071299, 36.677123]]]}}, {"type": "Feature", "properties": {"name": "Hickman", "id": "47081", "FIPS": "47081", "FIPS State": 47, "ST": "TN", "County": "Hickman County,TN", "State": "Tennessee"}, "geometry": {"type": "Polygon", "coordinates": [[[-87.512651, 35.992506], [-87.205942, 35.959644], [-87.216896, 35.850105], [-87.337389, 35.658412], [-87.660528, 35.60912], [-87.720774, 35.795336], [-87.715298, 35.839151], [-87.534558, 35.992506], [-87.512651, 35.992506]]]}}, {"type": "Feature", "properties": {"name": "Trousdale", "id": "47169", "FIPS": "47169", "FIPS State": 47, "ST": "TN", "County": "Trousdale County,TN", "State": "Tennessee"}, "geometry": {"type": "Polygon", "coordinates": [[[-86.231047, 36.48543], [-85.979107, 36.425184], [-86.137939, 36.293737], [-86.285816, 36.348507], [-86.231047, 36.48543]]]}}, {"type": "Feature", "properties": {"name": "Cheatham", "id": "47021", "FIPS": "47021", "FIPS State": 47, "ST": "TN", "County": "Cheatham County,TN", "State": "Tennessee"}, "geometry": {"type": "Polygon", "coordinates": [[[-87.118311, 36.458046], [-86.915664, 36.381369], [-87.052588, 36.047275], [-87.184034, 36.047275], [-87.288096, 36.321122], [-87.118311, 36.458046]]]}}, {"type": "Feature", "properties": {"name": "Gunnison", "id": "08051", "FIPS": "08051", "FIPS State": 8, "ST": "CO", "County": "Gunnison County,CO", "State": "Colorado"}, "geometry": {"type": "Polygon", "coordinates": [[[-107.503483, 39.218424], [-107.393944, 39.256762], [-106.599788, 38.999346], [-106.249264, 38.424267], [-106.999605, 38.424267], [-106.999605, 38.144943], [-107.569206, 38.144943], [-107.63493, 38.303775], [-107.498006, 38.67073], [-107.503483, 39.218424]]]}}, {"type": "Feature", "properties": {"name": "Jasper", "id": "45053", "FIPS": "45053", "FIPS State": 45, "ST": "SC", "County": "Jasper County,SC", "State": "South Carolina"}, "geometry": {"type": "Polygon", "coordinates": [[[-81.142969, 32.657049], [-80.869122, 32.662526], [-80.880076, 32.08197], [-80.885553, 32.032678], [-81.148446, 32.224371], [-81.279893, 32.558464], [-81.142969, 32.657049]]]}}, {"type": "Feature", "properties": {"name": "Kershaw", "id": "45055", "FIPS": "45055", "FIPS State": 45, "ST": "SC", "County": "Kershaw County,SC", "State": "South Carolina"}, "geometry": {"type": "Polygon", "coordinates": [[[-80.387151, 34.595886], [-80.288566, 34.365854], [-80.288566, 34.365854], [-80.480259, 34.168685], [-80.617183, 34.097484], [-80.825307, 34.26727], [-80.880076, 34.458962], [-80.409059, 34.612317], [-80.387151, 34.595886]]]}}, {"type": "Feature", "properties": {"name": "Knott", "id": "21119", "FIPS": "21119", "FIPS State": 21, "ST": "KY", "County": "Knott County,KY", "State": "Kentucky"}, "geometry": {"type": "Polygon", "coordinates": [[[-82.944882, 37.498664], [-82.922975, 37.48771], [-82.709374, 37.285064], [-82.731282, 37.27411], [-82.999652, 37.197433], [-83.125621, 37.405556], [-82.950359, 37.504141], [-82.944882, 37.498664]]]}}, {"type": "Feature", "properties": {"name": "Saguache", "id": "08109", "FIPS": "08109", "FIPS State": 8, "ST": "CO", "County": "Saguache County,CO", "State": "Colorado"}, "geometry": {"type": "Polygon", "coordinates": [[[-106.008278, 38.446175], [-105.794678, 38.265436], [-105.471538, 37.898481], [-105.455107, 37.750604], [-105.707047, 37.750604], [-106.04114, 37.750604], [-106.692896, 37.832758], [-106.999605, 37.958727], [-106.999605, 38.144943], [-106.999605, 38.424267], [-106.249264, 38.424267], [-106.008278, 38.446175]]]}}, {"type": "Feature", "properties": {"name": "Williamsburg", "id": "45089", "FIPS": "45089", "FIPS State": 45, "ST": "SC", "County": "Williamsburg County,SC", "State": "South Carolina"}, "geometry": {"type": "Polygon", "coordinates": [[[-79.83398, 33.883884], [-79.324625, 33.80173], [-79.319148, 33.779822], [-79.319148, 33.779822], [-79.675149, 33.303328], [-80.053058, 33.505975], [-80.10235, 33.495021], [-79.877796, 33.883884], [-79.83398, 33.883884]]]}}, {"type": "Feature", "properties": {"name": "Johnson", "id": "21115", "FIPS": "21115", "FIPS State": 21, "ST": "KY", "County": "Johnson County,KY", "State": "Kentucky"}, "geometry": {"type": "Polygon", "coordinates": [[[-82.851774, 37.975158], [-82.610789, 37.876573], [-82.638174, 37.717742], [-82.786051, 37.745127], [-82.939406, 37.717742], [-83.005129, 37.860142], [-82.988698, 37.964204], [-82.851774, 37.975158]]]}}, {"type": "Feature", "properties": {"name": "Rio Blanco", "id": "08103", "FIPS": "08103", "FIPS State": 8, "ST": "CO", "County": "Rio Blanco County,CO", "State": "Colorado"}, "geometry": {"type": "Polygon", "coordinates": [[[-107.109143, 40.226181], [-107.037943, 40.089257], [-107.936161, 39.694917], [-109.053457, 39.662056], [-109.053457, 40.220704], [-107.43776, 40.220704], [-107.109143, 40.226181]]]}}, {"type": "Feature", "properties": {"name": "Butte", "id": "46019", "FIPS": "46019", "FIPS State": 46, "ST": "SD", "County": "Butte County,SD", "State": "South Dakota"}, "geometry": {"type": "Polygon", "coordinates": [[[-104.042057, 45.210196], [-102.957623, 45.210196], [-102.957623, 45.040411], [-102.963099, 44.602256], [-103.565563, 44.602256], [-103.812025, 44.602256], [-104.058488, 44.569394], [-104.058488, 44.996596], [-104.042057, 45.210196]]]}}, {"type": "Feature", "properties": {"name": "Fall River", "id": "46047", "FIPS": "46047", "FIPS State": 46, "ST": "SD", "County": "Fall River County,SD", "State": "South Dakota"}, "geometry": {"type": "Polygon", "coordinates": [[[-103.937995, 43.479483], [-103.001438, 43.479483], [-103.001438, 43.002989], [-103.324578, 43.002989], [-103.505317, 43.002989], [-104.053011, 43.002989], [-104.053011, 43.479483], [-103.937995, 43.479483]]]}}, {"type": "Feature", "properties": {"name": "Grand", "id": "08049", "FIPS": "08049", "FIPS State": 8, "ST": "CO", "County": "Grand County,CO", "State": "Colorado"}, "geometry": {"type": "Polygon", "coordinates": [[[-105.854924, 40.483597], [-105.652277, 40.259042], [-105.674185, 39.930426], [-105.690616, 39.853749], [-105.926124, 39.700394], [-106.43548, 39.924949], [-106.627173, 39.924949], [-106.654557, 40.445258], [-105.854924, 40.483597]]]}}, {"type": "Feature", "properties": {"name": "Faulk", "id": "46049", "FIPS": "46049", "FIPS State": 46, "ST": "SD", "County": "Faulk County,SD", "State": "South Dakota"}, "geometry": {"type": "Polygon", "coordinates": [[[-99.572873, 45.243058], [-98.723948, 45.243058], [-98.718471, 45.243058], [-98.718471, 44.898011], [-99.30998, 44.898011], [-99.572873, 44.898011], [-99.572873, 45.243058]]]}}, {"type": "Feature", "properties": {"name": "Lawrence", "id": "46081", "FIPS": "46081", "FIPS State": 46, "ST": "SD", "County": "Lawrence County,SD", "State": "South Dakota"}, "geometry": {"type": "Polygon", "coordinates": [[[-103.812025, 44.602256], [-103.565563, 44.602256], [-103.450547, 44.142193], [-104.053011, 44.142193], [-104.053011, 44.180532], [-104.058488, 44.569394], [-103.812025, 44.602256]]]}}, {"type": "Feature", "properties": {"name": "Meade", "id": "46093", "FIPS": "46093", "FIPS State": 46, "ST": "SD", "County": "Meade County,SD", "State": "South Dakota"}, "geometry": {"type": "Polygon", "coordinates": [[[-102.042974, 45.040411], [-101.999158, 45.040411], [-101.999158, 44.509148], [-101.999158, 44.509148], [-102.119651, 44.437948], [-102.388021, 44.142193], [-103.450547, 44.142193], [-103.565563, 44.602256], [-102.963099, 44.602256], [-102.957623, 45.040411], [-102.042974, 45.040411]]]}}, {"type": "Feature", "properties": {"name": "Montezuma", "id": "08083", "FIPS": "08083", "FIPS State": 8, "ST": "CO", "County": "Montezuma County,CO", "State": "Colorado"}, "geometry": {"type": "Polygon", "coordinates": [[[-107.9745, 37.641065], [-108.379794, 37.000263], [-109.042503, 37.000263], [-109.042503, 37.482234], [-107.9745, 37.641065]]]}}, {"type": "Feature", "properties": {"name": "Moffat", "id": "08081", "FIPS": "08081", "FIPS State": 8, "ST": "CO", "County": "Moffat County,CO", "State": "Colorado"}, "geometry": {"type": "Polygon", "coordinates": [[[-107.919731, 41.003906], [-107.317267, 41.003906], [-107.43776, 40.220704], [-109.053457, 40.220704], [-109.04798, 40.653382], [-109.04798, 40.998429], [-107.919731, 41.003906]]]}}, {"type": "Feature", "properties": {"name": "Sanborn", "id": "46111", "FIPS": "46111", "FIPS State": 46, "ST": "SD", "County": "Sanborn County,SD", "State": "South Dakota"}, "geometry": {"type": "Polygon", "coordinates": [[[-98.209115, 44.196962], [-97.853114, 44.196962], [-97.847637, 44.196962], [-97.853114, 43.851915], [-97.96813, 43.851915], [-98.203638, 43.851915], [-98.324131, 43.851915], [-98.329608, 43.939546], [-98.329608, 44.196962], [-98.209115, 44.196962]]]}}, {"type": "Feature", "properties": {"name": "Logan", "id": "08075", "FIPS": "08075", "FIPS State": 8, "ST": "CO", "County": "Logan County,CO", "State": "Colorado"}, "geometry": {"type": "Polygon", "coordinates": [[[-102.650914, 41.003906], [-102.650914, 40.751967], [-102.667345, 40.439781], [-102.78236, 40.439781], [-103.466978, 40.434304], [-103.581994, 40.521935], [-103.576517, 41.003906], [-103.384824, 41.003906], [-102.650914, 41.003906]]]}}, {"type": "Feature", "properties": {"name": "Spink", "id": "46115", "FIPS": "46115", "FIPS State": 46, "ST": "SD", "County": "Spink County,SD", "State": "South Dakota"}, "geometry": {"type": "Polygon", "coordinates": [[[-98.532255, 45.243058], [-97.979084, 45.243058], [-97.979084, 45.155427], [-97.979084, 44.629641], [-98.088623, 44.629641], [-98.707517, 44.635118], [-98.718471, 44.898011], [-98.718471, 45.243058], [-98.532255, 45.243058]]]}}, {"type": "Feature", "properties": {"name": "Tripp", "id": "46123", "FIPS": "46123", "FIPS State": 46, "ST": "SD", "County": "Tripp County,SD", "State": "South Dakota"}, "geometry": {"type": "Polygon", "coordinates": [[[-99.665981, 43.75333], [-99.534535, 43.501391], [-99.534535, 42.997512], [-100.126044, 42.997512], [-100.197245, 42.997512], [-100.213675, 43.391852], [-100.230106, 43.714992], [-99.665981, 43.75333]]]}}, {"type": "Feature", "properties": {"name": "Carroll", "id": "47017", "FIPS": "47017", "FIPS State": 47, "ST": "TN", "County": "Carroll County,TN", "State": "Tennessee"}, "geometry": {"type": "Polygon", "coordinates": [[[-88.531362, 36.151337], [-88.213699, 36.118475], [-88.175361, 35.844628], [-88.180837, 35.817244], [-88.514931, 35.822721], [-88.608039, 35.789859], [-88.706624, 35.789859], [-88.690193, 36.063706], [-88.531362, 36.151337]]]}}, {"type": "Feature", "properties": {"name": "Jackson", "id": "21109", "FIPS": "21109", "FIPS State": 21, "ST": "KY", "County": "Jackson County,KY", "State": "Kentucky"}, "geometry": {"type": "Polygon", "coordinates": [[[-83.963593, 37.580818], [-83.903347, 37.54248], [-83.886916, 37.520572], [-83.782854, 37.350787], [-83.941686, 37.252202], [-84.138855, 37.317925], [-84.199102, 37.520572], [-84.089563, 37.564388], [-83.963593, 37.580818]]]}}, {"type": "Feature", "properties": {"name": "Union", "id": "47173", "FIPS": "47173", "FIPS State": 47, "ST": "TN", "County": "Union County,TN", "State": "Tennessee"}, "geometry": {"type": "Polygon", "coordinates": [[[-83.903347, 36.419707], [-83.667839, 36.34303], [-83.733562, 36.162291], [-83.925255, 36.173245], [-83.941686, 36.184199], [-84.001932, 36.27183], [-83.903347, 36.419707]]]}}, {"type": "Feature", "properties": {"name": "Clay", "id": "21051", "FIPS": "21051", "FIPS State": 21, "ST": "KY", "County": "Clay County,KY", "State": "Kentucky"}, "geometry": {"type": "Polygon", "coordinates": [[[-83.574731, 37.279587], [-83.525438, 37.257679], [-83.509007, 37.235771], [-83.509007, 36.940016], [-83.591161, 36.956447], [-83.788331, 37.033124], [-83.870485, 37.055032], [-83.941686, 37.252202], [-83.782854, 37.350787], [-83.574731, 37.279587]]]}}, {"type": "Feature", "properties": {"name": "Martin", "id": "27091", "FIPS": "27091", "FIPS State": 27, "ST": "MN", "County": "Martin County,MN", "State": "Minnesota"}, "geometry": {"type": "Polygon", "coordinates": [[[-94.616242, 43.846438], [-94.36978, 43.846438], [-94.249287, 43.846438], [-94.249287, 43.501391], [-94.44098, 43.501391], [-94.676489, 43.501391], [-94.851751, 43.501391], [-94.851751, 43.846438], [-94.616242, 43.846438]]]}}, {"type": "Feature", "properties": {"name": "Butler", "id": "21031", "FIPS": "21031", "FIPS State": 21, "ST": "KY", "County": "Butler County,KY", "State": "Kentucky"}, "geometry": {"type": "Polygon", "coordinates": [[[-86.614433, 37.394602], [-86.466555, 37.323402], [-86.400832, 37.170048], [-86.674679, 37.000263], [-86.943049, 37.071463], [-86.899233, 37.213863], [-86.614433, 37.394602]]]}}, {"type": "Feature", "properties": {"name": "Clarke", "id": "19039", "FIPS": "19039", "FIPS State": 19, "ST": "IA", "County": "Clarke County,IA", "State": "Iowa"}, "geometry": {"type": "Polygon", "coordinates": [[[-93.674209, 41.162737], [-93.559193, 41.162737], [-93.559193, 40.899844], [-93.663255, 40.899844], [-94.013779, 40.894367], [-94.013779, 41.157261], [-93.789224, 41.162737], [-93.674209, 41.162737]]]}}, {"type": "Feature", "properties": {"name": "Gaines", "id": "48165", "FIPS": "48165", "FIPS State": 48, "ST": "TX", "County": "Gaines County,TX", "State": "Texas"}, "geometry": {"type": "Polygon", "coordinates": [[[-103.067161, 32.958281], [-102.596144, 32.958281], [-102.207282, 32.958281], [-102.201805, 32.525602], [-102.212759, 32.525602], [-102.995961, 32.525602], [-103.067161, 32.520126], [-103.067161, 32.958281]]]}}, {"type": "Feature", "properties": {"name": "Lamar", "id": "48277", "FIPS": "48277", "FIPS State": 48, "ST": "TX", "County": "Lamar County,TX", "State": "Texas"}, "geometry": {"type": "Polygon", "coordinates": [[[-95.311814, 33.878407], [-95.306337, 33.380005], [-95.651384, 33.484067], [-95.859508, 33.462159], [-95.843077, 33.840068], [-95.760923, 33.87293], [-95.311814, 33.878407]]]}}, {"type": "Feature", "properties": {"name": "Clay", "id": "19041", "FIPS": "19041", "FIPS State": 19, "ST": "IA", "County": "Clay County,IA", "State": "Iowa"}, "geometry": {"type": "Polygon", "coordinates": [[[-95.169413, 43.254929], [-94.911997, 43.254929], [-94.911997, 42.909881], [-95.251567, 42.909881], [-95.388491, 42.909881], [-95.388491, 43.254929], [-95.169413, 43.254929]]]}}, {"type": "Feature", "properties": {"name": "Frio", "id": "48163", "FIPS": "48163", "FIPS State": 48, "ST": "TX", "County": "Frio County,TX", "State": "Texas"}, "geometry": {"type": "Polygon", "coordinates": [[[-98.904687, 29.091561], [-98.806102, 29.091561], [-98.800625, 28.647929], [-99.397611, 28.642452], [-99.408565, 28.642452], [-99.414042, 29.091561], [-98.904687, 29.091561]]]}}, {"type": "Feature", "properties": {"name": "Hood", "id": "48221", "FIPS": "48221", "FIPS State": 48, "ST": "TX", "County": "Hood County,TX", "State": "Texas"}, "geometry": {"type": "Polygon", "coordinates": [[[-98.066715, 32.558464], [-97.617606, 32.552987], [-97.617606, 32.317479], [-97.946222, 32.235325], [-98.066715, 32.509172], [-98.066715, 32.558464]]]}}, {"type": "Feature", "properties": {"name": "Breckinridge", "id": "21027", "FIPS": "21027", "FIPS State": 21, "ST": "KY", "County": "Breckinridge County,KY", "State": "Kentucky"}, "geometry": {"type": "Polygon", "coordinates": [[[-86.652771, 37.843712], [-86.488463, 38.046358], [-86.148893, 37.799896], [-86.274862, 37.591772], [-86.472032, 37.602726], [-86.592525, 37.564388], [-86.63634, 37.662973], [-86.652771, 37.843712]]]}}, {"type": "Feature", "properties": {"name": "Lassen", "id": "06035", "FIPS": "06035", "FIPS State": 6, "ST": "CA", "County": "Lassen County,CA", "State": "California"}, "geometry": {"type": "Polygon", "coordinates": [[[-120.943895, 41.184645], [-120.001861, 41.184645], [-120.001861, 39.722302], [-120.149738, 39.705871], [-120.209985, 40.08378], [-121.119157, 40.445258], [-121.327281, 40.445258], [-121.332757, 41.184645], [-120.943895, 41.184645]]]}}, {"type": "Feature", "properties": {"name": "Freestone", "id": "48161", "FIPS": "48161", "FIPS State": 48, "ST": "TX", "County": "Freestone County,TX", "State": "Texas"}, "geometry": {"type": "Polygon", "coordinates": [[[-96.051201, 32.005293], [-95.788308, 31.61643], [-96.237417, 31.413784], [-96.494833, 31.797169], [-96.056678, 32.01077], [-96.051201, 32.005293]]]}}, {"type": "Feature", "properties": {"name": "Hudspeth", "id": "48229", "FIPS": "48229", "FIPS State": 48, "ST": "TX", "County": "Hudspeth County,TX", "State": "Texas"}, "geometry": {"type": "Polygon", "coordinates": [[[-105.997324, 31.999816], [-104.918367, 31.999816], [-104.918367, 30.663443], [-104.98409, 30.630581], [-104.98409, 30.630581], [-105.997324, 31.386399], [-105.997324, 31.999816]]]}}, {"type": "Feature", "properties": {"name": "La Salle", "id": "48283", "FIPS": "48283", "FIPS State": 48, "ST": "TX", "County": "La Salle County,TX", "State": "Texas"}, "geometry": {"type": "Polygon", "coordinates": [[[-98.800625, 28.647929], [-98.800625, 28.636975], [-98.800625, 28.056419], [-99.392134, 28.204297], [-99.397611, 28.642452], [-98.800625, 28.647929]]]}}, {"type": "Feature", "properties": {"name": "Limestone", "id": "48293", "FIPS": "48293", "FIPS State": 48, "ST": "TX", "County": "Limestone County,TX", "State": "Texas"}, "geometry": {"type": "Polygon", "coordinates": [[[-96.719387, 31.8136], [-96.494833, 31.797169], [-96.237417, 31.413784], [-96.319571, 31.359014], [-96.598895, 31.222091], [-96.801542, 31.523322], [-96.932988, 31.709538], [-96.719387, 31.8136]]]}}, {"type": "Feature", "properties": {"name": "Fayette", "id": "48149", "FIPS": "48149", "FIPS State": 48, "ST": "TX", "County": "Fayette County,TX", "State": "Texas"}, "geometry": {"type": "Polygon", "coordinates": [[[-96.801542, 30.154087], [-96.796065, 30.159564], [-96.620803, 30.044549], [-96.57151, 29.962394], [-96.872742, 29.633778], [-97.141112, 29.628301], [-97.316374, 29.787132], [-97.316374, 29.787132], [-97.026096, 30.050025], [-96.801542, 30.154087]]]}}, {"type": "Feature", "properties": {"name": "Butler", "id": "19023", "FIPS": "19023", "FIPS State": 19, "ST": "IA", "County": "Butler County,IA", "State": "Iowa"}, "geometry": {"type": "Polygon", "coordinates": [[[-93.022453, 42.909881], [-92.556913, 42.904404], [-92.556913, 42.641511], [-92.551436, 42.55388], [-92.907437, 42.55388], [-93.02793, 42.55388], [-93.022453, 42.909881]]]}}, {"type": "Feature", "properties": {"name": "Edwards", "id": "48137", "FIPS": "48137", "FIPS State": 48, "ST": "TX", "County": "Edwards County,TX", "State": "Texas"}, "geometry": {"type": "Polygon", "coordinates": [[[-99.753612, 30.291011], [-99.759089, 30.071933], [-100.016506, 29.622824], [-100.109614, 29.622824], [-100.575153, 29.622824], [-100.701123, 29.622824], [-100.701123, 30.291011], [-100.115091, 30.291011], [-99.753612, 30.291011]]]}}, {"type": "Feature", "properties": {"name": "Jones", "id": "48253", "FIPS": "48253", "FIPS State": 48, "ST": "TX", "County": "Jones County,TX", "State": "Texas"}, "geometry": {"type": "Polygon", "coordinates": [[[-100.109614, 32.958281], [-99.989121, 32.958281], [-99.611212, 32.958281], [-99.611212, 32.514649], [-99.627643, 32.514649], [-100.136998, 32.520126], [-100.147952, 32.520126], [-100.142475, 32.958281], [-100.109614, 32.958281]]]}}, {"type": "Feature", "properties": {"name": "Eastland", "id": "48133", "FIPS": "48133", "FIPS State": 48, "ST": "TX", "County": "Eastland County,TX", "State": "Texas"}, "geometry": {"type": "Polygon", "coordinates": [[[-98.740378, 32.514649], [-98.57607, 32.514649], [-98.477485, 32.514649], [-98.548686, 32.262709], [-98.926594, 32.076493], [-99.118287, 32.08197], [-99.11281, 32.514649], [-99.09638, 32.514649], [-98.740378, 32.514649]]]}}, {"type": "Feature", "properties": {"name": "Bell", "id": "21013", "FIPS": "21013", "FIPS State": 21, "ST": "KY", "County": "Bell County,KY", "State": "Kentucky"}, "geometry": {"type": "Polygon", "coordinates": [[[-83.509007, 36.940016], [-83.492576, 36.896201], [-83.459715, 36.666169], [-83.673316, 36.600446], [-83.930732, 36.589492], [-83.875962, 36.688077], [-83.591161, 36.956447], [-83.509007, 36.940016]]]}}, {"type": "Feature", "properties": {"name": "Dawson", "id": "48115", "FIPS": "48115", "FIPS State": 48, "ST": "TX", "County": "Dawson County,TX", "State": "Texas"}, "geometry": {"type": "Polygon", "coordinates": [[[-101.692449, 32.963758], [-101.686972, 32.525602], [-102.201805, 32.525602], [-102.207282, 32.958281], [-102.075835, 32.958281], [-101.692449, 32.963758]]]}}, {"type": "Feature", "properties": {"name": "Live Oak", "id": "48297", "FIPS": "48297", "FIPS State": 48, "ST": "TX", "County": "Live Oak County,TX", "State": "Texas"}, "geometry": {"type": "Polygon", "coordinates": [[[-98.099576, 28.784852], [-98.006468, 28.691744], [-97.820252, 28.176912], [-97.880499, 28.056419], [-98.2365, 28.056419], [-98.335085, 28.056419], [-98.335085, 28.615067], [-98.099576, 28.784852]]]}}, {"type": "Feature", "properties": {"name": "Colorado", "id": "48089", "FIPS": "48089", "FIPS State": 48, "ST": "TX", "County": "Colorado County,TX", "State": "Texas"}, "geometry": {"type": "Polygon", "coordinates": [[[-96.57151, 29.962394], [-96.17717, 29.633778], [-96.64271, 29.250392], [-96.659141, 29.261346], [-96.872742, 29.633778], [-96.57151, 29.962394]]]}}]}