{"type": "FeatureCollection", "crs": {"type": "name", "properties": {"name": "urn:ogc:def:crs:OGC:1.3:CRS84"}}, "features": [{"type": "Feature", "properties": {"name": "Valley", "id": "16085", "FIPS": "16085", "FIPS State": 16, "ST": "ID", "County": "Valley County,ID", "State": "Idaho"}, "geometry": {"type": "Polygon", "coordinates": [[[-115.828432, 45.193766], [-114.694706, 45.199243], [-114.809722, 44.81038], [-115.04523, 44.750133], [-115.297169, 44.339363], [-115.680555, 44.235301], [-116.211818, 44.153147], [-116.157049, 44.498194], [-116.146095, 45.106135], [-115.828432, 45.193766]]]}}, {"type": "Feature", "properties": {"name": "Knox", "id": "17095", "FIPS": "17095", "FIPS State": 17, "ST": "IL", "County": "Knox County,IL", "State": "Illinois"}, "geometry": {"type": "Polygon", "coordinates": [[[-90.207305, 41.151784], [-89.982751, 41.151784], [-89.988228, 40.976521], [-89.988228, 40.713628], [-90.442814, 40.713628], [-90.437337, 41.064153], [-90.437337, 41.151784], [-90.207305, 41.151784]]]}}, {"type": "Feature", "properties": {"name": "Lawrence", "id": "17101", "FIPS": "17101", "FIPS State": 17, "ST": "IL", "County": "Lawrence County,IL", "State": "Illinois"}, "geometry": {"type": "Polygon", "coordinates": [[[-87.534558, 38.851469], [-87.649574, 38.566668], [-87.912467, 38.572145], [-87.90699, 38.851469], [-87.534558, 38.851469]]]}}, {"type": "Feature", "properties": {"name": "Rock", "id": "27133", "FIPS": "27133", "FIPS State": 27, "ST": "MN", "County": "Rock County,MN", "State": "Minnesota"}, "geometry": {"type": "Polygon", "coordinates": [[[-96.451017, 43.851915], [-96.062155, 43.846438], [-96.051201, 43.846438], [-96.051201, 43.501391], [-96.451017, 43.501391], [-96.451017, 43.851915]]]}}, {"type": "Feature", "properties": {"name": "Washington", "id": "17189", "FIPS": "17189", "FIPS State": 17, "ST": "IL", "County": "Washington County,IL", "State": "Illinois"}, "geometry": {"type": "Polygon", "coordinates": [[[-89.320041, 38.511898], [-89.144779, 38.500944], [-89.144779, 38.47356], [-89.144779, 38.210667], [-89.593888, 38.22162], [-89.703427, 38.22162], [-89.703427, 38.41879], [-89.320041, 38.511898]]]}}, {"type": "Feature", "properties": {"name": "Saline", "id": "17165", "FIPS": "17165", "FIPS State": 17, "ST": "IL", "County": "Saline County,IL", "State": "Illinois"}, "geometry": {"type": "Polygon", "coordinates": [[[-88.4273, 37.909435], [-88.37253, 37.909435], [-88.378007, 37.597249], [-88.410869, 37.597249], [-88.706624, 37.597249], [-88.706624, 37.865619], [-88.706624, 37.909435], [-88.4273, 37.909435]]]}}, {"type": "Feature", "properties": {"name": "Murray", "id": "27101", "FIPS": "27101", "FIPS State": 27, "ST": "MN", "County": "Murray County,MN", "State": "Minnesota"}, "geometry": {"type": "Polygon", "coordinates": [[[-96.012862, 44.196962], [-95.591138, 44.196962], [-95.459691, 44.196962], [-95.465168, 43.846438], [-96.051201, 43.846438], [-96.062155, 43.846438], [-96.062155, 44.196962], [-96.012862, 44.196962]]]}}, {"type": "Feature", "properties": {"name": "White", "id": "17193", "FIPS": "17193", "FIPS State": 17, "ST": "IL", "County": "White County,IL", "State": "Illinois"}, "geometry": {"type": "Polygon", "coordinates": [[[-88.005575, 38.259959], [-87.989145, 38.259959], [-87.972714, 38.232574], [-87.978191, 38.232574], [-88.054868, 37.88205], [-88.137022, 37.909435], [-88.37253, 37.909435], [-88.37253, 38.254482], [-88.153453, 38.254482], [-88.005575, 38.259959]]]}}, {"type": "Feature", "properties": {"name": "Stevens", "id": "27149", "FIPS": "27149", "FIPS State": 27, "ST": "MN", "County": "Stevens County,MN", "State": "Minnesota"}, "geometry": {"type": "Polygon", "coordinates": [[[-96.253848, 45.75789], [-95.760923, 45.75789], [-95.749969, 45.412843], [-95.974524, 45.412843], [-96.116924, 45.412843], [-96.253848, 45.588105], [-96.253848, 45.75789]]]}}, {"type": "Feature", "properties": {"name": "Pope", "id": "17151", "FIPS": "17151", "FIPS State": 17, "ST": "IL", "County": "Pope County,IL", "State": "Illinois"}, "geometry": {"type": "Polygon", "coordinates": [[[-88.410869, 37.597249], [-88.416346, 37.421987], [-88.487546, 37.065986], [-88.712101, 37.334356], [-88.706624, 37.597249], [-88.410869, 37.597249]]]}}, {"type": "Feature", "properties": {"name": "Pike", "id": "17149", "FIPS": "17149", "FIPS State": 17, "ST": "IL", "County": "Pike County,IL", "State": "Illinois"}, "geometry": {"type": "Polygon", "coordinates": [[[-90.919308, 39.842795], [-90.57426, 39.837318], [-90.601645, 39.788025], [-90.579737, 39.519655], [-90.612599, 39.393686], [-90.935738, 39.399163], [-91.176724, 39.596333], [-91.30817, 39.683964], [-91.36294, 39.760641], [-90.919308, 39.842795]]]}}, {"type": "Feature", "properties": {"name": "Perry", "id": "17145", "FIPS": "17145", "FIPS State": 17, "ST": "IL", "County": "Perry County,IL", "State": "Illinois"}, "geometry": {"type": "Polygon", "coordinates": [[[-89.593888, 38.22162], [-89.144779, 38.210667], [-89.128348, 38.123036], [-89.177641, 37.947773], [-89.566503, 37.95325], [-89.593888, 37.95325], [-89.593888, 38.22162]]]}}, {"type": "Feature", "properties": {"name": "Scott", "id": "28123", "FIPS": "28123", "FIPS State": 28, "ST": "MS", "County": "Scott County,MS", "State": "Mississippi"}, "geometry": {"type": "Polygon", "coordinates": [[[-89.730812, 32.635141], [-89.320041, 32.574895], [-89.320041, 32.224371], [-89.456965, 32.224371], [-89.730812, 32.224371], [-89.785581, 32.585849], [-89.730812, 32.635141]]]}}, {"type": "Feature", "properties": {"name": "Wadena", "id": "27159", "FIPS": "27159", "FIPS State": 27, "ST": "MN", "County": "Wadena County,MN", "State": "Minnesota"}, "geometry": {"type": "Polygon", "coordinates": [[[-95.037967, 46.803986], [-94.786028, 46.803986], [-94.731258, 46.371308], [-95.152983, 46.371308], [-95.163936, 46.716355], [-95.163936, 46.803986], [-95.037967, 46.803986]]]}}, {"type": "Feature", "properties": {"name": "Alcorn", "id": "28003", "FIPS": "28003", "FIPS State": 28, "ST": "MS", "County": "Alcorn County,MS", "State": "Mississippi"}, "geometry": {"type": "Polygon", "coordinates": [[[-88.471115, 34.995703], [-88.378007, 34.995703], [-88.361576, 34.995703], [-88.367053, 34.754717], [-88.717578, 34.754717], [-88.821639, 34.995703], [-88.788778, 34.995703], [-88.471115, 34.995703]]]}}, {"type": "Feature", "properties": {"name": "Copiah", "id": "28029", "FIPS": "28029", "FIPS State": 28, "ST": "MS", "County": "Copiah County,MS", "State": "Mississippi"}, "geometry": {"type": "Polygon", "coordinates": [[[-90.716661, 32.049109], [-90.229213, 32.049109], [-90.125151, 31.753354], [-90.245644, 31.715015], [-90.311367, 31.698584], [-90.738569, 31.698584], [-90.738569, 31.786216], [-90.716661, 32.049109]]]}}, {"type": "Feature", "properties": {"name": "Itawamba", "id": "28057", "FIPS": "28057", "FIPS State": 28, "ST": "MS", "County": "Itawamba County,MS", "State": "Mississippi"}, "geometry": {"type": "Polygon", "coordinates": [[[-88.493023, 34.464439], [-88.328715, 34.464439], [-88.15893, 34.464439], [-88.175361, 34.322039], [-88.202745, 34.08653], [-88.542316, 34.08653], [-88.542316, 34.464439], [-88.493023, 34.464439]]]}}, {"type": "Feature", "properties": {"name": "Mason", "id": "17125", "FIPS": "17125", "FIPS State": 17, "ST": "IL", "County": "Mason County,IL", "State": "Illinois"}, "geometry": {"type": "Polygon", "coordinates": [[[-89.89512, 40.434304], [-89.604842, 40.319289], [-89.599365, 40.122119], [-89.670565, 40.160457], [-89.993705, 40.105688], [-90.355183, 40.122119], [-90.201828, 40.182365], [-89.922504, 40.434304], [-89.89512, 40.434304]]]}}, {"type": "Feature", "properties": {"name": "Jefferson", "id": "28063", "FIPS": "28063", "FIPS State": 28, "ST": "MS", "County": "Jefferson County,MS", "State": "Mississippi"}, "geometry": {"type": "Polygon", "coordinates": [[[-91.247924, 31.86837], [-90.738569, 31.786216], [-90.738569, 31.698584], [-90.738569, 31.610953], [-91.154816, 31.610953], [-91.319124, 31.758831], [-91.346509, 31.753354], [-91.247924, 31.86837]]]}}, {"type": "Feature", "properties": {"name": "Mahnomen", "id": "27087", "FIPS": "27087", "FIPS State": 27, "ST": "MN", "County": "Mahnomen County,MN", "State": "Minnesota"}, "geometry": {"type": "Polygon", "coordinates": [[[-95.552799, 47.149033], [-96.067632, 47.149033], [-96.067632, 47.499557], [-95.552799, 47.499557], [-95.552799, 47.149033]]]}}, {"type": "Feature", "properties": {"name": "Noxubee", "id": "28103", "FIPS": "28103", "FIPS State": 28, "ST": "MS", "County": "Noxubee County,MS", "State": "Mississippi"}, "geometry": {"type": "Polygon", "coordinates": [[[-88.668285, 33.286897], [-88.306807, 33.286897], [-88.339669, 32.991142], [-88.345146, 32.930896], [-88.810686, 32.925419], [-88.810686, 33.286897], [-88.668285, 33.286897]]]}}, {"type": "Feature", "properties": {"name": "Pike", "id": "28113", "FIPS": "28113", "FIPS State": 28, "ST": "MS", "County": "Pike County,MS", "State": "Mississippi"}, "geometry": {"type": "Polygon", "coordinates": [[[-90.355183, 31.34806], [-90.262075, 31.34806], [-90.262075, 31.003013], [-90.349706, 31.003013], [-90.371614, 30.997536], [-90.546876, 30.997536], [-90.546876, 31.34806], [-90.355183, 31.34806]]]}}, {"type": "Feature", "properties": {"name": "Pontotoc", "id": "28115", "FIPS": "28115", "FIPS State": 28, "ST": "MS", "County": "Pontotoc County,MS", "State": "Mississippi"}, "geometry": {"type": "Polygon", "coordinates": [[[-89.09001, 34.382285], [-88.827116, 34.365854], [-88.827116, 34.075577], [-89.139302, 34.075577], [-89.243364, 34.163208], [-89.248841, 34.376808], [-89.09001, 34.382285]]]}}, {"type": "Feature", "properties": {"name": "Adams", "id": "28001", "FIPS": "28001", "FIPS State": 28, "ST": "MS", "County": "Adams County,MS", "State": "Mississippi"}, "geometry": {"type": "Polygon", "coordinates": [[[-91.319124, 31.758831], [-91.154816, 31.610953], [-91.160293, 31.34806], [-91.264355, 31.369968], [-91.587494, 31.189229], [-91.379371, 31.731446], [-91.346509, 31.753354], [-91.319124, 31.758831]]]}}, {"type": "Feature", "properties": {"name": "Montgomery", "id": "29139", "FIPS": "29139", "FIPS State": 29, "ST": "MO", "County": "Montgomery County,MO", "State": "Missouri"}, "geometry": {"type": "Polygon", "coordinates": [[[-91.625833, 39.147223], [-91.406755, 39.141746], [-91.258878, 39.141746], [-91.264355, 38.993869], [-91.417709, 38.709068], [-91.642264, 38.703591], [-91.647741, 38.703591], [-91.63131, 39.059592], [-91.625833, 39.147223]]]}}, {"type": "Feature", "properties": {"name": "Morgan", "id": "29141", "FIPS": "29141", "FIPS State": 29, "ST": "MO", "County": "Morgan County,MO", "State": "Missouri"}, "geometry": {"type": "Polygon", "coordinates": [[[-93.060791, 38.692637], [-92.841714, 38.681683], [-92.622636, 38.429744], [-92.693836, 38.22162], [-93.077222, 38.259959], [-93.066268, 38.528329], [-93.060791, 38.692637]]]}}, {"type": "Feature", "properties": {"name": "Nodaway", "id": "29147", "FIPS": "29147", "FIPS State": 29, "ST": "MO", "County": "Nodaway County,MO", "State": "Missouri"}, "geometry": {"type": "Polygon", "coordinates": [[[-95.163936, 40.576705], [-94.917474, 40.576705], [-94.632673, 40.571228], [-94.599812, 40.385012], [-94.605288, 40.127596], [-95.043444, 40.127596], [-95.180367, 40.264519], [-95.202275, 40.576705], [-95.163936, 40.576705]]]}}, {"type": "Feature", "properties": {"name": "Valley", "id": "30105", "FIPS": "30105", "FIPS State": 30, "ST": "MT", "County": "Valley County,MT", "State": "Montana"}, "geometry": {"type": "Polygon", "coordinates": [[[-106.11234, 49.000239], [-105.805632, 48.562084], [-105.84397, 48.008913], [-106.419049, 47.95962], [-106.490249, 47.95962], [-107.415852, 47.69125], [-107.180344, 49.000239], [-106.11234, 49.000239]]]}}, {"type": "Feature", "properties": {"name": "Adams", "id": "31001", "FIPS": "31001", "FIPS State": 31, "ST": "NE", "County": "Adams County,NE", "State": "Nebraska"}, "geometry": {"type": "Polygon", "coordinates": [[[-98.723948, 40.697198], [-98.280315, 40.697198], [-98.280315, 40.697198], [-98.280315, 40.35215], [-98.291269, 40.35215], [-98.723948, 40.35215], [-98.723948, 40.691721], [-98.723948, 40.697198]]]}}, {"type": "Feature", "properties": {"name": "Colfax", "id": "31037", "FIPS": "31037", "FIPS State": 31, "ST": "NE", "County": "Colfax County,NE", "State": "Nebraska"}, "geometry": {"type": "Polygon", "coordinates": [[[-97.250651, 41.743293], [-97.020619, 41.743293], [-96.905603, 41.743293], [-96.905603, 41.453015], [-97.256128, 41.376338], [-97.250651, 41.743293], [-97.250651, 41.743293]]]}}, {"type": "Feature", "properties": {"name": "Cuming", "id": "31039", "FIPS": "31039", "FIPS State": 31, "ST": "NE", "County": "Cuming County,NE", "State": "Nebraska"}, "geometry": {"type": "Polygon", "coordinates": [[[-96.89465, 42.08834], [-96.823449, 42.08834], [-96.555079, 42.01714], [-96.555079, 41.743293], [-96.905603, 41.743293], [-97.020619, 41.743293], [-97.020619, 42.08834], [-96.89465, 42.08834]]]}}, {"type": "Feature", "properties": {"name": "Dawes", "id": "31045", "FIPS": "31045", "FIPS State": 31, "ST": "NE", "County": "Dawes County,NE", "State": "Nebraska"}, "geometry": {"type": "Polygon", "coordinates": [[[-103.324578, 43.002989], [-103.001438, 43.002989], [-102.793314, 42.997512], [-102.771407, 42.438865], [-103.44507, 42.438865], [-103.505317, 43.002989], [-103.324578, 43.002989]]]}}, {"type": "Feature", "properties": {"name": "Schley", "id": "13249", "FIPS": "13249", "FIPS State": 13, "ST": "GA", "County": "Schley County,GA", "State": "Georgia"}, "geometry": {"type": "Polygon", "coordinates": [[[-84.36341, 32.399633], [-84.253871, 32.372248], [-84.182671, 32.229848], [-84.429133, 32.164124], [-84.390795, 32.416064], [-84.36341, 32.399633]]]}}, {"type": "Feature", "properties": {"name": "Franklin", "id": "31061", "FIPS": "31061", "FIPS State": 31, "ST": "NE", "County": "Franklin County,NE", "State": "Nebraska"}, "geometry": {"type": "Polygon", "coordinates": [[[-99.11281, 40.35215], [-98.729425, 40.35215], [-98.723948, 40.001626], [-99.068995, 40.001626], [-99.123764, 40.001626], [-99.178534, 40.001626], [-99.178534, 40.35215], [-99.11281, 40.35215]]]}}, {"type": "Feature", "properties": {"name": "Furnas", "id": "31065", "FIPS": "31065", "FIPS State": 31, "ST": "NE", "County": "Furnas County,NE", "State": "Nebraska"}, "geometry": {"type": "Polygon", "coordinates": [[[-99.989121, 40.35215], [-99.644074, 40.35215], [-99.63312, 40.35215], [-99.627643, 40.001626], [-100.175337, 40.001626], [-100.191768, 40.001626], [-100.197245, 40.35215], [-100.093183, 40.35215], [-99.989121, 40.35215]]]}}, {"type": "Feature", "properties": {"name": "Gage", "id": "31067", "FIPS": "31067", "FIPS State": 31, "ST": "NE", "County": "Gage County,NE", "State": "Nebraska"}, "geometry": {"type": "Polygon", "coordinates": [[[-96.478402, 40.521935], [-96.461971, 40.521935], [-96.461971, 40.264519], [-96.461971, 40.001626], [-96.692003, 40.001626], [-96.807019, 40.001626], [-96.916557, 40.001626], [-96.916557, 40.35215], [-96.91108, 40.521935], [-96.478402, 40.521935]]]}}, {"type": "Feature", "properties": {"name": "Treutlen", "id": "13283", "FIPS": "13283", "FIPS State": 13, "ST": "GA", "County": "Treutlen County,GA", "State": "Georgia"}, "geometry": {"type": "Polygon", "coordinates": [[[-82.550543, 32.498218], [-82.408142, 32.355817], [-82.654605, 32.295571], [-82.720328, 32.312002], [-82.649128, 32.514649], [-82.550543, 32.498218]]]}}, {"type": "Feature", "properties": {"name": "Garfield", "id": "31071", "FIPS": "31071", "FIPS State": 31, "ST": "NE", "County": "Garfield County,NE", "State": "Nebraska"}, "geometry": {"type": "Polygon", "coordinates": [[[-98.762286, 42.08834], [-98.756809, 41.737816], [-99.074472, 41.737816], [-99.211395, 41.743293], [-99.222349, 41.743293], [-99.222349, 42.08834], [-98.762286, 42.08834]]]}}, {"type": "Feature", "properties": {"name": "Hooker", "id": "31091", "FIPS": "31091", "FIPS State": 31, "ST": "NE", "County": "Hooker County,NE", "State": "Nebraska"}, "geometry": {"type": "Polygon", "coordinates": [[[-101.424079, 42.093817], [-100.843524, 42.08834], [-100.843524, 41.737816], [-101.407648, 41.743293], [-101.424079, 41.743293], [-101.424079, 42.093817]]]}}, {"type": "Feature", "properties": {"name": "Jefferson", "id": "31095", "FIPS": "31095", "FIPS State": 31, "ST": "NE", "County": "Jefferson County,NE", "State": "Nebraska"}, "geometry": {"type": "Polygon", "coordinates": [[[-97.365666, 40.35215], [-96.916557, 40.35215], [-96.916557, 40.001626], [-97.349236, 40.001626], [-97.371143, 40.001626], [-97.365666, 40.35215]]]}}, {"type": "Feature", "properties": {"name": "Missaukee", "id": "26113", "FIPS": "26113", "FIPS State": 26, "ST": "MI", "County": "Missaukee County,MI", "State": "Michigan"}, "geometry": {"type": "Polygon", "coordinates": [[[-85.332828, 44.514625], [-84.850858, 44.509148], [-84.850858, 44.158624], [-85.086366, 44.164101], [-85.332828, 44.164101], [-85.332828, 44.514625]]]}}, {"type": "Feature", "properties": {"name": "Knox", "id": "31107", "FIPS": "31107", "FIPS State": 31, "ST": "NE", "County": "Knox County,NE", "State": "Nebraska"}, "geometry": {"type": "Polygon", "coordinates": [[[-98.3077, 42.882497], [-98.154346, 42.838681], [-97.634037, 42.849635], [-97.486159, 42.849635], [-97.486159, 42.438865], [-97.836683, 42.438865], [-98.302223, 42.438865], [-98.3077, 42.762004], [-98.3077, 42.882497]]]}}, {"type": "Feature", "properties": {"name": "Merrick", "id": "31121", "FIPS": "31121", "FIPS State": 31, "ST": "NE", "County": "Merrick County,NE", "State": "Nebraska"}, "geometry": {"type": "Polygon", "coordinates": [[[-97.705237, 41.392769], [-97.601175, 41.332523], [-97.825729, 41.173691], [-98.280315, 40.87246], [-98.285792, 41.047722], [-98.285792, 41.392769], [-97.705237, 41.392769]]]}}, {"type": "Feature", "properties": {"name": "Saunders", "id": "31155", "FIPS": "31155", "FIPS State": 31, "ST": "NE", "County": "Saunders County,NE", "State": "Nebraska"}, "geometry": {"type": "Polygon", "coordinates": [[[-96.905603, 41.453015], [-96.472925, 41.392769], [-96.325048, 41.190122], [-96.319571, 41.047722], [-96.461971, 41.01486], [-96.91108, 41.047722], [-96.905603, 41.453015]]]}}, {"type": "Feature", "properties": {"name": "Morgan", "id": "13211", "FIPS": "13211", "FIPS State": 13, "ST": "GA", "County": "Morgan County,GA", "State": "Georgia"}, "geometry": {"type": "Polygon", "coordinates": [[[-83.509007, 33.812683], [-83.50353, 33.81816], [-83.404945, 33.697668], [-83.278976, 33.484067], [-83.278976, 33.484067], [-83.536392, 33.434775], [-83.684269, 33.527883], [-83.678792, 33.599083], [-83.509007, 33.812683]]]}}, {"type": "Feature", "properties": {"name": "Monroe", "id": "13207", "FIPS": "13207", "FIPS State": 13, "ST": "GA", "County": "Monroe County,GA", "State": "Georgia"}, "geometry": {"type": "Polygon", "coordinates": [[[-84.001932, 33.204743], [-83.821193, 33.182835], [-83.815716, 33.133543], [-83.711654, 32.952804], [-83.722608, 32.952804], [-83.892393, 32.848742], [-84.122425, 32.848742], [-84.122425, 32.930896], [-84.040271, 33.204743], [-84.001932, 33.204743]]]}}, {"type": "Feature", "properties": {"name": "Meriwether", "id": "13199", "FIPS": "13199", "FIPS State": 13, "ST": "GA", "County": "Meriwether County,GA", "State": "Georgia"}, "geometry": {"type": "Polygon", "coordinates": [[[-84.861812, 33.193789], [-84.500334, 33.221174], [-84.494857, 33.182835], [-84.527718, 32.969235], [-84.50581, 32.881604], [-84.70298, 32.843265], [-84.861812, 32.87065], [-84.861812, 32.87065], [-84.861812, 33.193789]]]}}, {"type": "Feature", "properties": {"name": "Pierce", "id": "13229", "FIPS": "13229", "FIPS State": 13, "ST": "GA", "County": "Pierce County,GA", "State": "Georgia"}, "geometry": {"type": "Polygon", "coordinates": [[[-82.227403, 31.528799], [-82.134295, 31.468553], [-82.041187, 31.375445], [-82.041187, 31.369968], [-82.282173, 31.227568], [-82.419096, 31.419261], [-82.227403, 31.528799]]]}}, {"type": "Feature", "properties": {"name": "Toole", "id": "30101", "FIPS": "30101", "FIPS State": 30, "ST": "MT", "County": "Toole County,MT", "State": "Montana"}, "geometry": {"type": "Polygon", "coordinates": [[[-111.271618, 48.994762], [-111.408542, 48.217037], [-112.186267, 48.47993], [-112.191744, 49.000239], [-111.271618, 48.994762]]]}}, {"type": "Feature", "properties": {"name": "Teton", "id": "30099", "FIPS": "30099", "FIPS State": 30, "ST": "MT", "County": "Teton County,MT", "State": "Montana"}, "geometry": {"type": "Polygon", "coordinates": [[[-112.898269, 48.134883], [-111.408542, 47.987005], [-111.408542, 47.696727], [-111.419495, 47.696727], [-112.049344, 47.515988], [-112.816115, 47.609096], [-112.9859, 47.954144], [-113.018762, 48.134883], [-112.898269, 48.134883]]]}}, {"type": "Feature", "properties": {"name": "Ware", "id": "13299", "FIPS": "13299", "FIPS State": 13, "ST": "GA", "County": "Ware County,GA", "State": "Georgia"}, "geometry": {"type": "Polygon", "coordinates": [[[-82.473866, 31.419261], [-82.419096, 31.419261], [-82.282173, 31.227568], [-82.134295, 31.00849], [-82.216449, 30.570335], [-82.419096, 30.581289], [-82.671035, 31.183752], [-82.62722, 31.364491], [-82.599835, 31.468553], [-82.473866, 31.419261]]]}}, {"type": "Feature", "properties": {"name": "Aitkin", "id": "27001", "FIPS": "27001", "FIPS State": 27, "ST": "MN", "County": "Aitkin County,MN", "State": "Minnesota"}, "geometry": {"type": "Polygon", "coordinates": [[[-93.712547, 47.028541], [-93.055314, 47.028541], [-93.060791, 46.765647], [-93.055314, 46.4206], [-93.055314, 46.157707], [-93.307254, 46.157707], [-93.433223, 46.15223], [-93.553716, 46.245338], [-93.794701, 46.245338], [-93.778271, 46.803986], [-93.772794, 47.028541], [-93.712547, 47.028541]]]}}, {"type": "Feature", "properties": {"name": "Carroll", "id": "18015", "FIPS": "18015", "FIPS State": 18, "ST": "IN", "County": "Carroll County,IN", "State": "Indiana"}, "geometry": {"type": "Polygon", "coordinates": [[[-86.773264, 40.560274], [-86.581571, 40.735536], [-86.373447, 40.560274], [-86.373447, 40.434304], [-86.696587, 40.434304], [-86.773264, 40.560274]]]}}, {"type": "Feature", "properties": {"name": "Pike", "id": "29163", "FIPS": "29163", "FIPS State": 29, "ST": "MO", "County": "Pike County,MO", "State": "Missouri"}, "geometry": {"type": "Polygon", "coordinates": [[[-91.198632, 39.596333], [-91.176724, 39.596333], [-90.935738, 39.399163], [-90.722138, 39.223901], [-91.149339, 39.229378], [-91.258878, 39.141746], [-91.406755, 39.141746], [-91.439617, 39.317009], [-91.198632, 39.596333]]]}}, {"type": "Feature", "properties": {"name": "Gooding", "id": "16047", "FIPS": "16047", "FIPS State": 16, "ST": "ID", "County": "Gooding County,ID", "State": "Idaho"}, "geometry": {"type": "Polygon", "coordinates": [[[-114.875445, 43.200159], [-114.596121, 43.200159], [-114.596121, 42.849635], [-114.618029, 42.646988], [-115.039753, 42.909881], [-115.089045, 43.200159], [-114.875445, 43.200159]]]}}, {"type": "Feature", "properties": {"name": "Sanilac", "id": "26151", "FIPS": "26151", "FIPS State": 26, "ST": "MI", "County": "Sanilac County,MI", "State": "Michigan"}, "geometry": {"type": "Polygon", "coordinates": [[[-82.69842, 43.687607], [-82.605312, 43.693084], [-82.50125, 43.167298], [-82.566974, 43.167298], [-82.994175, 43.156344], [-83.120145, 43.326129], [-83.120145, 43.676653], [-82.69842, 43.687607]]]}}, {"type": "Feature", "properties": {"name": "Roscommon", "id": "26143", "FIPS": "26143", "FIPS State": 26, "ST": "MI", "County": "Roscommon County,MI", "State": "Michigan"}, "geometry": {"type": "Polygon", "coordinates": [[[-84.735842, 44.509148], [-84.368887, 44.509148], [-84.368887, 44.158624], [-84.609872, 44.158624], [-84.850858, 44.158624], [-84.850858, 44.509148], [-84.735842, 44.509148]]]}}, {"type": "Feature", "properties": {"name": "Big Horn", "id": "30003", "FIPS": "30003", "FIPS State": 30, "ST": "MT", "County": "Big Horn County,MT", "State": "Montana"}, "geometry": {"type": "Polygon", "coordinates": [[[-107.426806, 45.976968], [-106.939358, 45.867429], [-106.769573, 45.177335], [-106.282125, 45.177335], [-106.265695, 44.991119], [-107.914254, 45.002073], [-108.248347, 45.002073], [-108.642687, 45.462136], [-108.067608, 45.516905], [-108.0457, 45.900291], [-107.50896, 46.042691], [-107.426806, 45.976968]]]}}, {"type": "Feature", "properties": {"name": "Boundary", "id": "16021", "FIPS": "16021", "FIPS State": 16, "ST": "ID", "County": "Boundary County,ID", "State": "Idaho"}, "geometry": {"type": "Polygon", "coordinates": [[[-116.04751, 49.000239], [-116.04751, 48.501838], [-116.786897, 48.501838], [-116.836189, 48.846885], [-117.033359, 48.846885], [-117.033359, 49.000239], [-116.04751, 49.000239]]]}}, {"type": "Feature", "properties": {"name": "Clinton", "id": "18023", "FIPS": "18023", "FIPS State": 18, "ST": "IN", "County": "Clinton County,IN", "State": "Indiana"}, "geometry": {"type": "Polygon", "coordinates": [[[-86.357016, 40.434304], [-86.242001, 40.374058], [-86.242001, 40.215227], [-86.242001, 40.182365], [-86.696587, 40.176888], [-86.696587, 40.215227], [-86.696587, 40.434304], [-86.373447, 40.434304], [-86.357016, 40.434304]]]}}, {"type": "Feature", "properties": {"name": "Dawson", "id": "30021", "FIPS": "30021", "FIPS State": 30, "ST": "MT", "County": "Dawson County,MT", "State": "Montana"}, "geometry": {"type": "Polygon", "coordinates": [[[-105.022429, 47.702204], [-104.419966, 47.357157], [-104.606182, 46.858755], [-105.405815, 47.181895], [-105.23603, 47.789835], [-105.022429, 47.702204]]]}}, {"type": "Feature", "properties": {"name": "Boise", "id": "16015", "FIPS": "16015", "FIPS State": 16, "ST": "ID", "County": "Boise County,ID", "State": "Idaho"}, "geometry": {"type": "Polygon", "coordinates": [[[-115.680555, 44.235301], [-115.297169, 44.339363], [-114.990461, 43.9505], [-115.1712, 44.087424], [-115.97631, 43.589022], [-116.283018, 43.8081], [-116.211818, 44.153147], [-115.680555, 44.235301]]]}}, {"type": "Feature", "properties": {"name": "Blaine", "id": "16013", "FIPS": "16013", "FIPS State": 16, "ST": "ID", "County": "Blaine County,ID", "State": "Idaho"}, "geometry": {"type": "Polygon", "coordinates": [[[-114.656367, 43.917638], [-113.796488, 43.567114], [-113.007808, 43.282313], [-113.007808, 43.112528], [-113.23784, 42.625081], [-113.473348, 42.668896], [-113.413102, 43.200159], [-113.714333, 43.200159], [-114.377043, 43.200159], [-114.716614, 43.813577], [-114.990461, 43.857392], [-114.968553, 43.939546], [-114.656367, 43.917638]]]}}, {"type": "Feature", "properties": {"name": "Bingham", "id": "16011", "FIPS": "16011", "FIPS State": 16, "ST": "ID", "County": "Bingham County,ID", "State": "Idaho"}, "geometry": {"type": "Polygon", "coordinates": [[[-112.695623, 43.621884], [-112.52036, 43.627361], [-112.52036, 43.424714], [-111.589281, 43.282313], [-111.589281, 43.01942], [-112.065774, 43.024897], [-112.388914, 43.01942], [-112.750392, 42.953697], [-113.007808, 43.112528], [-113.007808, 43.282313], [-112.695623, 43.621884]]]}}, {"type": "Feature", "properties": {"name": "Oscoda", "id": "26135", "FIPS": "26135", "FIPS State": 26, "ST": "MI", "County": "Oscoda County,MI", "State": "Michigan"}, "geometry": {"type": "Polygon", "coordinates": [[[-83.952639, 44.854195], [-83.886916, 44.854195], [-83.886916, 44.509148], [-83.925255, 44.509148], [-84.368887, 44.509148], [-84.374364, 44.854195], [-83.952639, 44.854195]]]}}, {"type": "Feature", "properties": {"name": "Madison", "id": "30057", "FIPS": "30057", "FIPS State": 30, "ST": "MT", "County": "Madison County,MT", "State": "Montana"}, "geometry": {"type": "Polygon", "coordinates": [[[-111.967189, 45.850998], [-111.802881, 45.796229], [-111.353772, 45.642875], [-111.37568, 44.750133], [-111.479742, 44.711795], [-112.169836, 44.826811], [-112.684669, 45.626444], [-112.191744, 45.746937], [-111.967189, 45.850998]]]}}, {"type": "Feature", "properties": {"name": "Oceana", "id": "26127", "FIPS": "26127", "FIPS State": 26, "ST": "MI", "County": "Oceana County,MI", "State": "Michigan"}, "geometry": {"type": "Polygon", "coordinates": [[[-86.433693, 43.819054], [-86.039354, 43.813577], [-86.039354, 43.468529], [-86.411786, 43.474006], [-86.461078, 43.474006], [-86.433693, 43.819054]]]}}, {"type": "Feature", "properties": {"name": "Musselshell", "id": "30065", "FIPS": "30065", "FIPS State": 30, "ST": "MT", "County": "Musselshell County,MT", "State": "Montana"}, "geometry": {"type": "Polygon", "coordinates": [[[-107.837576, 46.754694], [-107.826623, 46.754694], [-107.782807, 46.497277], [-108.77961, 46.130322], [-109.009642, 46.749217], [-108.631733, 46.749217], [-107.837576, 46.754694]]]}}, {"type": "Feature", "properties": {"name": "Wilkes", "id": "13317", "FIPS": "13317", "FIPS State": 13, "ST": "GA", "County": "Wilkes County,GA", "State": "Georgia"}, "geometry": {"type": "Polygon", "coordinates": [[[-82.731282, 33.982469], [-82.643651, 33.982469], [-82.479343, 33.637421], [-82.649128, 33.610037], [-82.681989, 33.599083], [-82.950359, 33.736006], [-82.780574, 33.971515], [-82.731282, 33.982469]]]}}, {"type": "Feature", "properties": {"name": "Richland", "id": "30083", "FIPS": "30083", "FIPS State": 30, "ST": "MT", "County": "Richland County,MT", "State": "Montana"}, "geometry": {"type": "Polygon", "coordinates": [[[-104.567843, 48.118452], [-104.042057, 47.997959], [-104.047534, 47.395496], [-104.419966, 47.357157], [-105.022429, 47.702204], [-105.23603, 47.789835], [-105.192214, 48.063682], [-104.567843, 48.118452]]]}}, {"type": "Feature", "properties": {"name": "Stillwater", "id": "30095", "FIPS": "30095", "FIPS State": 30, "ST": "MT", "County": "Stillwater County,MT", "State": "Montana"}, "geometry": {"type": "Polygon", "coordinates": [[[-109.17395, 46.130322], [-108.922011, 46.130322], [-108.845333, 45.610013], [-109.798321, 45.166381], [-110.061214, 45.171858], [-109.562813, 45.610013], [-109.414935, 46.042691], [-109.17395, 46.130322]]]}}, {"type": "Feature", "properties": {"name": "Wayne", "id": "13305", "FIPS": "13305", "FIPS State": 13, "ST": "GA", "County": "Wayne County,GA", "State": "Georgia"}, "geometry": {"type": "Polygon", "coordinates": [[[-82.134295, 31.632861], [-82.046664, 31.824554], [-81.969987, 31.791692], [-81.663278, 31.539753], [-81.62494, 31.452122], [-81.729002, 31.331629], [-82.041187, 31.375445], [-82.134295, 31.468553], [-82.134295, 31.632861]]]}}, {"type": "Feature", "properties": {"name": "Baker", "id": "12003", "FIPS": "12003", "FIPS State": 12, "ST": "FL", "County": "Baker County,FL", "State": "Florida"}, "geometry": {"type": "Polygon", "coordinates": [[[-82.419096, 30.581289], [-82.216449, 30.570335], [-82.052141, 30.362211], [-82.046664, 30.27458], [-82.052141, 30.186949], [-82.052141, 30.143133], [-82.145249, 30.143133], [-82.298603, 30.143133], [-82.457435, 30.137656], [-82.457435, 30.586766], [-82.419096, 30.581289]]]}}, {"type": "Feature", "properties": {"name": "Williamsburg", "id": "45089", "FIPS": "45089", "FIPS State": 45, "ST": "SC", "County": "Williamsburg County,SC", "State": "South Carolina"}, "geometry": {"type": "Polygon", "coordinates": [[[-79.83398, 33.883884], [-79.324625, 33.80173], [-79.319148, 33.779822], [-79.319148, 33.779822], [-79.675149, 33.303328], [-80.053058, 33.505975], [-80.10235, 33.495021], [-79.877796, 33.883884], [-79.83398, 33.883884]]]}}, {"type": "Feature", "properties": {"name": "Scott", "id": "21209", "FIPS": "21209", "FIPS State": 21, "ST": "KY", "County": "Scott County,KY", "State": "Kentucky"}, "geometry": {"type": "Polygon", "coordinates": [[[-84.555103, 38.495467], [-84.440087, 38.281867], [-84.401749, 38.20519], [-84.626303, 38.117559], [-84.724888, 38.194236], [-84.741319, 38.353067], [-84.582488, 38.47356], [-84.555103, 38.495467]]]}}, {"type": "Feature", "properties": {"name": "Butte", "id": "46019", "FIPS": "46019", "FIPS State": 46, "ST": "SD", "County": "Butte County,SD", "State": "South Dakota"}, "geometry": {"type": "Polygon", "coordinates": [[[-104.042057, 45.210196], [-102.957623, 45.210196], [-102.957623, 45.040411], [-102.963099, 44.602256], [-103.565563, 44.602256], [-103.812025, 44.602256], [-104.058488, 44.569394], [-104.058488, 44.996596], [-104.042057, 45.210196]]]}}, {"type": "Feature", "properties": {"name": "Henry", "id": "51089", "FIPS": "51089", "FIPS State": 51, "ST": "VA", "County": "Henry County,VA", "State": "Virginia"}, "geometry": {"type": "Polygon", "coordinates": [[[-79.647764, 36.852385], [-79.642287, 36.857862], [-79.713488, 36.5402], [-79.965427, 36.5402], [-80.025673, 36.5402], [-80.053058, 36.5402], [-80.042104, 36.792139], [-79.647764, 36.852385]]]}}, {"type": "Feature", "properties": {"name": "King William", "id": "51101", "FIPS": "51101", "FIPS State": 51, "ST": "VA", "County": "King William County,VA", "State": "Virginia"}, "geometry": {"type": "Polygon", "coordinates": [[[-77.177664, 37.893004], [-76.794278, 37.515095], [-77.122895, 37.624634], [-77.347449, 37.788942], [-77.183141, 37.893004], [-77.177664, 37.893004]]]}}, {"type": "Feature", "properties": {"name": "Mathews", "id": "51115", "FIPS": "51115", "FIPS State": 51, "ST": "VA", "County": "Mathews County,VA", "State": "Virginia"}, "geometry": {"type": "Polygon", "coordinates": [[[-76.356123, 37.526049], [-76.356123, 37.526049], [-76.405416, 37.400079], [-76.438277, 37.515095], [-76.356123, 37.526049]]]}}, {"type": "Feature", "properties": {"name": "Cross", "id": "05037", "FIPS": "05037", "FIPS State": 5, "ST": "AR", "County": "Cross County,AR", "State": "Arkansas"}, "geometry": {"type": "Polygon", "coordinates": [[[-90.744046, 35.444812], [-90.50306, 35.439335], [-90.50306, 35.14358], [-90.831677, 35.149057], [-91.045277, 35.149057], [-91.0398, 35.351704], [-91.0398, 35.444812], [-90.744046, 35.444812]]]}}, {"type": "Feature", "properties": {"name": "Nottoway", "id": "51135", "FIPS": "51135", "FIPS State": 51, "ST": "VA", "County": "Nottoway County,VA", "State": "Virginia"}, "geometry": {"type": "Polygon", "coordinates": [[[-78.229237, 37.296018], [-77.796559, 37.191956], [-77.889666, 36.989309], [-78.004682, 37.022171], [-78.240191, 37.120755], [-78.229237, 37.296018]]]}}, {"type": "Feature", "properties": {"name": "Pottawatomie", "id": "20149", "FIPS": "20149", "FIPS State": 20, "ST": "KS", "County": "Pottawatomie County,KS", "State": "Kansas"}, "geometry": {"type": "Polygon", "coordinates": [[[-96.582464, 39.568948], [-96.237417, 39.568948], [-96.03477, 39.563471], [-96.03477, 39.218424], [-96.040247, 39.125316], [-96.390771, 39.174608], [-96.582464, 39.568948], [-96.582464, 39.568948]]]}}, {"type": "Feature", "properties": {"name": "Conway", "id": "05029", "FIPS": "05029", "FIPS State": 5, "ST": "AR", "County": "Conway County,AR", "State": "Arkansas"}, "geometry": {"type": "Polygon", "coordinates": [[[-92.852668, 35.461243], [-92.480236, 35.368135], [-92.556913, 35.110718], [-93.038884, 35.077857], [-92.896483, 35.170965], [-92.852668, 35.461243]]]}}, {"type": "Feature", "properties": {"name": "Cleburne", "id": "05023", "FIPS": "05023", "FIPS State": 5, "ST": "AR", "County": "Cleburne County,AR", "State": "Arkansas"}, "geometry": {"type": "Polygon", "coordinates": [[[-91.998265, 35.707705], [-91.839434, 35.702228], [-91.795618, 35.532443], [-92.113281, 35.362658], [-92.250204, 35.362658], [-92.23925, 35.713182], [-91.998265, 35.707705]]]}}, {"type": "Feature", "properties": {"name": "Carroll", "id": "05015", "FIPS": "05015", "FIPS State": 5, "ST": "AR", "County": "Carroll County,AR", "State": "Arkansas"}, "geometry": {"type": "Polygon", "coordinates": [[[-93.728978, 36.496384], [-93.586578, 36.496384], [-93.312731, 36.496384], [-93.2963, 36.496384], [-93.301777, 36.123952], [-93.477039, 36.123952], [-93.816609, 36.304691], [-93.865902, 36.496384], [-93.728978, 36.496384]]]}}, {"type": "Feature", "properties": {"name": "Jackson", "id": "05067", "FIPS": "05067", "FIPS State": 5, "ST": "AR", "County": "Jackson County,AR", "State": "Arkansas"}, "geometry": {"type": "Polygon", "coordinates": [[[-91.198632, 35.888444], [-91.034323, 35.882967], [-91.034323, 35.707705], [-91.0398, 35.444812], [-91.0398, 35.351704], [-91.346509, 35.439335], [-91.582017, 35.532443], [-91.198632, 35.888444]]]}}, {"type": "Feature", "properties": {"name": "Calhoun", "id": "05013", "FIPS": "05013", "FIPS State": 5, "ST": "AR", "County": "Calhoun County,AR", "State": "Arkansas"}, "geometry": {"type": "Polygon", "coordinates": [[[-92.584298, 33.80173], [-92.332358, 33.796253], [-92.332358, 33.708622], [-92.348789, 33.297851], [-92.567867, 33.369051], [-92.584298, 33.80173]]]}}, {"type": "Feature", "properties": {"name": "Patrick", "id": "51141", "FIPS": "51141", "FIPS State": 51, "ST": "VA", "County": "Patrick County,VA", "State": "Virginia"}, "geometry": {"type": "Polygon", "coordinates": [[[-80.233797, 36.874293], [-80.042104, 36.792139], [-80.053058, 36.5402], [-80.441921, 36.551154], [-80.611706, 36.556631], [-80.463828, 36.709985], [-80.233797, 36.874293]]]}}, {"type": "Feature", "properties": {"name": "Prince Edward", "id": "51147", "FIPS": "51147", "FIPS State": 51, "ST": "VA", "County": "Prince Edward County,VA", "State": "Virginia"}, "geometry": {"type": "Polygon", "coordinates": [[[-78.262098, 37.34531], [-78.234714, 37.367218], [-78.229237, 37.296018], [-78.240191, 37.120755], [-78.399022, 37.087894], [-78.442837, 37.07694], [-78.683823, 37.246725], [-78.596192, 37.400079], [-78.464745, 37.339833], [-78.262098, 37.34531]]]}}, {"type": "Feature", "properties": {"name": "Arkansas", "id": "05001", "FIPS": "05001", "FIPS State": 5, "ST": "AR", "County": "Arkansas County,AR", "State": "Arkansas"}, "geometry": {"type": "Polygon", "coordinates": [[[-91.587494, 34.568501], [-91.379371, 34.563024], [-91.056231, 34.33847], [-91.116477, 34.119392], [-91.423186, 34.01533], [-91.445094, 34.081054], [-91.70251, 34.48087], [-91.680602, 34.48087], [-91.587494, 34.568501]]]}}, {"type": "Feature", "properties": {"name": "Phillips", "id": "20147", "FIPS": "20147", "FIPS State": 20, "ST": "KS", "County": "Phillips County,KS", "State": "Kansas"}, "geometry": {"type": "Polygon", "coordinates": [[[-99.123764, 40.001626], [-99.068995, 40.001626], [-99.063518, 39.568948], [-99.600258, 39.568948], [-99.627643, 39.568948], [-99.627643, 40.001626], [-99.178534, 40.001626], [-99.123764, 40.001626]]]}}, {"type": "Feature", "properties": {"name": "Pulaski", "id": "51155", "FIPS": "51155", "FIPS State": 51, "ST": "VA", "County": "Pulaski County,VA", "State": "Virginia"}, "geometry": {"type": "Polygon", "coordinates": [[[-80.606229, 37.246725], [-80.529552, 37.131709], [-80.578844, 37.087894], [-80.545983, 36.983832], [-80.633614, 36.929063], [-80.743152, 36.87977], [-80.912938, 37.071463], [-80.852691, 37.14814], [-80.606229, 37.246725]]]}}, {"type": "Feature", "properties": {"name": "Kossuth", "id": "19109", "FIPS": "19109", "FIPS State": 19, "ST": "IA", "County": "Kossuth County,IA", "State": "Iowa"}, "geometry": {"type": "Polygon", "coordinates": [[[-94.249287, 43.501391], [-93.969963, 43.501391], [-93.969963, 43.254929], [-93.969963, 42.909881], [-94.090456, 42.909881], [-94.44098, 42.909881], [-94.44098, 43.254929], [-94.44098, 43.501391], [-94.249287, 43.501391]]]}}, {"type": "Feature", "properties": {"name": "Russell", "id": "51167", "FIPS": "51167", "FIPS State": 51, "ST": "VA", "County": "Russell County,VA", "State": "Virginia"}, "geometry": {"type": "Polygon", "coordinates": [[[-81.898787, 37.142663], [-81.778294, 36.956447], [-81.838541, 36.929063], [-82.331465, 36.709985], [-82.408142, 36.874293], [-82.325988, 36.972878], [-82.150726, 37.044078], [-81.898787, 37.142663]]]}}, {"type": "Feature", "properties": {"name": "Lee", "id": "19111", "FIPS": "19111", "FIPS State": 19, "ST": "IA", "County": "Lee County,IA", "State": "Iowa"}, "geometry": {"type": "Polygon", "coordinates": [[[-91.603925, 40.812213], [-91.406755, 40.812213], [-91.111001, 40.697198], [-91.187678, 40.636951], [-91.417709, 40.379535], [-91.718941, 40.598613], [-91.718941, 40.812213], [-91.603925, 40.812213]]]}}, {"type": "Feature", "properties": {"name": "Smyth", "id": "51173", "FIPS": "51173", "FIPS State": 51, "ST": "VA", "County": "Smyth County,VA", "State": "Virginia"}, "geometry": {"type": "Polygon", "coordinates": [[[-81.477062, 36.989309], [-81.438724, 37.011217], [-81.378478, 36.95097], [-81.263462, 36.764754], [-81.608509, 36.638785], [-81.838541, 36.929063], [-81.778294, 36.956447], [-81.477062, 36.989309]]]}}, {"type": "Feature", "properties": {"name": "Page", "id": "51139", "FIPS": "51139", "FIPS State": 51, "ST": "VA", "County": "Page County,VA", "State": "Virginia"}, "geometry": {"type": "Polygon", "coordinates": [[[-78.388068, 38.829561], [-78.284006, 38.758361], [-78.338776, 38.626914], [-78.448314, 38.500944], [-78.453791, 38.47356], [-78.459268, 38.468083], [-78.486653, 38.41879], [-78.640007, 38.605006], [-78.388068, 38.829561]]]}}, {"type": "Feature", "properties": {"name": "La Paz", "id": "04012", "FIPS": "04012", "FIPS State": 4, "ST": "AZ", "County": "La Paz County,AZ", "State": "Arizona"}, "geometry": {"type": "Polygon", "coordinates": [[[-113.418579, 34.300131], [-113.330948, 34.316562], [-113.336425, 33.998899], [-113.336425, 33.380005], [-113.993657, 33.462159], [-114.513967, 33.029481], [-114.628982, 33.434775], [-114.43729, 34.081054], [-114.136058, 34.305608], [-113.418579, 34.300131]]]}}, {"type": "Feature", "properties": {"name": "Johnson", "id": "05071", "FIPS": "05071", "FIPS State": 5, "ST": "AR", "County": "Johnson County,AR", "State": "Arkansas"}, "geometry": {"type": "Polygon", "coordinates": [[[-93.696116, 35.767951], [-93.520854, 35.762474], [-93.164853, 35.729613], [-93.2963, 35.329796], [-93.422269, 35.329796], [-93.712547, 35.373611], [-93.696116, 35.767951]]]}}, {"type": "Feature", "properties": {"name": "Rooks", "id": "20163", "FIPS": "20163", "FIPS State": 20, "ST": "KS", "County": "Rooks County,KS", "State": "Kansas"}, "geometry": {"type": "Polygon", "coordinates": [[[-99.063518, 39.568948], [-99.04161, 39.568948], [-99.047087, 39.130793], [-99.408565, 39.130793], [-99.589304, 39.130793], [-99.605735, 39.130793], [-99.600258, 39.568948], [-99.063518, 39.568948]]]}}, {"type": "Feature", "properties": {"name": "Dickinson", "id": "19059", "FIPS": "19059", "FIPS State": 19, "ST": "IA", "County": "Dickinson County,IA", "State": "Iowa"}, "geometry": {"type": "Polygon", "coordinates": [[[-95.092736, 43.501391], [-94.917474, 43.501391], [-94.911997, 43.254929], [-95.169413, 43.254929], [-95.388491, 43.254929], [-95.388491, 43.501391], [-95.092736, 43.501391]]]}}, {"type": "Feature", "properties": {"name": "Ballard", "id": "21007", "FIPS": "21007", "FIPS State": 21, "ST": "KY", "County": "Ballard County,KY", "State": "Kentucky"}, "geometry": {"type": "Polygon", "coordinates": [[[-88.936655, 37.230294], [-88.816163, 36.956447], [-89.100963, 36.945493], [-89.133825, 36.983832], [-89.172164, 37.065986], [-88.936655, 37.230294]]]}}, {"type": "Feature", "properties": {"name": "Anderson", "id": "21005", "FIPS": "21005", "FIPS State": 21, "ST": "KY", "County": "Anderson County,KY", "State": "Kentucky"}, "geometry": {"type": "Polygon", "coordinates": [[[-84.998735, 38.128512], [-84.867289, 38.117559], [-84.796088, 37.969681], [-85.031597, 37.893004], [-85.152089, 37.898481], [-85.16852, 37.969681], [-85.102797, 38.035405], [-85.02612, 38.128512], [-84.998735, 38.128512]]]}}, {"type": "Feature", "properties": {"name": "Allen", "id": "21003", "FIPS": "21003", "FIPS State": 21, "ST": "KY", "County": "Allen County,KY", "State": "Kentucky"}, "geometry": {"type": "Polygon", "coordinates": [[[-86.22557, 36.912632], [-86.165323, 36.934539], [-85.979107, 36.720939], [-85.979107, 36.627831], [-86.203662, 36.638785], [-86.411786, 36.649739], [-86.406309, 36.775708], [-86.22557, 36.912632]]]}}, {"type": "Feature", "properties": {"name": "Zapata", "id": "48505", "FIPS": "48505", "FIPS State": 48, "ST": "TX", "County": "Zapata County,TX", "State": "Texas"}, "geometry": {"type": "Polygon", "coordinates": [[[-99.359273, 27.306078], [-98.953979, 27.26774], [-98.953979, 26.785769], [-99.16758, 26.572168], [-99.452381, 27.262263], [-99.359273, 27.306078]]]}}, {"type": "Feature", "properties": {"name": "Muhlenberg", "id": "21177", "FIPS": "21177", "FIPS State": 21, "ST": "KY", "County": "Muhlenberg County,KY", "State": "Kentucky"}, "geometry": {"type": "Polygon", "coordinates": [[[-87.10188, 37.41651], [-86.899233, 37.213863], [-86.943049, 37.071463], [-86.954003, 37.071463], [-87.052588, 37.060509], [-87.260711, 37.071463], [-87.331912, 37.159094], [-87.293573, 37.389126], [-87.10188, 37.41651]]]}}, {"type": "Feature", "properties": {"name": "Carbon", "id": "49007", "FIPS": "49007", "FIPS State": 49, "ST": "UT", "County": "Carbon County,UT", "State": "Utah"}, "geometry": {"type": "Polygon", "coordinates": [[[-111.014202, 39.81541], [-110.855371, 39.81541], [-109.968106, 39.804456], [-110.022876, 39.470363], [-111.079925, 39.464886], [-111.24971, 39.705871], [-111.24971, 39.81541], [-111.014202, 39.81541]]]}}, {"type": "Feature", "properties": {"name": "Grand", "id": "49019", "FIPS": "49019", "FIPS State": 49, "ST": "UT", "County": "Grand County,UT", "State": "Utah"}, "geometry": {"type": "Polygon", "coordinates": [[[-109.053457, 39.497748], [-109.053457, 39.366301], [-109.058934, 38.500944], [-110.022876, 38.500944], [-110.022876, 39.459409], [-109.053457, 39.497748]]]}}, {"type": "Feature", "properties": {"name": "Sharp", "id": "05135", "FIPS": "05135", "FIPS State": 5, "ST": "AR", "County": "Sharp County,AR", "State": "Arkansas"}, "geometry": {"type": "Polygon", "coordinates": [[[-91.450571, 36.496384], [-91.406755, 36.496384], [-91.258878, 36.255399], [-91.357463, 35.888444], [-91.707987, 35.943213], [-91.691556, 36.255399], [-91.450571, 36.496384], [-91.450571, 36.496384]]]}}, {"type": "Feature", "properties": {"name": "Giles", "id": "51071", "FIPS": "51071", "FIPS State": 51, "ST": "VA", "County": "Giles County,VA", "State": "Virginia"}, "geometry": {"type": "Polygon", "coordinates": [[[-80.474782, 37.421987], [-80.430967, 37.312448], [-80.606229, 37.246725], [-80.852691, 37.14814], [-80.978661, 37.290541], [-80.858168, 37.427464], [-80.858168, 37.427464], [-80.474782, 37.421987]]]}}, {"type": "Feature", "properties": {"name": "Stevens", "id": "20189", "FIPS": "20189", "FIPS State": 20, "ST": "KS", "County": "Stevens County,KS", "State": "Kansas"}, "geometry": {"type": "Polygon", "coordinates": [[[-101.528141, 37.389126], [-101.089986, 37.389126], [-101.068078, 37.389126], [-101.068078, 37.000263], [-101.555526, 36.994786], [-101.555526, 37.389126], [-101.528141, 37.389126]]]}}, {"type": "Feature", "properties": {"name": "Bennington", "id": "50003", "FIPS": "50003", "FIPS State": 50, "ST": "VT", "County": "Bennington County,VT", "State": "Vermont"}, "geometry": {"type": "Polygon", "coordinates": [[[-73.256175, 43.315175], [-72.867312, 43.298744], [-72.81802, 43.254929], [-72.927559, 42.740096], [-73.020667, 42.740096], [-73.267129, 42.745573], [-73.272606, 42.942743], [-73.256175, 43.315175]]]}}, {"type": "Feature", "properties": {"name": "Ida", "id": "19093", "FIPS": "19093", "FIPS State": 19, "ST": "IA", "County": "Ida County,IA", "State": "Iowa"}, "geometry": {"type": "Polygon", "coordinates": [[[-95.465168, 42.559357], [-95.388491, 42.559357], [-95.322768, 42.208833], [-95.64043, 42.208833], [-95.673292, 42.208833], [-95.739015, 42.559357], [-95.465168, 42.559357]]]}}, {"type": "Feature", "properties": {"name": "Orleans", "id": "50019", "FIPS": "50019", "FIPS State": 50, "ST": "VT", "County": "Orleans County,VT", "State": "Vermont"}, "geometry": {"type": "Polygon", "coordinates": [[[-71.897894, 45.00755], [-71.941709, 44.766564], [-72.374388, 44.585825], [-72.577034, 44.782995], [-72.555127, 45.00755], [-71.897894, 45.00755]]]}}, {"type": "Feature", "properties": {"name": "Polk", "id": "05113", "FIPS": "05113", "FIPS State": 5, "ST": "AR", "County": "Polk County,AR", "State": "Arkansas"}, "geometry": {"type": "Polygon", "coordinates": [[[-94.451934, 34.727333], [-93.931625, 34.667086], [-93.937102, 34.349424], [-94.24381, 34.190592], [-94.468365, 34.190592], [-94.462888, 34.508255], [-94.451934, 34.727333]]]}}, {"type": "Feature", "properties": {"name": "Russell", "id": "20167", "FIPS": "20167", "FIPS State": 20, "ST": "KS", "County": "Russell County,KS", "State": "Kansas"}, "geometry": {"type": "Polygon", "coordinates": [[[-98.510347, 39.130793], [-98.488439, 39.130793], [-98.482962, 38.873376], [-98.488439, 38.698114], [-98.811579, 38.698114], [-99.030656, 38.698114], [-99.04161, 38.698114], [-99.036133, 39.130793], [-98.510347, 39.130793]]]}}, {"type": "Feature", "properties": {"name": "Phillips", "id": "05107", "FIPS": "05107", "FIPS State": 5, "ST": "AR", "County": "Phillips County,AR", "State": "Arkansas"}, "geometry": {"type": "Polygon", "coordinates": [[[-91.050754, 34.645178], [-90.585214, 34.639701], [-90.568783, 34.524686], [-90.957646, 34.119392], [-90.952169, 34.119392], [-91.116477, 34.119392], [-91.056231, 34.33847], [-91.050754, 34.645178]]]}}, {"type": "Feature", "properties": {"name": "Perry", "id": "05105", "FIPS": "05105", "FIPS State": 5, "ST": "AR", "County": "Perry County,AR", "State": "Arkansas"}, "geometry": {"type": "Polygon", "coordinates": [[[-93.038884, 35.077857], [-92.556913, 35.110718], [-92.545959, 34.951887], [-92.737652, 34.853302], [-92.967683, 34.858779], [-93.077222, 34.771148], [-93.285346, 34.771148], [-93.038884, 35.077857]]]}}, {"type": "Feature", "properties": {"name": "Charles City", "id": "51036", "FIPS": "51036", "FIPS State": 51, "ST": "VA", "County": "Charles City County,VA", "State": "Virginia"}, "geometry": {"type": "Polygon", "coordinates": [[[-77.040741, 37.427464], [-76.903817, 37.378172], [-76.881909, 37.224817], [-76.975017, 37.246725], [-77.270772, 37.323402], [-77.248864, 37.383649], [-77.177664, 37.493187], [-77.040741, 37.427464]]]}}, {"type": "Feature", "properties": {"name": "Dinwiddie", "id": "51053", "FIPS": "51053", "FIPS State": 51, "ST": "VA", "County": "Dinwiddie County,VA", "State": "Virginia"}, "geometry": {"type": "Polygon", "coordinates": [[[-77.648681, 37.263156], [-77.446034, 37.224817], [-77.396742, 37.170048], [-77.396742, 36.994786], [-77.621296, 36.87977], [-77.659635, 36.896201], [-77.889666, 36.989309], [-77.796559, 37.191956], [-77.648681, 37.263156]]]}}]}