{"type": "FeatureCollection", "crs": {"type": "name", "properties": {"name": "urn:ogc:def:crs:OGC:1.3:CRS84"}}, "features": [{"type": "Feature", "properties": {"name": "Penobscot", "id": "23019", "FIPS": "23019", "FIPS State": 23, "ST": "ME", "County": "Penobscot County,ME", "State": "Maine"}, "geometry": {"type": "Polygon", "coordinates": [[[-68.513145, 46.382262], [-68.43099, 45.577151], [-68.047605, 45.637398], [-68.058559, 45.254012], [-68.814376, 44.68441], [-69.268962, 44.722749], [-69.356593, 45.073273], [-68.776038, 45.243058], [-68.819853, 46.393216], [-68.513145, 46.382262]]]}}, {"type": "Feature", "properties": {"name": "Boone", "id": "21015", "FIPS": "21015", "FIPS State": 21, "ST": "KY", "County": "Boone County,KY", "State": "Kentucky"}, "geometry": {"type": "Polygon", "coordinates": [[[-84.620826, 39.076023], [-84.615349, 38.802176], [-84.659165, 38.774791], [-84.779657, 38.856946], [-84.796088, 38.856946], [-84.872765, 38.900761], [-84.878242, 39.032208], [-84.817996, 39.103408], [-84.620826, 39.076023]]]}}, {"type": "Feature", "properties": {"name": "Taney", "id": "29213", "FIPS": "29213", "FIPS State": 29, "ST": "MO", "County": "Taney County,MO", "State": "Missouri"}, "geometry": {"type": "Polygon", "coordinates": [[[-93.301777, 36.819524], [-92.907437, 36.80857], [-92.765037, 36.80857], [-92.770513, 36.496384], [-92.852668, 36.496384], [-93.066268, 36.496384], [-93.2963, 36.496384], [-93.312731, 36.496384], [-93.301777, 36.819524]]]}}, {"type": "Feature", "properties": {"name": "Dodge", "id": "55027", "FIPS": "55027", "FIPS State": 55, "ST": "WI", "County": "Dodge County,WI", "State": "Wisconsin"}, "geometry": {"type": "Polygon", "coordinates": [[[-88.887363, 43.632838], [-88.399915, 43.545207], [-88.416346, 43.194682], [-88.536839, 43.194682], [-88.991425, 43.200159], [-89.007855, 43.200159], [-89.007855, 43.282313], [-89.007855, 43.632838], [-88.887363, 43.632838]]]}}, {"type": "Feature", "properties": {"name": "Moore", "id": "37125", "FIPS": "37125", "FIPS State": 37, "ST": "NC", "County": "Moore County,NC", "State": "North Carolina"}, "geometry": {"type": "Polygon", "coordinates": [[[-79.35201, 35.516012], [-79.182224, 35.307888], [-79.094593, 35.192872], [-79.10007, 35.176442], [-79.127455, 35.165488], [-79.461548, 35.044995], [-79.614903, 35.165488], [-79.768257, 35.510535], [-79.554656, 35.516012], [-79.35201, 35.516012]]]}}, {"type": "Feature", "properties": {"name": "Merrimack", "id": "33013", "FIPS": "33013", "FIPS State": 33, "ST": "NH", "County": "Merrimack County,NH", "State": "New Hampshire"}, "geometry": {"type": "Polygon", "coordinates": [[[-71.81574, 43.545207], [-71.728109, 43.561637], [-71.235184, 43.282313], [-71.246138, 43.276836], [-71.394015, 43.008466], [-71.914325, 43.205636], [-72.007433, 43.189205], [-71.936232, 43.528776], [-71.81574, 43.545207]]]}}, {"type": "Feature", "properties": {"name": "Blount", "id": "47009", "FIPS": "47009", "FIPS State": 47, "ST": "TN", "County": "Blount County,TN", "State": "Tennessee"}, "geometry": {"type": "Polygon", "coordinates": [[[-83.793808, 35.888444], [-83.662362, 35.570781], [-83.952639, 35.461243], [-83.963593, 35.461243], [-84.188148, 35.60912], [-84.16624, 35.80629], [-83.793808, 35.888444]]]}}, {"type": "Feature", "properties": {"name": "Jackson", "id": "13157", "FIPS": "13157", "FIPS State": 13, "ST": "GA", "County": "Jackson County,GA", "State": "Georgia"}, "geometry": {"type": "Polygon", "coordinates": [[[-83.618546, 34.289177], [-83.404945, 34.196069], [-83.36113, 34.042715], [-83.536392, 33.966038], [-83.815716, 34.124869], [-83.618546, 34.294654], [-83.618546, 34.289177]]]}}, {"type": "Feature", "properties": {"name": "Polk", "id": "41053", "FIPS": "41053", "FIPS State": 41, "ST": "OR", "County": "Polk County,OR", "State": "Oregon"}, "geometry": {"type": "Polygon", "coordinates": [[[-123.622119, 45.07875], [-123.068948, 45.073273], [-123.145625, 44.750133], [-123.151102, 44.722749], [-123.561872, 44.722749], [-123.600211, 44.722749], [-123.72618, 45.045888], [-123.72618, 45.07875], [-123.622119, 45.07875]]]}}, {"type": "Feature", "properties": {"name": "Franklin", "id": "42055", "FIPS": "42055", "FIPS State": 42, "ST": "PA", "County": "Franklin County,PA", "State": "Pennsylvania"}, "geometry": {"type": "Polygon", "coordinates": [[[-77.670589, 40.291904], [-77.615819, 40.198796], [-77.473419, 39.946857], [-77.456988, 39.722302], [-77.467942, 39.722302], [-78.09779, 39.722302], [-77.862282, 40.061872], [-77.703451, 40.264519], [-77.670589, 40.291904]]]}}, {"type": "Feature", "properties": {"name": "Brown", "id": "27015", "FIPS": "27015", "FIPS State": 27, "ST": "MN", "County": "Brown County,MN", "State": "Minnesota"}, "geometry": {"type": "Polygon", "coordinates": [[[-94.851751, 44.498194], [-94.780551, 44.454379], [-94.36978, 44.262686], [-94.36978, 44.109331], [-94.490273, 44.109331], [-94.857228, 44.109331], [-95.109167, 44.196962], [-94.868182, 44.498194], [-94.851751, 44.498194]]]}}, {"type": "Feature", "properties": {"name": "Mercer", "id": "42085", "FIPS": "42085", "FIPS State": 42, "ST": "PA", "County": "Mercer County,PA", "State": "Pennsylvania"}, "geometry": {"type": "Polygon", "coordinates": [[[-80.003765, 41.491354], [-79.998289, 41.491354], [-79.998289, 41.173691], [-80.096873, 41.069629], [-80.518598, 41.124399], [-80.518598, 41.135353], [-80.518598, 41.491354], [-80.003765, 41.491354]]]}}, {"type": "Feature", "properties": {"name": "Parker", "id": "48367", "FIPS": "48367", "FIPS State": 48, "ST": "TX", "County": "Parker County,TX", "State": "Texas"}, "geometry": {"type": "Polygon", "coordinates": [[[-98.055761, 33.002096], [-97.924314, 33.002096], [-97.546405, 32.996619], [-97.551882, 32.552987], [-97.617606, 32.552987], [-98.066715, 32.558464], [-98.055761, 33.002096], [-98.055761, 33.002096]]]}}, {"type": "Feature", "properties": {"name": "Jefferson", "id": "36045", "FIPS": "36045", "FIPS State": 36, "ST": "NY", "County": "Jefferson County,NY", "State": "New York"}, "geometry": {"type": "Polygon", "coordinates": [[[-75.857722, 44.405086], [-75.446951, 44.21887], [-75.775568, 43.687607], [-76.087753, 43.671176], [-76.202769, 43.68213], [-76.312308, 44.196962], [-75.857722, 44.405086]]]}}, {"type": "Feature", "properties": {"name": "Cumberland", "id": "34011", "FIPS": "34011", "FIPS State": 34, "ST": "NJ", "County": "Cumberland County,NJ", "State": "New Jersey"}, "geometry": {"type": "Polygon", "coordinates": [[[-75.058088, 39.568948], [-74.986888, 39.514178], [-74.860918, 39.322485], [-74.915688, 39.180085], [-75.408613, 39.382732], [-75.063565, 39.568948], [-75.058088, 39.568948]]]}}, {"type": "Feature", "properties": {"name": "Wexford", "id": "26165", "FIPS": "26165", "FIPS State": 26, "ST": "MI", "County": "Wexford County,MI", "State": "Michigan"}, "geometry": {"type": "Polygon", "coordinates": [[[-85.694307, 44.514625], [-85.332828, 44.514625], [-85.332828, 44.164101], [-85.486183, 44.164101], [-85.56286, 44.164101], [-85.820276, 44.164101], [-85.814799, 44.514625], [-85.694307, 44.514625]]]}}, {"type": "Feature", "properties": {"name": "Newberry", "id": "45071", "FIPS": "45071", "FIPS State": 45, "ST": "SC", "County": "Newberry County,SC", "State": "South Carolina"}, "geometry": {"type": "Polygon", "coordinates": [[[-81.646848, 34.519209], [-81.641371, 34.53564], [-81.422293, 34.491824], [-81.318231, 34.239885], [-81.340139, 34.196069], [-81.471585, 34.075577], [-81.739956, 34.185115], [-81.871402, 34.135823], [-81.942602, 34.201546], [-81.646848, 34.519209]]]}}, {"type": "Feature", "properties": {"name": "Hanover", "id": "51085", "FIPS": "51085", "FIPS State": 51, "ST": "VA", "County": "Hanover County,VA", "State": "Virginia"}, "geometry": {"type": "Polygon", "coordinates": [[[-77.68702, 38.00802], [-77.643204, 37.991589], [-77.347449, 37.788942], [-77.122895, 37.624634], [-77.226957, 37.537003], [-77.63225, 37.706788], [-77.796559, 37.728696], [-77.68702, 38.00802]]]}}, {"type": "Feature", "properties": {"name": "Portage", "id": "39133", "FIPS": "39133", "FIPS State": 39, "ST": "OH", "County": "Portage County,OH", "State": "Ohio"}, "geometry": {"type": "Polygon", "coordinates": [[[-81.389431, 41.348953], [-81.000569, 41.348953], [-81.000569, 41.135353], [-81.0882, 40.987475], [-81.394908, 40.987475], [-81.389431, 41.348953], [-81.389431, 41.348953]]]}}, {"type": "Feature", "properties": {"name": "Platte", "id": "29165", "FIPS": "29165", "FIPS State": 29, "ST": "MO", "County": "Platte County,MO", "State": "Missouri"}, "geometry": {"type": "Polygon", "coordinates": [[[-95.10369, 39.530609], [-94.599812, 39.530609], [-94.599812, 39.453932], [-94.599812, 39.158177], [-94.775074, 39.201993], [-94.966767, 39.42107], [-95.10369, 39.530609]]]}}, {"type": "Feature", "properties": {"name": "Clermont", "id": "39025", "FIPS": "39025", "FIPS State": 39, "ST": "OH", "County": "Clermont County,OH", "State": "Ohio"}, "geometry": {"type": "Polygon", "coordinates": [[[-84.259348, 39.273193], [-84.007409, 39.256762], [-83.990978, 39.256762], [-84.051224, 38.769315], [-84.231963, 38.829561], [-84.231963, 38.873376], [-84.319594, 39.021254], [-84.259348, 39.273193]]]}}, {"type": "Feature", "properties": {"name": "Cleveland", "id": "40027", "FIPS": "40027", "FIPS State": 40, "ST": "OK", "County": "Cleveland County,OK", "State": "Oklahoma"}, "geometry": {"type": "Polygon", "coordinates": [[[-97.425913, 35.379088], [-97.141112, 35.379088], [-97.141112, 34.929979], [-97.672375, 35.335273], [-97.672375, 35.379088], [-97.425913, 35.379088]]]}}, {"type": "Feature", "properties": {"name": "Sussex", "id": "34037", "FIPS": "34037", "FIPS State": 34, "ST": "NJ", "County": "Sussex County,NJ", "State": "New Jersey"}, "geometry": {"type": "Polygon", "coordinates": [[[-74.367994, 41.201076], [-74.504917, 41.08606], [-74.76781, 40.910798], [-74.96498, 41.091537], [-74.96498, 41.097014], [-74.992365, 41.091537], [-74.69661, 41.359907], [-74.367994, 41.201076]]]}}, {"type": "Feature", "properties": {"name": "Wichita", "id": "48485", "FIPS": "48485", "FIPS State": 48, "ST": "TX", "County": "Wichita County,TX", "State": "Texas"}, "geometry": {"type": "Polygon", "coordinates": [[[-98.608932, 34.157731], [-98.422716, 34.081054], [-98.422716, 33.834591], [-98.43367, 33.834591], [-98.953979, 33.834591], [-98.953979, 34.2125], [-98.608932, 34.157731]]]}}, {"type": "Feature", "properties": {"name": "Clinton", "id": "26037", "FIPS": "26037", "FIPS State": 26, "ST": "MI", "County": "Clinton County,MI", "State": "Michigan"}, "geometry": {"type": "Polygon", "coordinates": [[[-84.719411, 43.118005], [-84.368887, 43.118005], [-84.36341, 42.778435], [-84.604395, 42.767481], [-84.834427, 42.772958], [-84.834427, 43.118005], [-84.719411, 43.118005]]]}}, {"type": "Feature", "properties": {"name": "Dickinson", "id": "26043", "FIPS": "26043", "FIPS State": 26, "ST": "MI", "County": "Dickinson County,MI", "State": "Michigan"}, "geometry": {"type": "Polygon", "coordinates": [[[-87.802929, 46.245338], [-87.616713, 45.987922], [-87.846744, 45.725029], [-88.060345, 45.779798], [-88.115114, 45.922199], [-88.115114, 46.245338], [-87.802929, 46.245338]]]}}, {"type": "Feature", "properties": {"name": "Otter Tail", "id": "27111", "FIPS": "27111", "FIPS State": 27, "ST": "MN", "County": "Otter Tail County,MN", "State": "Minnesota"}, "geometry": {"type": "Polygon", "coordinates": [[[-96.17717, 46.716355], [-95.163936, 46.716355], [-95.152983, 46.371308], [-95.147506, 46.108415], [-95.393968, 46.108415], [-95.771877, 46.108415], [-96.264801, 46.108415], [-96.281232, 46.628724], [-96.17717, 46.716355]]]}}, {"type": "Feature", "properties": {"name": "La Crosse", "id": "55063", "FIPS": "55063", "FIPS State": 55, "ST": "WI", "County": "La Crosse County,WI", "State": "Wisconsin"}, "geometry": {"type": "Polygon", "coordinates": [[[-91.176724, 44.087424], [-91.149339, 44.081947], [-90.974077, 44.070993], [-90.908354, 43.725946], [-91.258878, 43.725946], [-91.286263, 43.846438], [-91.423186, 43.983362], [-91.176724, 44.087424]]]}}, {"type": "Feature", "properties": {"name": "Ouachita", "id": "22073", "FIPS": "22073", "FIPS State": 22, "ST": "LA", "County": "Ouachita County,LA", "State": "Louisiana"}, "geometry": {"type": "Polygon", "coordinates": [[[-91.998265, 32.706342], [-91.910634, 32.503695], [-92.036603, 32.27914], [-92.16805, 32.27914], [-92.31045, 32.27914], [-92.414512, 32.498218], [-92.414512, 32.580372], [-92.063988, 32.722772], [-91.998265, 32.706342]]]}}, {"type": "Feature", "properties": {"name": "Clarke", "id": "13059", "FIPS": "13059", "FIPS State": 13, "ST": "GA", "County": "Clarke County,GA", "State": "Georgia"}, "geometry": {"type": "Polygon", "coordinates": [[[-83.36113, 34.042715], [-83.257068, 33.998899], [-83.273499, 33.845545], [-83.530915, 33.960561], [-83.536392, 33.966038], [-83.36113, 34.042715]]]}}, {"type": "Feature", "properties": {"name": "Lycoming", "id": "42081", "FIPS": "42081", "FIPS State": 42, "ST": "PA", "County": "Lycoming County,PA", "State": "Pennsylvania"}, "geometry": {"type": "Polygon", "coordinates": [[[-76.876433, 41.595416], [-76.816186, 41.589939], [-76.449231, 41.277753], [-76.640924, 41.157261], [-76.734032, 41.173691], [-76.799755, 41.173691], [-76.89834, 41.14083], [-77.144803, 41.069629], [-77.599389, 41.4804], [-77.599389, 41.540646], [-76.876433, 41.595416]]]}}, {"type": "Feature", "properties": {"name": "Sumner", "id": "47165", "FIPS": "47165", "FIPS State": 47, "ST": "TN", "County": "Sumner County,TN", "State": "Tennessee"}, "geometry": {"type": "Polygon", "coordinates": [[[-86.411786, 36.649739], [-86.203662, 36.638785], [-86.231047, 36.48543], [-86.285816, 36.348507], [-86.36797, 36.353984], [-86.592525, 36.244445], [-86.756833, 36.403276], [-86.56514, 36.633308], [-86.411786, 36.649739]]]}}, {"type": "Feature", "properties": {"name": "Aiken", "id": "45003", "FIPS": "45003", "FIPS State": 45, "ST": "SC", "County": "Aiken County,SC", "State": "South Carolina"}, "geometry": {"type": "Polygon", "coordinates": [[[-81.57017, 33.878407], [-81.186785, 33.653852], [-81.373001, 33.489544], [-81.756386, 33.199266], [-81.849494, 33.248559], [-82.013803, 33.53336], [-81.652325, 33.812683], [-81.57017, 33.878407]]]}}, {"type": "Feature", "properties": {"name": "Benson", "id": "38005", "FIPS": "38005", "FIPS State": 38, "ST": "ND", "County": "Benson County,ND", "State": "North Dakota"}, "geometry": {"type": "Polygon", "coordinates": [[[-99.819336, 48.370391], [-99.490719, 48.370391], [-99.200441, 48.370391], [-98.992318, 47.992482], [-98.526778, 47.915805], [-98.526778, 47.844605], [-98.636317, 47.850082], [-99.299026, 47.844605], [-99.813859, 47.850082], [-99.819336, 48.370391]]]}}, {"type": "Feature", "properties": {"name": "Crawford", "id": "42039", "FIPS": "42039", "FIPS State": 42, "ST": "PA", "County": "Crawford County,PA", "State": "Pennsylvania"}, "geometry": {"type": "Polygon", "coordinates": [[[-79.708011, 41.852832], [-79.609426, 41.847355], [-79.614903, 41.6228], [-79.998289, 41.491354], [-80.003765, 41.491354], [-80.518598, 41.491354], [-80.518598, 41.502308], [-80.518598, 41.847355], [-79.708011, 41.852832]]]}}, {"type": "Feature", "properties": {"name": "Skagit", "id": "53057", "FIPS": "53057", "FIPS State": 53, "ST": "WA", "County": "Skagit County,WA", "State": "Washington"}, "geometry": {"type": "Polygon", "coordinates": [[[-122.329561, 48.644238], [-120.752202, 48.655192], [-120.702909, 48.529222], [-121.004141, 48.293714], [-121.836636, 48.299191], [-122.378853, 48.299191], [-122.488392, 48.644238], [-122.329561, 48.644238]]]}}, {"type": "Feature", "properties": {"name": "Walla Walla", "id": "53071", "FIPS": "53071", "FIPS State": 53, "ST": "WA", "County": "Walla Walla County,WA", "State": "Washington"}, "geometry": {"type": "Polygon", "coordinates": [[[-118.698349, 46.371308], [-118.227332, 46.595862], [-117.997301, 45.998876], [-118.58881, 45.998876], [-118.988627, 45.998876], [-119.043396, 46.190569], [-118.698349, 46.371308]]]}}, {"type": "Feature", "properties": {"name": "Ozaukee", "id": "55089", "FIPS": "55089", "FIPS State": 55, "ST": "WI", "County": "Ozaukee County,WI", "State": "Wisconsin"}, "geometry": {"type": "Polygon", "coordinates": [[[-87.923421, 43.545207], [-87.791975, 43.545207], [-87.89056, 43.194682], [-87.972714, 43.194682], [-88.065822, 43.194682], [-88.038437, 43.53973], [-87.923421, 43.545207]]]}}, {"type": "Feature", "properties": {"name": "Brunswick", "id": "37019", "FIPS": "37019", "FIPS State": 37, "ST": "NC", "County": "Brunswick County,NC", "State": "North Carolina"}, "geometry": {"type": "Polygon", "coordinates": [[[-78.125175, 34.365854], [-78.032067, 34.332993], [-77.938959, 33.927699], [-78.541422, 33.851022], [-78.650961, 33.94413], [-78.163514, 34.354901], [-78.125175, 34.365854]]]}}, {"type": "Feature", "properties": {"name": "Tompkins", "id": "36109", "FIPS": "36109", "FIPS State": 36, "ST": "NY", "County": "Tompkins County,NY", "State": "New York"}, "geometry": {"type": "Polygon", "coordinates": [[[-76.460185, 42.625081], [-76.263015, 42.625081], [-76.252061, 42.406003], [-76.536862, 42.280033], [-76.619016, 42.28551], [-76.695693, 42.548403], [-76.668309, 42.625081], [-76.460185, 42.625081]]]}}, {"type": "Feature", "properties": {"name": "Vanderburgh", "id": "18163", "FIPS": "18163", "FIPS State": 18, "ST": "IN", "County": "Vanderburgh County,IN", "State": "Indiana"}, "geometry": {"type": "Polygon", "coordinates": [[[-87.687913, 38.166851], [-87.468835, 38.166851], [-87.452404, 37.942297], [-87.698867, 37.898481], [-87.687913, 38.166851]]]}}, {"type": "Feature", "properties": {"name": "Warren", "id": "36113", "FIPS": "36113", "FIPS State": 36, "ST": "NY", "County": "Warren County,NY", "State": "New York"}, "geometry": {"type": "Polygon", "coordinates": [[[-73.853161, 43.764284], [-73.436914, 43.802623], [-73.595745, 43.304221], [-73.886023, 43.397329], [-74.15987, 43.369944], [-74.055808, 43.742376], [-73.853161, 43.764284]]]}}, {"type": "Feature", "properties": {"name": "Taylor", "id": "48441", "FIPS": "48441", "FIPS State": 48, "ST": "TX", "County": "Taylor County,TX", "State": "Texas"}, "geometry": {"type": "Polygon", "coordinates": [[[-100.136998, 32.520126], [-99.627643, 32.514649], [-99.63312, 32.08197], [-99.715274, 32.08197], [-100.054844, 32.08197], [-100.153429, 32.08197], [-100.147952, 32.520126], [-100.136998, 32.520126]]]}}, {"type": "Feature", "properties": {"name": "Webb", "id": "48479", "FIPS": "48479", "FIPS State": 48, "ST": "TX", "County": "Webb County,TX", "State": "Texas"}, "geometry": {"type": "Polygon", "coordinates": [[[-100.115091, 28.19882], [-99.392134, 28.204297], [-98.800625, 28.056419], [-98.800625, 27.355371], [-98.953979, 27.26774], [-99.359273, 27.306078], [-99.452381, 27.262263], [-100.213675, 28.19882], [-100.115091, 28.19882]]]}}, {"type": "Feature", "properties": {"name": "Tuscaloosa", "id": "01125", "FIPS": "01125", "FIPS State": 1, "ST": "AL", "County": "Tuscaloosa County,AL", "State": "Alabama"}, "geometry": {"type": "Polygon", "coordinates": [[[-87.841267, 33.522406], [-87.42502, 33.60456], [-87.266188, 33.511452], [-87.063542, 33.248559], [-87.419543, 33.002096], [-87.644097, 33.007573], [-87.715298, 33.007573], [-87.83579, 33.155451], [-87.841267, 33.522406]]]}}, {"type": "Feature", "properties": {"name": "Madera", "id": "06039", "FIPS": "06039", "FIPS State": 6, "ST": "CA", "County": "Madera County,CA", "State": "California"}, "geometry": {"type": "Polygon", "coordinates": [[[-119.267951, 37.73965], [-119.021489, 37.586295], [-119.821122, 36.846908], [-120.281185, 36.764754], [-120.544078, 37.044078], [-120.051153, 37.181002], [-119.30629, 37.777988], [-119.267951, 37.73965]]]}}, {"type": "Feature", "properties": {"name": "Lee", "id": "01081", "FIPS": "01081", "FIPS State": 1, "ST": "AL", "County": "Lee County,AL", "State": "Alabama"}, "geometry": {"type": "Polygon", "coordinates": [[[-85.184951, 32.74468], [-85.130182, 32.74468], [-85.080889, 32.607757], [-84.998735, 32.509172], [-85.020643, 32.509172], [-85.431413, 32.410587], [-85.694307, 32.580372], [-85.694307, 32.596803], [-85.595722, 32.728249], [-85.184951, 32.74468]]]}}, {"type": "Feature", "properties": {"name": "Burleigh", "id": "38015", "FIPS": "38015", "FIPS State": 38, "ST": "ND", "County": "Burleigh County,ND", "State": "North Dakota"}, "geometry": {"type": "Polygon", "coordinates": [[[-100.608015, 47.329772], [-100.115091, 47.329772], [-100.082229, 46.634201], [-100.586107, 46.634201], [-100.662785, 46.634201], [-100.936632, 46.984725], [-100.964016, 47.15451], [-100.673738, 47.329772], [-100.608015, 47.329772]]]}}, {"type": "Feature", "properties": {"name": "Grundy", "id": "17063", "FIPS": "17063", "FIPS State": 17, "ST": "IL", "County": "Grundy County,IL", "State": "Illinois"}, "geometry": {"type": "Polygon", "coordinates": [[[-88.279422, 41.463969], [-88.252038, 41.463969], [-88.246561, 41.201076], [-88.252038, 41.113445], [-88.410869, 41.107968], [-88.586131, 41.107968], [-88.597085, 41.458492], [-88.279422, 41.463969]]]}}, {"type": "Feature", "properties": {"name": "Spartanburg", "id": "45083", "FIPS": "45083", "FIPS State": 45, "ST": "SC", "County": "Spartanburg County,SC", "State": "South Carolina"}, "geometry": {"type": "Polygon", "coordinates": [[[-82.216449, 35.198349], [-81.969987, 35.187396], [-81.876879, 35.181919], [-81.712571, 34.913548], [-81.712571, 34.913548], [-81.854971, 34.595886], [-82.145249, 34.787579], [-82.216449, 35.198349]]]}}, {"type": "Feature", "properties": {"name": "Yavapai", "id": "04025", "FIPS": "04025", "FIPS State": 4, "ST": "AZ", "County": "Yavapai County,AZ", "State": "Arizona"}, "geometry": {"type": "Polygon", "coordinates": [[[-113.336425, 35.526966], [-112.438206, 35.258596], [-112.334144, 34.973795], [-111.775497, 34.979272], [-111.556419, 34.469916], [-111.496173, 33.998899], [-112.273898, 33.883884], [-113.336425, 33.998899], [-113.330948, 34.316562], [-113.336425, 35.526966]]]}}, {"type": "Feature", "properties": {"name": "Fayette", "id": "42051", "FIPS": "42051", "FIPS State": 42, "ST": "PA", "County": "Fayette County,PA", "State": "Pennsylvania"}, "geometry": {"type": "Polygon", "coordinates": [[[-79.499887, 40.13855], [-79.291763, 40.039965], [-79.390348, 39.722302], [-79.477979, 39.722302], [-79.609426, 39.722302], [-79.76278, 39.722302], [-79.916134, 39.722302], [-79.998289, 39.985195], [-79.877796, 40.127596], [-79.499887, 40.13855]]]}}, {"type": "Feature", "properties": {"name": "Calhoun", "id": "01015", "FIPS": "01015", "FIPS State": 1, "ST": "AL", "County": "Calhoun County,AL", "State": "Alabama"}, "geometry": {"type": "Polygon", "coordinates": [[[-85.738122, 33.966038], [-85.529998, 33.94413], [-85.798368, 33.555267], [-86.143416, 33.681237], [-86.066738, 33.840068], [-85.738122, 33.966038]]]}}, {"type": "Feature", "properties": {"name": "Blue Earth", "id": "27013", "FIPS": "27013", "FIPS State": 27, "ST": "MN", "County": "Blue Earth County,MN", "State": "Minnesota"}, "geometry": {"type": "Polygon", "coordinates": [[[-94.331441, 44.251732], [-94.013779, 44.240778], [-93.767317, 44.196962], [-93.767317, 43.846438], [-93.893286, 43.846438], [-94.249287, 43.846438], [-94.36978, 43.846438], [-94.36978, 44.109331], [-94.36978, 44.262686], [-94.331441, 44.251732]]]}}, {"type": "Feature", "properties": {"name": "La Salle", "id": "17099", "FIPS": "17099", "FIPS State": 17, "ST": "IL", "County": "La Salle County,IL", "State": "Illinois"}, "geometry": {"type": "Polygon", "coordinates": [[[-88.618993, 41.633754], [-88.602562, 41.633754], [-88.597085, 41.458492], [-88.586131, 41.107968], [-88.931178, 40.927229], [-89.046194, 40.927229], [-89.16121, 41.102491], [-89.16121, 41.310615], [-89.166687, 41.584462], [-88.936655, 41.628277], [-88.618993, 41.633754]]]}}, {"type": "Feature", "properties": {"name": "Bibb", "id": "13021", "FIPS": "13021", "FIPS State": 13, "ST": "GA", "County": "Bibb County,GA", "State": "Georgia"}, "geometry": {"type": "Polygon", "coordinates": [[[-83.722608, 32.952804], [-83.711654, 32.952804], [-83.514484, 32.843265], [-83.596638, 32.662526], [-83.7007, 32.689911], [-83.892393, 32.848742], [-83.722608, 32.952804]]]}}, {"type": "Feature", "properties": {"name": "Union", "id": "37179", "FIPS": "37179", "FIPS State": 37, "ST": "NC", "County": "Union County,NC", "State": "North Carolina"}, "geometry": {"type": "Polygon", "coordinates": [[[-80.55146, 35.209303], [-80.507644, 35.187396], [-80.277612, 35.198349], [-80.321428, 34.814964], [-80.562413, 34.814964], [-80.841737, 35.00118], [-80.55146, 35.209303]]]}}, {"type": "Feature", "properties": {"name": "Canyon", "id": "16027", "FIPS": "16027", "FIPS State": 16, "ST": "ID", "County": "Canyon County,ID", "State": "Idaho"}, "geometry": {"type": "Polygon", "coordinates": [[[-116.97859, 43.8793], [-116.71022, 43.8081], [-116.51305, 43.8081], [-116.51305, 43.28779], [-116.989544, 43.671176], [-117.027882, 43.68213], [-116.97859, 43.8793]]]}}, {"type": "Feature", "properties": {"name": "Forrest", "id": "28035", "FIPS": "28035", "FIPS State": 28, "ST": "MS", "County": "Forrest County,MS", "State": "Mississippi"}, "geometry": {"type": "Polygon", "coordinates": [[[-89.42958, 31.435691], [-89.396718, 31.435691], [-89.144779, 31.435691], [-89.139302, 30.909905], [-89.341949, 30.909905], [-89.347426, 31.00849], [-89.451488, 31.435691], [-89.42958, 31.435691]]]}}, {"type": "Feature", "properties": {"name": "Platte", "id": "31141", "FIPS": "31141", "FIPS State": 31, "ST": "NE", "County": "Platte County,NE", "State": "Nebraska"}, "geometry": {"type": "Polygon", "coordinates": [[[-97.425913, 41.743293], [-97.365666, 41.743293], [-97.250651, 41.743293], [-97.256128, 41.376338], [-97.365666, 41.392769], [-97.601175, 41.332523], [-97.705237, 41.392769], [-97.716191, 41.524216], [-97.831206, 41.524216], [-97.831206, 41.743293], [-97.425913, 41.743293]]]}}, {"type": "Feature", "properties": {"name": "Rutherford", "id": "47149", "FIPS": "47149", "FIPS State": 47, "ST": "TN", "County": "Rutherford County,TN", "State": "Tennessee"}, "geometry": {"type": "Polygon", "coordinates": [[[-86.515848, 36.102045], [-86.15437, 35.954167], [-86.209139, 35.702228], [-86.247477, 35.631028], [-86.521325, 35.691274], [-86.641817, 35.685797], [-86.685633, 35.707705], [-86.619909, 35.970598], [-86.515848, 36.102045]]]}}, {"type": "Feature", "properties": {"name": "Berrien", "id": "26021", "FIPS": "26021", "FIPS State": 26, "ST": "MI", "County": "Berrien County,MI", "State": "Michigan"}, "geometry": {"type": "Polygon", "coordinates": [[[-86.302247, 42.241695], [-86.22557, 42.07191], [-86.22557, 41.759724], [-86.521325, 41.759724], [-86.822556, 41.759724], [-86.362493, 42.241695], [-86.302247, 42.241695]]]}}, {"type": "Feature", "properties": {"name": "Johnson", "id": "18081", "FIPS": "18081", "FIPS State": 18, "ST": "IN", "County": "Johnson County,IN", "State": "Indiana"}, "geometry": {"type": "Polygon", "coordinates": [[[-85.97363, 39.640148], [-85.951723, 39.640148], [-85.951723, 39.34987], [-86.083169, 39.344393], [-86.252954, 39.344393], [-86.247477, 39.634671], [-85.97363, 39.640148]]]}}, {"type": "Feature", "properties": {"name": "Georgetown", "id": "45043", "FIPS": "45043", "FIPS State": 45, "ST": "SC", "County": "Georgetown County,SC", "State": "South Carolina"}, "geometry": {"type": "Polygon", "coordinates": [[[-79.319148, 33.779822], [-79.319148, 33.779822], [-79.187701, 33.703145], [-79.001485, 33.571698], [-79.291763, 33.111635], [-79.445118, 33.215697], [-79.675149, 33.303328], [-79.319148, 33.779822]]]}}, {"type": "Feature", "properties": {"name": "Hays", "id": "48209", "FIPS": "48209", "FIPS State": 48, "ST": "TX", "County": "Hays County,TX", "State": "Texas"}, "geometry": {"type": "Polygon", "coordinates": [[[-98.170777, 30.356734], [-97.710714, 30.022641], [-97.875022, 29.858333], [-98.000992, 29.754271], [-98.296746, 30.039072], [-98.170777, 30.356734]]]}}, {"type": "Feature", "properties": {"name": "Stafford", "id": "51179", "FIPS": "51179", "FIPS State": 51, "ST": "VA", "County": "Stafford County,VA", "State": "Virginia"}, "geometry": {"type": "Polygon", "coordinates": [[[-77.533665, 38.555714], [-77.303634, 38.506421], [-77.287203, 38.34759], [-77.325542, 38.243528], [-77.369357, 38.249005], [-77.446034, 38.281867], [-77.528188, 38.309252], [-77.621296, 38.369498], [-77.637727, 38.407836], [-77.533665, 38.555714]]]}}, {"type": "Feature", "properties": {"name": "Isabella", "id": "26073", "FIPS": "26073", "FIPS State": 26, "ST": "MI", "County": "Isabella County,MI", "State": "Michigan"}, "geometry": {"type": "Polygon", "coordinates": [[[-84.752273, 43.813577], [-84.604395, 43.813577], [-84.609872, 43.468529], [-84.774181, 43.468529], [-84.845381, 43.468529], [-85.086366, 43.468529], [-85.086366, 43.813577], [-84.752273, 43.813577]]]}}, {"type": "Feature", "properties": {"name": "Gregg", "id": "48183", "FIPS": "48183", "FIPS State": 48, "ST": "TX", "County": "Gregg County,TX", "State": "Texas"}, "geometry": {"type": "Polygon", "coordinates": [[[-94.703873, 32.651572], [-94.577904, 32.394156], [-94.988674, 32.366771], [-94.988674, 32.536556], [-94.703873, 32.651572]]]}}, {"type": "Feature", "properties": {"name": "Mayes", "id": "40097", "FIPS": "40097", "FIPS State": 40, "ST": "OK", "County": "Mayes County,OK", "State": "Oklahoma"}, "geometry": {"type": "Polygon", "coordinates": [[[-95.322768, 36.512815], [-95.005105, 36.507338], [-95.010582, 36.162291], [-95.027013, 36.162291], [-95.207752, 36.07466], [-95.437783, 36.07466], [-95.328245, 36.512815], [-95.322768, 36.512815]]]}}, {"type": "Feature", "properties": {"name": "Napa", "id": "06055", "FIPS": "06055", "FIPS State": 6, "ST": "CA", "County": "Napa County,CA", "State": "California"}, "geometry": {"type": "Polygon", "coordinates": [[[-122.395284, 38.862422], [-122.105006, 38.511898], [-122.406238, 38.155897], [-122.625315, 38.665253], [-122.395284, 38.862422]]]}}, {"type": "Feature", "properties": {"name": "Wyandotte", "id": "20209", "FIPS": "20209", "FIPS State": 20, "ST": "KS", "County": "Wyandotte County,KS", "State": "Kansas"}, "geometry": {"type": "Polygon", "coordinates": [[[-94.862705, 39.201993], [-94.775074, 39.201993], [-94.599812, 39.158177], [-94.605288, 39.114362], [-94.605288, 39.043162], [-94.90652, 38.988392], [-94.862705, 39.201993]]]}}, {"type": "Feature", "properties": {"name": "Elkhart", "id": "18039", "FIPS": "18039", "FIPS State": 18, "ST": "IN", "County": "Elkhart County,IN", "State": "Indiana"}, "geometry": {"type": "Polygon", "coordinates": [[[-85.990061, 41.759724], [-85.792891, 41.759724], [-85.661445, 41.759724], [-85.655968, 41.524216], [-85.655968, 41.436584], [-86.061262, 41.436584], [-86.061262, 41.4804], [-86.061262, 41.759724], [-85.990061, 41.759724]]]}}, {"type": "Feature", "properties": {"name": "Clark", "id": "39023", "FIPS": "39023", "FIPS State": 39, "ST": "OH", "County": "Clark County,OH", "State": "Ohio"}, "geometry": {"type": "Polygon", "coordinates": [[[-84.034794, 40.039965], [-83.514484, 40.01258], [-83.645931, 39.771595], [-84.029317, 39.848272], [-84.051224, 39.848272], [-84.051224, 39.881133], [-84.034794, 40.039965]]]}}, {"type": "Feature", "properties": {"name": "Watauga", "id": "37189", "FIPS": "37189", "FIPS State": 37, "ST": "NC", "County": "Watauga County,NC", "State": "North Carolina"}, "geometry": {"type": "Polygon", "coordinates": [[[-81.734479, 36.392322], [-81.477062, 36.238968], [-81.542786, 36.118475], [-81.685186, 36.123952], [-81.811156, 36.112998], [-81.920695, 36.288261], [-81.734479, 36.392322]]]}}, {"type": "Feature", "properties": {"name": "Hall", "id": "13139", "FIPS": "13139", "FIPS State": 13, "ST": "GA", "County": "Hall County,GA", "State": "Georgia"}, "geometry": {"type": "Polygon", "coordinates": [[[-83.788331, 34.513732], [-83.667839, 34.502778], [-83.613069, 34.431578], [-83.618546, 34.294654], [-83.815716, 34.124869], [-83.990978, 34.1413], [-84.062178, 34.168685], [-83.958116, 34.332993], [-83.980024, 34.420624], [-83.843101, 34.502778], [-83.788331, 34.513732]]]}}, {"type": "Feature", "properties": {"name": "Boone", "id": "29019", "FIPS": "29019", "FIPS State": 29, "ST": "MO", "County": "Boone County,MO", "State": "Missouri"}, "geometry": {"type": "Polygon", "coordinates": [[[-92.430943, 39.251285], [-92.315927, 39.245808], [-92.107804, 39.065069], [-92.222819, 38.643345], [-92.392605, 38.736453], [-92.463805, 38.862422], [-92.496666, 38.922669], [-92.556913, 38.971961], [-92.430943, 39.251285]]]}}, {"type": "Feature", "properties": {"name": "Sheboygan", "id": "55117", "FIPS": "55117", "FIPS State": 55, "ST": "WI", "County": "Sheboygan County,WI", "State": "Wisconsin"}, "geometry": {"type": "Polygon", "coordinates": [[[-87.770067, 43.890254], [-87.731728, 43.890254], [-87.791975, 43.545207], [-87.923421, 43.545207], [-88.038437, 43.53973], [-88.15893, 43.545207], [-88.164407, 43.890254], [-88.043914, 43.890254], [-87.770067, 43.890254]]]}}, {"type": "Feature", "properties": {"name": "Shelby", "id": "01117", "FIPS": "01117", "FIPS State": 1, "ST": "AL", "County": "Shelby County,AL", "State": "Alabama"}, "geometry": {"type": "Polygon", "coordinates": [[[-86.515848, 33.544313], [-86.378924, 33.390959], [-86.488463, 33.100681], [-86.515848, 33.018527], [-86.882803, 33.051389], [-87.025203, 33.248559], [-86.515848, 33.544313]]]}}, {"type": "Feature", "properties": {"name": "Summit", "id": "08117", "FIPS": "08117", "FIPS State": 8, "ST": "CO", "County": "Summit County,CO", "State": "Colorado"}, "geometry": {"type": "Polygon", "coordinates": [[[-106.43548, 39.924949], [-105.926124, 39.700394], [-105.827539, 39.563471], [-106.134248, 39.377255], [-106.205448, 39.377255], [-106.43548, 39.924949]]]}}, {"type": "Feature", "properties": {"name": "Hancock", "id": "18059", "FIPS": "18059", "FIPS State": 18, "ST": "IN", "County": "Hancock County,IN", "State": "Indiana"}, "geometry": {"type": "Polygon", "coordinates": [[[-85.617629, 39.946857], [-85.573814, 39.946857], [-85.595722, 39.788025], [-85.63406, 39.700394], [-85.951723, 39.694917], [-85.935292, 39.924949], [-85.864092, 39.94138], [-85.617629, 39.946857]]]}}, {"type": "Feature", "properties": {"name": "Androscoggin", "id": "23001", "FIPS": "23001", "FIPS State": 23, "ST": "ME", "County": "Androscoggin County,ME", "State": "Maine"}, "geometry": {"type": "Polygon", "coordinates": [[[-70.172658, 44.481763], [-70.128842, 44.48724], [-70.002872, 44.125762], [-70.035734, 43.977885], [-70.479366, 44.032654], [-70.238381, 44.459856], [-70.172658, 44.481763]]]}}, {"type": "Feature", "properties": {"name": "Merced", "id": "06047", "FIPS": "06047", "FIPS State": 6, "ST": "CA", "County": "Merced County,CA", "State": "California"}, "geometry": {"type": "Polygon", "coordinates": [[[-120.385247, 37.635588], [-120.051153, 37.181002], [-120.544078, 37.044078], [-120.91651, 36.742847], [-121.217742, 36.961924], [-121.228696, 37.137186], [-120.385247, 37.635588]]]}}, {"type": "Feature", "properties": {"name": "Alamance", "id": "37001", "FIPS": "37001", "FIPS State": 37, "ST": "NC", "County": "Alamance County,NC", "State": "North Carolina"}, "geometry": {"type": "Polygon", "coordinates": [[[-79.532749, 36.249922], [-79.258902, 36.244445], [-79.247948, 35.87749], [-79.543702, 35.844628], [-79.543702, 35.899398], [-79.532749, 36.238968], [-79.532749, 36.249922]]]}}, {"type": "Feature", "properties": {"name": "Geauga", "id": "39055", "FIPS": "39055", "FIPS State": 39, "ST": "OH", "County": "Geauga County,OH", "State": "Ohio"}, "geometry": {"type": "Polygon", "coordinates": [[[-81.006046, 41.715908], [-81.000569, 41.502308], [-81.000569, 41.348953], [-81.389431, 41.348953], [-81.389431, 41.568031], [-81.006046, 41.715908]]]}}, {"type": "Feature", "properties": {"name": "Barron", "id": "55005", "FIPS": "55005", "FIPS State": 55, "ST": "WI", "County": "Barron County,WI", "State": "Wisconsin"}, "geometry": {"type": "Polygon", "coordinates": [[[-92.157096, 45.637398], [-92.031127, 45.637398], [-91.538202, 45.637398], [-91.543679, 45.29235], [-91.664172, 45.210196], [-92.157096, 45.210196], [-92.157096, 45.637398]]]}}, {"type": "Feature", "properties": {"name": "Jessamine", "id": "21113", "FIPS": "21113", "FIPS State": 21, "ST": "KY", "County": "Jessamine County,KY", "State": "Kentucky"}, "geometry": {"type": "Polygon", "coordinates": [[[-84.659165, 38.002543], [-84.43461, 37.849189], [-84.527718, 37.767034], [-84.648211, 37.81085], [-84.713934, 37.816327], [-84.708457, 37.860142], [-84.659165, 38.002543]]]}}, {"type": "Feature", "properties": {"name": "Mohave", "id": "04015", "FIPS": "04015", "FIPS State": 4, "ST": "AZ", "County": "Mohave County,AZ", "State": "Arizona"}, "geometry": {"type": "Polygon", "coordinates": [[[-112.898269, 37.000263], [-112.542268, 37.000263], [-112.629899, 36.392322], [-113.352855, 36.047275], [-113.336425, 35.526966], [-113.330948, 34.316562], [-113.418579, 34.300131], [-114.136058, 34.305608], [-114.634459, 35.00118], [-114.754952, 36.085614], [-114.048427, 36.195153], [-114.048427, 36.841432], [-114.048427, 37.000263], [-112.898269, 37.000263]]]}}, {"type": "Feature", "properties": {"name": "Kent", "id": "10001", "FIPS": "10001", "FIPS State": 10, "ST": "DE", "County": "Kent County,DE", "State": "Delaware"}, "geometry": {"type": "Polygon", "coordinates": [[[-75.616736, 39.311532], [-75.512674, 39.366301], [-75.310028, 38.944577], [-75.720798, 38.829561], [-75.748183, 39.141746], [-75.75366, 39.245808], [-75.759137, 39.295101], [-75.616736, 39.311532]]]}}, {"type": "Feature", "properties": {"name": "Greene", "id": "29077", "FIPS": "29077", "FIPS State": 29, "ST": "MO", "County": "Greene County,MO", "State": "Missouri"}, "geometry": {"type": "Polygon", "coordinates": [[[-93.619439, 37.427464], [-93.619439, 37.427464], [-93.181284, 37.41651], [-93.071745, 37.41651], [-93.066268, 37.087894], [-93.482516, 37.098848], [-93.608485, 37.098848], [-93.624916, 37.279587], [-93.619439, 37.427464]]]}}, {"type": "Feature", "properties": {"name": "Gallatin", "id": "30031", "FIPS": "30031", "FIPS State": 30, "ST": "MT", "County": "Gallatin County,MT", "State": "Montana"}, "geometry": {"type": "Polygon", "coordinates": [[[-111.063494, 46.190569], [-110.78417, 46.190569], [-111.041587, 45.002073], [-111.058017, 44.667979], [-111.047063, 44.476286], [-111.37568, 44.750133], [-111.353772, 45.642875], [-111.802881, 45.796229], [-111.660481, 45.834568], [-111.063494, 46.190569]]]}}, {"type": "Feature", "properties": {"name": "Catawba", "id": "37035", "FIPS": "37035", "FIPS State": 37, "ST": "NC", "County": "Catawba County,NC", "State": "North Carolina"}, "geometry": {"type": "Polygon", "coordinates": [[[-81.192262, 35.822721], [-81.110107, 35.778905], [-80.96223, 35.548874], [-81.488016, 35.570781], [-81.531832, 35.570781], [-81.362047, 35.767951], [-81.334662, 35.795336], [-81.192262, 35.822721]]]}}, {"type": "Feature", "properties": {"name": "Rowan", "id": "37159", "FIPS": "37159", "FIPS State": 37, "ST": "NC", "County": "Rowan County,NC", "State": "North Carolina"}, "geometry": {"type": "Polygon", "coordinates": [[[-80.688383, 35.861059], [-80.458352, 35.740566], [-80.184505, 35.505058], [-80.233797, 35.505058], [-80.294043, 35.505058], [-80.737675, 35.505058], [-80.710291, 35.850105], [-80.688383, 35.861059]]]}}, {"type": "Feature", "properties": {"name": "Dona Ana", "id": "35013", "FIPS": "35013", "FIPS State": 35, "ST": "NM", "County": "Dona Ana County,NM", "State": "New Mexico"}, "geometry": {"type": "Polygon", "coordinates": [[[-106.342372, 33.051389], [-106.375233, 31.999816], [-106.528588, 31.786216], [-107.295359, 31.786216], [-107.300836, 32.607757], [-107.300836, 32.777542], [-106.342372, 33.051389]]]}}, {"type": "Feature", "properties": {"name": "Yellowstone", "id": "30111", "FIPS": "30111", "FIPS State": 30, "ST": "MT", "County": "Yellowstone County,MT", "State": "Montana"}, "geometry": {"type": "Polygon", "coordinates": [[[-107.782807, 46.497277], [-107.738991, 46.480847], [-107.50896, 46.042691], [-108.0457, 45.900291], [-108.067608, 45.516905], [-108.642687, 45.462136], [-108.806995, 45.626444], [-108.845333, 45.610013], [-108.922011, 46.130322], [-108.77961, 46.130322], [-107.782807, 46.497277]]]}}, {"type": "Feature", "properties": {"name": "Washington", "id": "55131", "FIPS": "55131", "FIPS State": 55, "ST": "WI", "County": "Washington County,WI", "State": "Wisconsin"}, "geometry": {"type": "Polygon", "coordinates": [[[-88.399915, 43.545207], [-88.15893, 43.545207], [-88.038437, 43.53973], [-88.065822, 43.194682], [-88.416346, 43.194682], [-88.399915, 43.545207]]]}}, {"type": "Feature", "properties": {"name": "Okaloosa", "id": "12091", "FIPS": "12091", "FIPS State": 12, "ST": "FL", "County": "Okaloosa County,FL", "State": "Florida"}, "geometry": {"type": "Polygon", "coordinates": [[[-86.685633, 30.992059], [-86.389878, 30.992059], [-86.395355, 30.378642], [-86.800648, 30.384119], [-86.784218, 30.997536], [-86.685633, 30.992059]]]}}, {"type": "Feature", "properties": {"name": "Midland", "id": "48329", "FIPS": "48329", "FIPS State": 48, "ST": "TX", "County": "Midland County,TX", "State": "Texas"}, "geometry": {"type": "Polygon", "coordinates": [[[-101.933435, 32.087447], [-101.774603, 32.087447], [-101.774603, 31.649292], [-102.223713, 31.649292], [-102.289436, 31.649292], [-102.289436, 32.087447], [-102.212759, 32.087447], [-101.933435, 32.087447]]]}}, {"type": "Feature", "properties": {"name": "Washington", "id": "24043", "FIPS": "24043", "FIPS State": 24, "ST": "MD", "County": "Washington County,MD", "State": "Maryland"}, "geometry": {"type": "Polygon", "coordinates": [[[-78.284006, 39.722302], [-78.09779, 39.722302], [-77.467942, 39.722302], [-77.676066, 39.322485], [-77.719881, 39.322485], [-77.823943, 39.492271], [-78.021113, 39.61824], [-78.185421, 39.694917], [-78.333299, 39.634671], [-78.344253, 39.722302], [-78.284006, 39.722302]]]}}, {"type": "Feature", "properties": {"name": "York", "id": "45091", "FIPS": "45091", "FIPS State": 45, "ST": "SC", "County": "York County,SC", "State": "South Carolina"}, "geometry": {"type": "Polygon", "coordinates": [[[-81.367524, 35.165488], [-81.329185, 35.165488], [-81.044384, 35.149057], [-80.907461, 35.077857], [-80.907461, 35.077857], [-80.896507, 34.820441], [-81.28537, 34.820441], [-81.477062, 34.820441], [-81.455155, 34.836871], [-81.367524, 35.165488]]]}}, {"type": "Feature", "properties": {"name": "Putnam", "id": "36079", "FIPS": "36079", "FIPS State": 36, "ST": "NY", "County": "Putnam County,NY", "State": "New York"}, "geometry": {"type": "Polygon", "coordinates": [[[-73.530022, 41.529692], [-73.546453, 41.365384], [-73.661469, 41.35443], [-73.984608, 41.321569], [-73.979131, 41.327046], [-73.979131, 41.436584], [-73.530022, 41.529692]]]}}, {"type": "Feature", "properties": {"name": "Pueblo", "id": "08101", "FIPS": "08101", "FIPS State": 8, "ST": "CO", "County": "Pueblo County,CO", "State": "Colorado"}, "geometry": {"type": "Polygon", "coordinates": [[[-104.053011, 38.522852], [-104.058488, 38.144943], [-104.058488, 37.734173], [-104.348765, 37.816327], [-105.049814, 37.914912], [-105.049814, 38.259959], [-104.940275, 38.517375], [-104.053011, 38.522852]]]}}, {"type": "Feature", "properties": {"name": "Franklin", "id": "25011", "FIPS": "25011", "FIPS State": 25, "ST": "MA", "County": "Franklin County,MA", "State": "Massachusetts"}, "geometry": {"type": "Polygon", "coordinates": [[[-73.020667, 42.740096], [-72.927559, 42.740096], [-72.456542, 42.729142], [-72.28128, 42.723665], [-72.314141, 42.345757], [-72.976851, 42.55388], [-73.020667, 42.740096]]]}}, {"type": "Feature", "properties": {"name": "Armstrong", "id": "42005", "FIPS": "42005", "FIPS State": 42, "ST": "PA", "County": "Armstrong County,PA", "State": "Pennsylvania"}, "geometry": {"type": "Polygon", "coordinates": [[[-79.603949, 41.020337], [-79.215086, 41.053199], [-79.215086, 40.910798], [-79.450595, 40.527412], [-79.538226, 40.54932], [-79.69158, 40.669813], [-79.69158, 40.669813], [-79.69158, 41.168214], [-79.603949, 41.020337]]]}}, {"type": "Feature", "properties": {"name": "Comal", "id": "48091", "FIPS": "48091", "FIPS State": 48, "ST": "TX", "County": "Comal County,TX", "State": "Texas"}, "geometry": {"type": "Polygon", "coordinates": [[[-98.296746, 30.039072], [-98.000992, 29.754271], [-98.313177, 29.595439], [-98.64727, 29.743317], [-98.411762, 29.93501], [-98.296746, 30.039072]]]}}, {"type": "Feature", "properties": {"name": "Sangamon", "id": "17167", "FIPS": "17167", "FIPS State": 17, "ST": "IL", "County": "Sangamon County,IL", "State": "Illinois"}, "geometry": {"type": "Polygon", "coordinates": [[[-89.489826, 39.974241], [-89.215979, 39.919472], [-89.215979, 39.81541], [-89.254318, 39.820887], [-89.533642, 39.525132], [-89.588411, 39.525132], [-89.703427, 39.525132], [-89.758196, 39.525132], [-89.927981, 39.519655], [-89.993705, 39.87018], [-89.993705, 39.903041], [-89.577457, 39.974241], [-89.489826, 39.974241]]]}}, {"type": "Feature", "properties": {"name": "Sussex", "id": "10005", "FIPS": "10005", "FIPS State": 10, "ST": "DE", "County": "Sussex County,DE", "State": "Delaware"}, "geometry": {"type": "Polygon", "coordinates": [[[-75.047134, 38.451652], [-75.342889, 38.451652], [-75.69889, 38.561191], [-75.709844, 38.637868], [-75.720798, 38.829561], [-75.310028, 38.944577], [-75.047134, 38.451652]]]}}, {"type": "Feature", "properties": {"name": "Beaufort", "id": "45013", "FIPS": "45013", "FIPS State": 45, "ST": "SC", "County": "Beaufort County,SC", "State": "South Carolina"}, "geometry": {"type": "Polygon", "coordinates": [[[-80.825307, 32.706342], [-80.474782, 32.487264], [-80.880076, 32.08197], [-80.869122, 32.662526], [-80.825307, 32.706342]]]}}, {"type": "Feature", "properties": {"name": "Dubuque", "id": "19061", "FIPS": "19061", "FIPS State": 19, "ST": "IA", "County": "Dubuque County,IA", "State": "Iowa"}, "geometry": {"type": "Polygon", "coordinates": [[[-90.8974, 42.657942], [-90.8974, 42.674373], [-90.639984, 42.510065], [-90.475675, 42.384095], [-90.8974, 42.296464], [-91.127431, 42.296464], [-91.132908, 42.646988], [-90.8974, 42.657942]]]}}, {"type": "Feature", "properties": {"name": "Chittenden", "id": "50007", "FIPS": "50007", "FIPS State": 50, "ST": "VT", "County": "Chittenden County,VT", "State": "Vermont"}, "geometry": {"type": "Polygon", "coordinates": [[[-73.22879, 44.722749], [-72.922082, 44.635118], [-72.807066, 44.454379], [-72.954943, 44.164101], [-73.22879, 44.262686], [-73.310944, 44.262686], [-73.338329, 44.547487], [-73.360237, 44.563917], [-73.22879, 44.722749]]]}}, {"type": "Feature", "properties": {"name": "Weber", "id": "49057", "FIPS": "49057", "FIPS State": 49, "ST": "UT", "County": "Weber County,UT", "State": "Utah"}, "geometry": {"type": "Polygon", "coordinates": [[[-111.655004, 41.4092], [-111.512603, 41.425631], [-111.419495, 41.359907], [-111.857651, 41.14083], [-112.011005, 41.151784], [-112.492976, 41.075106], [-111.885035, 41.425631], [-111.655004, 41.4092]]]}}, {"type": "Feature", "properties": {"name": "Madison", "id": "28089", "FIPS": "28089", "FIPS State": 28, "ST": "MS", "County": "Madison County,MS", "State": "Mississippi"}, "geometry": {"type": "Polygon", "coordinates": [[[-89.96632, 32.881604], [-89.730812, 32.887081], [-89.730812, 32.635141], [-89.785581, 32.585849], [-90.03752, 32.448925], [-90.064905, 32.399633], [-90.448291, 32.574895], [-89.96632, 32.881604]]]}}, {"type": "Feature", "properties": {"name": "Livingston", "id": "26093", "FIPS": "26093", "FIPS State": 26, "ST": "MI", "County": "Livingston County,MI", "State": "Michigan"}, "geometry": {"type": "Polygon", "coordinates": [[[-83.684269, 42.783912], [-83.662362, 42.433388], [-84.133379, 42.422434], [-84.138855, 42.422434], [-84.160763, 42.778435], [-83.925255, 42.778435], [-83.684269, 42.783912]]]}}, {"type": "Feature", "properties": {"name": "Columbiana", "id": "39029", "FIPS": "39029", "FIPS State": 39, "ST": "OH", "County": "Columbiana County,OH", "State": "Ohio"}, "geometry": {"type": "Polygon", "coordinates": [[[-80.858168, 40.927229], [-80.518598, 40.899844], [-80.518598, 40.850552], [-80.518598, 40.636951], [-80.666475, 40.582182], [-80.863645, 40.598613], [-81.0882, 40.730059], [-81.0882, 40.905321], [-80.858168, 40.927229]]]}}, {"type": "Feature", "properties": {"name": "Black Hawk", "id": "19013", "FIPS": "19013", "FIPS State": 19, "ST": "IA", "County": "Black Hawk County,IA", "State": "Iowa"}, "geometry": {"type": "Polygon", "coordinates": [[[-92.469282, 42.641511], [-92.080419, 42.641511], [-92.063988, 42.296464], [-92.299497, 42.296464], [-92.535005, 42.296464], [-92.551436, 42.55388], [-92.556913, 42.641511], [-92.469282, 42.641511]]]}}, {"type": "Feature", "properties": {"name": "Smith", "id": "48423", "FIPS": "48423", "FIPS State": 48, "ST": "TX", "County": "Smith County,TX", "State": "Texas"}, "geometry": {"type": "Polygon", "coordinates": [[[-95.574707, 32.67348], [-95.152983, 32.569418], [-94.988674, 32.536556], [-94.988674, 32.366771], [-94.983197, 32.13674], [-95.459691, 32.13674], [-95.448737, 32.355817], [-95.596615, 32.684434], [-95.574707, 32.67348]]]}}, {"type": "Feature", "properties": {"name": "Lubbock", "id": "48303", "FIPS": "48303", "FIPS State": 48, "ST": "TX", "County": "Lubbock County,TX", "State": "Texas"}, "geometry": {"type": "Polygon", "coordinates": [[[-101.571957, 33.829114], [-101.561003, 33.829114], [-101.555526, 33.396436], [-102.075835, 33.390959], [-102.086789, 33.823637], [-101.571957, 33.829114]]]}}, {"type": "Feature", "properties": {"name": "Cache", "id": "49005", "FIPS": "49005", "FIPS State": 49, "ST": "UT", "County": "Cache County,UT", "State": "Utah"}, "geometry": {"type": "Polygon", "coordinates": [[[-111.507126, 42.000709], [-111.512603, 41.425631], [-111.655004, 41.4092], [-111.885035, 41.425631], [-112.164359, 41.995232], [-112.10959, 41.995232], [-111.507126, 42.000709]]]}}, {"type": "Feature", "properties": {"name": "Forsyth", "id": "13117", "FIPS": "13117", "FIPS State": 13, "ST": "GA", "County": "Forsyth County,GA", "State": "Georgia"}, "geometry": {"type": "Polygon", "coordinates": [[[-84.259348, 34.332993], [-83.958116, 34.332993], [-84.062178, 34.168685], [-84.09504, 34.048192], [-84.259348, 34.185115], [-84.259348, 34.332993]]]}}, {"type": "Feature", "properties": {"name": "Butler", "id": "42019", "FIPS": "42019", "FIPS State": 42, "ST": "PA", "County": "Butler County,PA", "State": "Pennsylvania"}, "geometry": {"type": "Polygon", "coordinates": [[[-79.998289, 41.173691], [-79.697057, 41.173691], [-79.69158, 41.168214], [-79.69158, 40.669813], [-80.146166, 40.67529], [-80.15712, 40.856029], [-80.096873, 41.069629], [-79.998289, 41.173691]]]}}, {"type": "Feature", "properties": {"name": "Santa Rosa", "id": "12113", "FIPS": "12113", "FIPS State": 12, "ST": "FL", "County": "Santa Rosa County,FL", "State": "Florida"}, "geometry": {"type": "Polygon", "coordinates": [[[-87.162127, 30.997536], [-86.784218, 30.997536], [-86.800648, 30.384119], [-86.921141, 30.373165], [-87.310004, 30.734643], [-87.162127, 30.997536]]]}}]}