{"type": "FeatureCollection", "crs": {"type": "name", "properties": {"name": "urn:ogc:def:crs:OGC:1.3:CRS84"}}, "features": [{"type": "Feature", "properties": {"name": "Clearwater", "id": "27029", "FIPS": "27029", "FIPS State": 27, "ST": "MN", "County": "Clearwater County,MN", "State": "Minnesota"}, "geometry": {"type": "Polygon", "coordinates": [[[-95.580184, 48.019867], [-95.22966, 48.019867], [-95.185844, 47.411926], [-95.169413, 47.15451], [-95.552799, 47.149033], [-95.552799, 47.499557], [-95.580184, 47.932236], [-95.580184, 48.019867]]]}}, {"type": "Feature", "properties": {"name": "Mille Lacs", "id": "27095", "FIPS": "27095", "FIPS State": 27, "ST": "MN", "County": "Mille Lacs County,MN", "State": "Minnesota"}, "geometry": {"type": "Polygon", "coordinates": [[[-93.553716, 46.245338], [-93.433223, 46.15223], [-93.515377, 45.735983], [-93.5099, 45.560721], [-93.652301, 45.560721], [-93.76184, 45.560721], [-93.76184, 45.823614], [-93.811132, 46.157707], [-93.794701, 46.245338], [-93.553716, 46.245338]]]}}, {"type": "Feature", "properties": {"name": "Otsego", "id": "26137", "FIPS": "26137", "FIPS State": 26, "ST": "MI", "County": "Otsego County,MI", "State": "Michigan"}, "geometry": {"type": "Polygon", "coordinates": [[[-84.735842, 45.204719], [-84.368887, 45.199243], [-84.374364, 44.854195], [-84.774181, 44.859672], [-84.845381, 44.859672], [-84.856335, 45.117088], [-84.735842, 45.204719]]]}}, {"type": "Feature", "properties": {"name": "Culpeper", "id": "51047", "FIPS": "51047", "FIPS State": 51, "ST": "VA", "County": "Culpeper County,VA", "State": "Virginia"}, "geometry": {"type": "Polygon", "coordinates": [[[-77.933482, 38.698114], [-77.637727, 38.407836], [-77.621296, 38.369498], [-77.703451, 38.358544], [-77.895143, 38.391406], [-78.092313, 38.309252], [-78.229237, 38.533806], [-77.933482, 38.698114]]]}}, {"type": "Feature", "properties": {"name": "Atchison", "id": "20005", "FIPS": "20005", "FIPS State": 20, "ST": "KS", "County": "Atchison County,KS", "State": "Kansas"}, "geometry": {"type": "Polygon", "coordinates": [[[-95.393968, 39.651102], [-95.339199, 39.651102], [-95.054398, 39.623717], [-95.10369, 39.530609], [-94.966767, 39.42107], [-95.065351, 39.42107], [-95.180367, 39.42107], [-95.465168, 39.42107], [-95.56923, 39.42107], [-95.563753, 39.651102], [-95.393968, 39.651102]]]}}, {"type": "Feature", "properties": {"name": "Le Flore", "id": "40079", "FIPS": "40079", "FIPS State": 40, "ST": "OK", "County": "Le Flore County,OK", "State": "Oklahoma"}, "geometry": {"type": "Polygon", "coordinates": [[[-94.430026, 35.379088], [-94.446457, 34.935456], [-94.451934, 34.727333], [-94.462888, 34.508255], [-94.616242, 34.508255], [-94.939382, 34.508255], [-95.059875, 34.67804], [-94.928428, 35.055949], [-94.813412, 35.324319], [-94.430026, 35.379088]]]}}, {"type": "Feature", "properties": {"name": "Bertie", "id": "37015", "FIPS": "37015", "FIPS State": 37, "ST": "NC", "County": "Bertie County,NC", "State": "North Carolina"}, "geometry": {"type": "Polygon", "coordinates": [[[-76.706647, 36.244445], [-76.668309, 36.01989], [-76.690217, 35.943213], [-76.761417, 35.866536], [-77.325542, 36.07466], [-77.29268, 36.167768], [-77.210526, 36.244445], [-76.706647, 36.244445]]]}}, {"type": "Feature", "properties": {"name": "Howard", "id": "18067", "FIPS": "18067", "FIPS State": 18, "ST": "IN", "County": "Howard County,IN", "State": "Indiana"}, "geometry": {"type": "Polygon", "coordinates": [[[-85.875046, 40.565751], [-85.864092, 40.565751], [-85.864092, 40.40692], [-86.242001, 40.374058], [-86.357016, 40.434304], [-86.373447, 40.434304], [-86.373447, 40.560274], [-86.165323, 40.560274], [-85.875046, 40.565751]]]}}, {"type": "Feature", "properties": {"name": "Marshall", "id": "18099", "FIPS": "18099", "FIPS State": 18, "ST": "IN", "County": "Marshall County,IN", "State": "Indiana"}, "geometry": {"type": "Polygon", "coordinates": [[[-86.247477, 41.4804], [-86.061262, 41.4804], [-86.061262, 41.436584], [-86.077692, 41.173691], [-86.242001, 41.173691], [-86.466555, 41.173691], [-86.466555, 41.431108], [-86.247477, 41.4804]]]}}, {"type": "Feature", "properties": {"name": "Kewaunee", "id": "55061", "FIPS": "55061", "FIPS State": 55, "ST": "WI", "County": "Kewaunee County,WI", "State": "Wisconsin"}, "geometry": {"type": "Polygon", "coordinates": [[[-87.737205, 44.678933], [-87.375727, 44.673456], [-87.545512, 44.328409], [-87.76459, 44.328409], [-87.76459, 44.646072], [-87.737205, 44.678933]]]}}, {"type": "Feature", "properties": {"name": "Jackson", "id": "28059", "FIPS": "28059", "FIPS State": 28, "ST": "MS", "County": "Jackson County,MS", "State": "Mississippi"}, "geometry": {"type": "Polygon", "coordinates": [[[-88.865455, 30.734643], [-88.410869, 30.734643], [-88.394438, 30.367688], [-88.843547, 30.406027], [-88.881886, 30.679874], [-88.881886, 30.734643], [-88.865455, 30.734643]]]}}, {"type": "Feature", "properties": {"name": "Emanuel", "id": "13107", "FIPS": "13107", "FIPS State": 13, "ST": "GA", "County": "Emanuel County,GA", "State": "Georgia"}, "geometry": {"type": "Polygon", "coordinates": [[[-82.315034, 32.837788], [-82.145249, 32.810403], [-82.002849, 32.607757], [-82.030233, 32.536556], [-82.23288, 32.317479], [-82.408142, 32.355817], [-82.550543, 32.498218], [-82.649128, 32.514649], [-82.435527, 32.761111], [-82.315034, 32.837788]]]}}, {"type": "Feature", "properties": {"name": "Monroe", "id": "17133", "FIPS": "17133", "FIPS State": 17, "ST": "IL", "County": "Monroe County,IL", "State": "Illinois"}, "geometry": {"type": "Polygon", "coordinates": [[[-90.207305, 38.47356], [-89.900597, 38.22162], [-90.03752, 38.22162], [-90.207305, 38.090174], [-90.251121, 38.128512], [-90.344229, 38.385929], [-90.262075, 38.522852], [-90.207305, 38.47356]]]}}, {"type": "Feature", "properties": {"name": "George", "id": "28039", "FIPS": "28039", "FIPS State": 28, "ST": "MS", "County": "George County,MS", "State": "Mississippi"}, "geometry": {"type": "Polygon", "coordinates": [[[-88.679239, 30.997536], [-88.4273, 30.997536], [-88.410869, 30.734643], [-88.865455, 30.734643], [-88.881886, 30.734643], [-88.887363, 30.909905], [-88.832593, 30.997536], [-88.679239, 30.997536]]]}}, {"type": "Feature", "properties": {"name": "Fannin", "id": "13111", "FIPS": "13111", "FIPS State": 13, "ST": "GA", "County": "Fannin County,GA", "State": "Georgia"}, "geometry": {"type": "Polygon", "coordinates": [[[-84.319594, 34.990226], [-84.127902, 34.990226], [-84.155286, 34.650655], [-84.188148, 34.601363], [-84.199102, 34.617794], [-84.620826, 34.853302], [-84.620826, 34.990226], [-84.319594, 34.990226]]]}}, {"type": "Feature", "properties": {"name": "Yell", "id": "05149", "FIPS": "05149", "FIPS State": 5, "ST": "AR", "County": "Yell County,AR", "State": "Arkansas"}, "geometry": {"type": "Polygon", "coordinates": [[[-93.279869, 35.318842], [-92.896483, 35.170965], [-93.038884, 35.077857], [-93.285346, 34.771148], [-93.394885, 34.743763], [-93.570147, 34.743763], [-93.712547, 34.743763], [-93.70707, 35.01761], [-93.279869, 35.318842]]]}}, {"type": "Feature", "properties": {"name": "Carteret", "id": "37031", "FIPS": "37031", "FIPS State": 37, "ST": "NC", "County": "Carteret County,NC", "State": "North Carolina"}, "geometry": {"type": "Polygon", "coordinates": [[[-77.111941, 34.639701], [-77.16671, 34.787579], [-77.090033, 34.80401], [-76.712124, 34.979272], [-76.646401, 35.01761], [-76.279446, 34.940933], [-76.536862, 34.590409], [-77.111941, 34.639701]]]}}, {"type": "Feature", "properties": {"name": "Liberty", "id": "13179", "FIPS": "13179", "FIPS State": 13, "ST": "GA", "County": "Liberty County,GA", "State": "Georgia"}, "geometry": {"type": "Polygon", "coordinates": [[[-81.707094, 32.087447], [-81.197738, 31.725969], [-81.192262, 31.567138], [-81.493493, 31.698584], [-81.811156, 31.999816], [-81.82211, 32.016247], [-81.761863, 32.049109], [-81.718048, 32.087447], [-81.707094, 32.087447]]]}}, {"type": "Feature", "properties": {"name": "Glynn", "id": "13127", "FIPS": "13127", "FIPS State": 13, "ST": "GA", "County": "Glynn County,GA", "State": "Georgia"}, "geometry": {"type": "Polygon", "coordinates": [[[-81.279893, 31.293291], [-81.268939, 31.293291], [-81.444201, 31.013967], [-81.76734, 31.167321], [-81.729002, 31.331629], [-81.62494, 31.452122], [-81.279893, 31.293291]]]}}, {"type": "Feature", "properties": {"name": "Jasper", "id": "18073", "FIPS": "18073", "FIPS State": 18, "ST": "IN", "County": "Jasper County,IN", "State": "Indiana"}, "geometry": {"type": "Polygon", "coordinates": [[[-87.036157, 41.255845], [-86.932095, 41.239415], [-86.932095, 41.173691], [-86.932095, 40.910798], [-87.096403, 40.735536], [-87.266188, 40.735536], [-87.277142, 41.21203], [-87.277142, 41.217507], [-87.216896, 41.239415], [-87.036157, 41.255845]]]}}, {"type": "Feature", "properties": {"name": "Whiteside", "id": "17195", "FIPS": "17195", "FIPS State": 17, "ST": "IL", "County": "Whiteside County,IL", "State": "Illinois"}, "geometry": {"type": "Polygon", "coordinates": [[[-89.889643, 41.929509], [-89.686996, 41.929509], [-89.632227, 41.902124], [-89.632227, 41.584462], [-89.862258, 41.584462], [-90.179921, 41.584462], [-90.185398, 41.584462], [-90.240167, 41.781632], [-90.152536, 41.929509], [-89.889643, 41.929509]]]}}, {"type": "Feature", "properties": {"name": "Sweetwater", "id": "56037", "FIPS": "56037", "FIPS State": 56, "ST": "WY", "County": "Sweetwater County,WY", "State": "Wyoming"}, "geometry": {"type": "Polygon", "coordinates": [[[-110.055737, 42.269079], [-109.042503, 42.263602], [-107.525391, 42.263602], [-107.50896, 41.655662], [-107.930684, 41.661139], [-107.919731, 41.003906], [-109.04798, 40.998429], [-109.677828, 40.998429], [-110.000968, 40.998429], [-110.05026, 40.998429], [-110.05026, 41.578985], [-110.055737, 42.269079]]]}}, {"type": "Feature", "properties": {"name": "Mower", "id": "27099", "FIPS": "27099", "FIPS State": 27, "ST": "MN", "County": "Mower County,MN", "State": "Minnesota"}, "geometry": {"type": "Polygon", "coordinates": [[[-92.880052, 43.846438], [-92.688359, 43.846438], [-92.447374, 43.835484], [-92.447374, 43.501391], [-92.551436, 43.501391], [-93.022453, 43.501391], [-93.049837, 43.501391], [-93.049837, 43.846438], [-93.04436, 43.846438], [-92.880052, 43.846438]]]}}, {"type": "Feature", "properties": {"name": "Lewis", "id": "53041", "FIPS": "53041", "FIPS State": 53, "ST": "WA", "County": "Lewis County,WA", "State": "Washington"}, "geometry": {"type": "Polygon", "coordinates": [[[-123.183963, 46.793032], [-123.162056, 46.793032], [-122.203591, 46.760171], [-121.45325, 46.782078], [-121.52445, 46.387739], [-122.24193, 46.387739], [-123.216825, 46.387739], [-123.359225, 46.382262], [-123.370179, 46.793032], [-123.183963, 46.793032]]]}}, {"type": "Feature", "properties": {"name": "Vermilion", "id": "17183", "FIPS": "17183", "FIPS State": 17, "ST": "IL", "County": "Vermilion County,IL", "State": "Illinois"}, "geometry": {"type": "Polygon", "coordinates": [[[-87.841267, 40.489074], [-87.529082, 40.489074], [-87.529082, 40.47812], [-87.529082, 40.149503], [-87.534558, 39.881133], [-87.939852, 39.881133], [-87.934375, 40.401443], [-87.934375, 40.483597], [-87.841267, 40.489074]]]}}, {"type": "Feature", "properties": {"name": "Koochiching", "id": "27071", "FIPS": "27071", "FIPS State": 27, "ST": "MN", "County": "Koochiching County,MN", "State": "Minnesota"}, "geometry": {"type": "Polygon", "coordinates": [[[-93.088176, 48.627807], [-93.088176, 48.55113], [-93.082699, 47.893897], [-93.597531, 47.899374], [-94.419073, 47.844605], [-94.430026, 48.364914], [-94.430026, 48.699007], [-93.794701, 48.518268], [-93.088176, 48.627807]]]}}, {"type": "Feature", "properties": {"name": "Starr", "id": "48427", "FIPS": "48427", "FIPS State": 48, "ST": "TX", "County": "Starr County,TX", "State": "Texas"}, "geometry": {"type": "Polygon", "coordinates": [[[-98.953979, 26.785769], [-98.422716, 26.785769], [-98.318654, 26.785769], [-98.587024, 26.254506], [-99.16758, 26.572168], [-98.953979, 26.785769]]]}}, {"type": "Feature", "properties": {"name": "Anderson", "id": "48001", "FIPS": "48001", "FIPS State": 48, "ST": "TX", "County": "Anderson County,TX", "State": "Texas"}, "geometry": {"type": "Polygon", "coordinates": [[[-95.42683, 32.08197], [-95.273475, 31.594523], [-95.623999, 31.54523], [-95.739015, 31.501415], [-95.728061, 31.643815], [-95.788308, 31.61643], [-96.051201, 32.005293], [-95.42683, 32.08197]]]}}, {"type": "Feature", "properties": {"name": "Essex", "id": "36031", "FIPS": "36031", "FIPS State": 36, "ST": "NY", "County": "Essex County,NY", "State": "New York"}, "geometry": {"type": "Polygon", "coordinates": [[[-73.338329, 44.547487], [-73.310944, 44.262686], [-73.376668, 43.8081], [-73.436914, 43.802623], [-73.853161, 43.764284], [-74.055808, 43.742376], [-74.280363, 44.120285], [-73.907931, 44.426994], [-73.338329, 44.547487]]]}}, {"type": "Feature", "properties": {"name": "Rice", "id": "27131", "FIPS": "27131", "FIPS State": 27, "ST": "MN", "County": "Rice County,MN", "State": "Minnesota"}, "geometry": {"type": "Polygon", "coordinates": [[[-93.301777, 44.54201], [-93.279869, 44.54201], [-93.038884, 44.470809], [-93.038884, 44.196962], [-93.04436, 44.196962], [-93.164853, 44.196962], [-93.405839, 44.196962], [-93.526331, 44.196962], [-93.526331, 44.54201], [-93.301777, 44.54201]]]}}, {"type": "Feature", "properties": {"name": "Chaves", "id": "35005", "FIPS": "35005", "FIPS State": 35, "ST": "NM", "County": "Chaves County,NM", "State": "New Mexico"}, "geometry": {"type": "Polygon", "coordinates": [[[-103.877749, 34.081054], [-103.510794, 33.571698], [-103.812025, 32.963758], [-104.102303, 32.963758], [-104.84169, 32.963758], [-104.852644, 32.520126], [-105.356522, 32.520126], [-105.318184, 33.133543], [-104.907413, 33.13902], [-104.890983, 34.08653], [-103.943472, 34.081054], [-103.877749, 34.081054]]]}}, {"type": "Feature", "properties": {"name": "Uvalde", "id": "48463", "FIPS": "48463", "FIPS State": 48, "ST": "TX", "County": "Uvalde County,TX", "State": "Texas"}, "geometry": {"type": "Polygon", "coordinates": [[[-99.605735, 29.628301], [-99.414042, 29.628301], [-99.414042, 29.091561], [-100.109614, 29.086084], [-100.109614, 29.622824], [-100.016506, 29.622824], [-99.605735, 29.628301]]]}}, {"type": "Feature", "properties": {"name": "Clinton", "id": "42035", "FIPS": "42035", "FIPS State": 42, "ST": "PA", "County": "Clinton County,PA", "State": "Pennsylvania"}, "geometry": {"type": "Polygon", "coordinates": [[[-77.747266, 41.474923], [-77.599389, 41.4804], [-77.144803, 41.069629], [-77.144803, 41.042245], [-77.708927, 41.113445], [-78.037544, 41.151784], [-78.092313, 41.217507], [-77.988251, 41.474923], [-77.747266, 41.474923]]]}}, {"type": "Feature", "properties": {"name": "Madison", "id": "36053", "FIPS": "36053", "FIPS State": 36, "ST": "NY", "County": "Madison County,NY", "State": "New York"}, "geometry": {"type": "Polygon", "coordinates": [[[-75.978214, 43.167298], [-75.994645, 43.183728], [-75.885106, 43.156344], [-75.249781, 42.871543], [-75.293597, 42.745573], [-75.310028, 42.745573], [-75.890583, 42.723665], [-75.89606, 42.789389], [-75.978214, 43.167298]]]}}, {"type": "Feature", "properties": {"name": "Cowlitz", "id": "53015", "FIPS": "53015", "FIPS State": 53, "ST": "WA", "County": "Cowlitz County,WA", "State": "Washington"}, "geometry": {"type": "Polygon", "coordinates": [[[-123.216825, 46.387739], [-122.24193, 46.387739], [-122.247407, 46.053645], [-122.433623, 45.976968], [-122.784147, 45.850998], [-123.211348, 46.174138], [-123.216825, 46.387739]]]}}, {"type": "Feature", "properties": {"name": "Fremont", "id": "56013", "FIPS": "56013", "FIPS State": 56, "ST": "WY", "County": "Fremont County,WY", "State": "Wyoming"}, "geometry": {"type": "Polygon", "coordinates": [[[-110.055737, 44.010746], [-109.310873, 43.813577], [-108.335978, 43.457575], [-107.596591, 43.501391], [-107.536345, 43.501391], [-107.525391, 42.433388], [-107.525391, 42.263602], [-109.042503, 42.263602], [-109.075365, 42.690804], [-110.05026, 43.463052], [-110.055737, 44.010746]]]}}, {"type": "Feature", "properties": {"name": "Wise", "id": "51195", "FIPS": "51195", "FIPS State": 51, "ST": "VA", "County": "Wise County,VA", "State": "Virginia"}, "geometry": {"type": "Polygon", "coordinates": [[[-82.55602, 37.20291], [-82.325988, 36.972878], [-82.408142, 36.874293], [-82.479343, 36.885247], [-82.76962, 36.797616], [-82.868205, 36.885247], [-82.879159, 36.890724], [-82.868205, 36.972878], [-82.566974, 37.197433], [-82.55602, 37.20291]]]}}, {"type": "Feature", "properties": {"name": "Elk", "id": "42047", "FIPS": "42047", "FIPS State": 42, "ST": "PA", "County": "Elk County,PA", "State": "Pennsylvania"}, "geometry": {"type": "Polygon", "coordinates": [[[-78.95767, 41.6228], [-78.42093, 41.600893], [-78.234714, 41.228461], [-78.711208, 41.201076], [-78.95767, 41.370861], [-79.094593, 41.343476], [-78.95767, 41.6228]]]}}, {"type": "Feature", "properties": {"name": "Walker", "id": "48471", "FIPS": "48471", "FIPS State": 48, "ST": "TX", "County": "Walker County,TX", "State": "Texas"}, "geometry": {"type": "Polygon", "coordinates": [[[-95.432306, 31.057782], [-95.328245, 30.860613], [-95.361106, 30.504611], [-95.832123, 30.630581], [-95.864985, 30.86609], [-95.618522, 30.931813], [-95.432306, 31.057782]]]}}, {"type": "Feature", "properties": {"name": "Jay", "id": "18075", "FIPS": "18075", "FIPS State": 18, "ST": "IN", "County": "Jay County,IN", "State": "Indiana"}, "geometry": {"type": "Polygon", "coordinates": [[[-84.801565, 40.571228], [-84.801565, 40.35215], [-84.801565, 40.308335], [-84.807042, 40.308335], [-85.217813, 40.308335], [-85.217813, 40.379535], [-85.201382, 40.565751], [-85.069935, 40.565751], [-84.801565, 40.571228]]]}}, {"type": "Feature", "properties": {"name": "Granville", "id": "37077", "FIPS": "37077", "FIPS State": 37, "ST": "NC", "County": "Granville County,NC", "State": "North Carolina"}, "geometry": {"type": "Polygon", "coordinates": [[[-78.470222, 36.5402], [-78.459268, 36.5402], [-78.497607, 36.173245], [-78.546899, 36.01989], [-78.749546, 36.069183], [-78.804316, 36.233491], [-78.798839, 36.5402], [-78.733115, 36.5402], [-78.470222, 36.5402]]]}}, {"type": "Feature", "properties": {"name": "Washington", "id": "36115", "FIPS": "36115", "FIPS State": 36, "ST": "NY", "County": "Washington County,NY", "State": "New York"}, "geometry": {"type": "Polygon", "coordinates": [[[-73.376668, 43.8081], [-73.365714, 43.75333], [-73.256175, 43.315175], [-73.272606, 42.942743], [-73.387622, 42.94822], [-73.634084, 42.942743], [-73.595745, 43.304221], [-73.436914, 43.802623], [-73.376668, 43.8081]]]}}, {"type": "Feature", "properties": {"name": "Monroe", "id": "01099", "FIPS": "01099", "FIPS State": 1, "ST": "AL", "County": "Monroe County,AL", "State": "Alabama"}, "geometry": {"type": "Polygon", "coordinates": [[[-87.501697, 31.830031], [-86.90471, 31.830031], [-86.90471, 31.753354], [-86.910187, 31.753354], [-87.42502, 31.260429], [-87.616713, 31.243998], [-87.76459, 31.298768], [-87.501697, 31.830031]]]}}, {"type": "Feature", "properties": {"name": "Wagoner", "id": "40145", "FIPS": "40145", "FIPS State": 40, "ST": "OK", "County": "Wagoner County,OK", "State": "Oklahoma"}, "geometry": {"type": "Polygon", "coordinates": [[[-95.618522, 36.162291], [-95.437783, 36.07466], [-95.207752, 36.07466], [-95.267998, 35.811767], [-95.656861, 35.855582], [-95.7664, 35.855582], [-95.821169, 35.855582], [-95.760923, 36.162291], [-95.618522, 36.162291]]]}}, {"type": "Feature", "properties": {"name": "Nassau", "id": "12089", "FIPS": "12089", "FIPS State": 12, "ST": "FL", "County": "Nassau County,FL", "State": "Florida"}, "geometry": {"type": "Polygon", "coordinates": [[[-81.904264, 30.816797], [-81.444201, 30.707258], [-81.444201, 30.510088], [-81.608509, 30.586766], [-82.046664, 30.27458], [-82.052141, 30.362211], [-81.904264, 30.816797]]]}}, {"type": "Feature", "properties": {"name": "Hertford", "id": "37091", "FIPS": "37091", "FIPS State": 37, "ST": "NC", "County": "Hertford County,NC", "State": "North Carolina"}, "geometry": {"type": "Polygon", "coordinates": [[[-76.914771, 36.545677], [-76.695693, 36.293737], [-76.706647, 36.244445], [-77.210526, 36.244445], [-77.16671, 36.545677], [-76.914771, 36.545677]]]}}, {"type": "Feature", "properties": {"name": "Emmet", "id": "26047", "FIPS": "26047", "FIPS State": 26, "ST": "MI", "County": "Emmet County,MI", "State": "Michigan"}, "geometry": {"type": "Polygon", "coordinates": [[[-84.730365, 45.785275], [-84.730365, 45.779798], [-84.730365, 45.286874], [-85.09732, 45.363551], [-85.09732, 45.369028], [-84.730365, 45.785275]]]}}, {"type": "Feature", "properties": {"name": "Tift", "id": "13277", "FIPS": "13277", "FIPS State": 13, "ST": "GA", "County": "Tift County,GA", "State": "Georgia"}, "geometry": {"type": "Polygon", "coordinates": [[[-83.645931, 31.594523], [-83.498053, 31.594523], [-83.339222, 31.47403], [-83.43233, 31.34806], [-83.514484, 31.326153], [-83.651408, 31.331629], [-83.651408, 31.567138], [-83.645931, 31.594523]]]}}, {"type": "Feature", "properties": {"name": "Hyde", "id": "46069", "FIPS": "46069", "FIPS State": 46, "ST": "SD", "County": "Hyde County,SD", "State": "South Dakota"}, "geometry": {"type": "Polygon", "coordinates": [[[-99.572873, 44.898011], [-99.30998, 44.898011], [-99.299026, 44.196962], [-99.57835, 44.191485], [-99.665981, 44.21887], [-99.676935, 44.547487], [-99.676935, 44.898011], [-99.572873, 44.898011]]]}}, {"type": "Feature", "properties": {"name": "Taylor", "id": "21217", "FIPS": "21217", "FIPS State": 21, "ST": "KY", "County": "Taylor County,KY", "State": "Kentucky"}, "geometry": {"type": "Polygon", "coordinates": [[[-85.584768, 37.47128], [-85.464275, 37.465803], [-85.075412, 37.411033], [-85.163043, 37.312448], [-85.354736, 37.191956], [-85.584768, 37.47128]]]}}, {"type": "Feature", "properties": {"name": "Swain", "id": "37173", "FIPS": "37173", "FIPS State": 37, "ST": "NC", "County": "Swain County,NC", "State": "North Carolina"}, "geometry": {"type": "Polygon", "coordinates": [[[-83.662362, 35.570781], [-83.257068, 35.696751], [-83.185868, 35.516012], [-83.207776, 35.516012], [-83.339222, 35.329796], [-83.678792, 35.280503], [-83.952639, 35.461243], [-83.662362, 35.570781]]]}}, {"type": "Feature", "properties": {"name": "Dyer", "id": "47045", "FIPS": "47045", "FIPS State": 47, "ST": "TN", "County": "Dyer County,TN", "State": "Tennessee"}, "geometry": {"type": "Polygon", "coordinates": [[[-89.265272, 36.206106], [-89.155733, 36.206106], [-89.188594, 35.997983], [-89.341949, 35.882967], [-89.489826, 35.94869], [-89.643181, 35.904875], [-89.730812, 35.997983], [-89.62675, 36.184199], [-89.484349, 36.211583], [-89.265272, 36.206106]]]}}, {"type": "Feature", "properties": {"name": "Mono", "id": "06051", "FIPS": "06051", "FIPS State": 6, "ST": "CA", "County": "Mono County,CA", "State": "California"}, "geometry": {"type": "Polygon", "coordinates": [[[-119.585614, 38.714545], [-119.328197, 38.533806], [-119.158412, 38.413313], [-118.429979, 37.898481], [-117.832993, 37.465803], [-117.937054, 37.465803], [-118.775026, 37.460326], [-119.021489, 37.586295], [-119.267951, 37.73965], [-119.640383, 38.325682], [-119.585614, 38.714545]]]}}, {"type": "Feature", "properties": {"name": "Cole", "id": "29051", "FIPS": "29051", "FIPS State": 29, "ST": "MO", "County": "Cole County,MO", "State": "Missouri"}, "geometry": {"type": "Polygon", "coordinates": [[[-92.392605, 38.736453], [-92.222819, 38.643345], [-92.009219, 38.572145], [-92.195435, 38.336636], [-92.496666, 38.429744], [-92.392605, 38.736453]]]}}, {"type": "Feature", "properties": {"name": "Dickson", "id": "47043", "FIPS": "47043", "FIPS State": 47, "ST": "TN", "County": "Dickson County,TN", "State": "Tennessee"}, "geometry": {"type": "Polygon", "coordinates": [[[-87.512651, 36.332076], [-87.288096, 36.321122], [-87.184034, 36.047275], [-87.205942, 35.959644], [-87.512651, 35.992506], [-87.534558, 35.992506], [-87.56742, 36.178722], [-87.512651, 36.332076]]]}}, {"type": "Feature", "properties": {"name": "Ogemaw", "id": "26129", "FIPS": "26129", "FIPS State": 26, "ST": "MI", "County": "Ogemaw County,MI", "State": "Michigan"}, "geometry": {"type": "Polygon", "coordinates": [[[-83.925255, 44.509148], [-83.886916, 44.509148], [-83.886916, 44.164101], [-84.16624, 44.164101], [-84.248394, 44.164101], [-84.368887, 44.158624], [-84.368887, 44.509148], [-83.925255, 44.509148]]]}}, {"type": "Feature", "properties": {"name": "Ionia", "id": "26067", "FIPS": "26067", "FIPS State": 26, "ST": "MI", "County": "Ionia County,MI", "State": "Michigan"}, "geometry": {"type": "Polygon", "coordinates": [[[-85.075412, 43.118005], [-84.834427, 43.118005], [-84.834427, 42.772958], [-85.075412, 42.772958], [-85.130182, 42.772958], [-85.310921, 42.767481], [-85.310921, 43.118005], [-85.075412, 43.118005]]]}}, {"type": "Feature", "properties": {"name": "Colbert", "id": "01033", "FIPS": "01033", "FIPS State": 1, "ST": "AL", "County": "Colbert County,AL", "State": "Alabama"}, "geometry": {"type": "Polygon", "coordinates": [[[-88.098683, 34.891641], [-87.42502, 34.798533], [-87.529082, 34.568501], [-88.142499, 34.579455], [-88.098683, 34.891641]]]}}, {"type": "Feature", "properties": {"name": "Goochland", "id": "51075", "FIPS": "51075", "FIPS State": 51, "ST": "VA", "County": "Goochland County,VA", "State": "Virginia"}, "geometry": {"type": "Polygon", "coordinates": [[[-78.064929, 37.903958], [-77.796559, 37.728696], [-77.63225, 37.706788], [-77.654158, 37.564388], [-78.015636, 37.641065], [-78.070406, 37.657496], [-78.158037, 37.750604], [-78.064929, 37.903958]]]}}, {"type": "Feature", "properties": {"name": "Cascade", "id": "30013", "FIPS": "30013", "FIPS State": 30, "ST": "MT", "County": "Cascade County,MT", "State": "Montana"}, "geometry": {"type": "Polygon", "coordinates": [[[-111.419495, 47.696727], [-111.408542, 47.696727], [-110.64177, 47.417403], [-110.652724, 46.825894], [-111.079925, 47.088787], [-111.660481, 46.913525], [-112.049344, 47.515988], [-111.419495, 47.696727]]]}}, {"type": "Feature", "properties": {"name": "La Plata", "id": "08067", "FIPS": "08067", "FIPS State": 8, "ST": "CO", "County": "La Plata County,CO", "State": "Colorado"}, "geometry": {"type": "Polygon", "coordinates": [[[-107.804715, 37.641065], [-107.481575, 37.641065], [-107.481575, 37.421987], [-107.481575, 37.000263], [-108.379794, 37.000263], [-107.9745, 37.641065], [-107.804715, 37.641065]]]}}, {"type": "Feature", "properties": {"name": "Cerro Gordo", "id": "19033", "FIPS": "19033", "FIPS State": 19, "ST": "IA", "County": "Cerro Gordo County,IA", "State": "Iowa"}, "geometry": {"type": "Polygon", "coordinates": [[[-93.055314, 43.254929], [-93.022453, 43.254929], [-93.022453, 43.211113], [-93.022453, 42.909881], [-93.487993, 42.909881], [-93.498947, 42.909881], [-93.498947, 43.254929], [-93.055314, 43.254929]]]}}, {"type": "Feature", "properties": {"name": "Camden", "id": "29029", "FIPS": "29029", "FIPS State": 29, "ST": "MO", "County": "Camden County,MO", "State": "Missouri"}, "geometry": {"type": "Polygon", "coordinates": [[[-93.077222, 38.259959], [-92.693836, 38.22162], [-92.403558, 38.018974], [-92.409035, 37.860142], [-92.852668, 37.893004], [-93.071745, 37.903958], [-93.066268, 38.062789], [-93.077222, 38.259959]]]}}, {"type": "Feature", "properties": {"name": "Polk", "id": "55095", "FIPS": "55095", "FIPS State": 55, "ST": "WI", "County": "Polk County,WI", "State": "Wisconsin"}, "geometry": {"type": "Polygon", "coordinates": [[[-92.529528, 45.730506], [-92.157096, 45.637398], [-92.157096, 45.210196], [-92.650021, 45.210196], [-92.75956, 45.210196], [-92.743129, 45.297827], [-92.885529, 45.642875], [-92.529528, 45.730506]]]}}, {"type": "Feature", "properties": {"name": "Walton", "id": "12131", "FIPS": "12131", "FIPS State": 12, "ST": "FL", "County": "Walton County,FL", "State": "Florida"}, "geometry": {"type": "Polygon", "coordinates": [[[-86.389878, 30.992059], [-86.187231, 30.992059], [-86.033877, 30.992059], [-85.842184, 30.701781], [-85.990061, 30.389596], [-85.995538, 30.269103], [-86.395355, 30.378642], [-86.389878, 30.992059]]]}}, {"type": "Feature", "properties": {"name": "Stanly", "id": "37167", "FIPS": "37167", "FIPS State": 37, "ST": "NC", "County": "Stanly County,NC", "State": "North Carolina"}, "geometry": {"type": "Polygon", "coordinates": [[[-80.233797, 35.505058], [-80.184505, 35.505058], [-80.074966, 35.14358], [-80.173551, 35.149057], [-80.277612, 35.198349], [-80.507644, 35.187396], [-80.294043, 35.505058], [-80.233797, 35.505058]]]}}, {"type": "Feature", "properties": {"name": "Hillsdale", "id": "26059", "FIPS": "26059", "FIPS State": 26, "ST": "MI", "County": "Hillsdale County,MI", "State": "Michigan"}, "geometry": {"type": "Polygon", "coordinates": [[[-84.36341, 42.07191], [-84.357933, 41.704955], [-84.401749, 41.704955], [-84.807042, 41.694001], [-84.823473, 41.759724], [-84.82895, 42.07191], [-84.708457, 42.07191], [-84.36341, 42.07191]]]}}, {"type": "Feature", "properties": {"name": "Waldo", "id": "23027", "FIPS": "23027", "FIPS State": 23, "ST": "ME", "County": "Waldo County,ME", "State": "Maine"}, "geometry": {"type": "Polygon", "coordinates": [[[-69.471609, 44.695364], [-69.268962, 44.722749], [-68.814376, 44.68441], [-68.797945, 44.470809], [-69.027977, 44.251732], [-69.411363, 44.328409], [-69.504471, 44.34484], [-69.471609, 44.695364]]]}}, {"type": "Feature", "properties": {"name": "Adams", "id": "17001", "FIPS": "17001", "FIPS State": 17, "ST": "IL", "County": "Adams County,IL", "State": "Illinois"}, "geometry": {"type": "Polygon", "coordinates": [[[-91.204109, 40.198796], [-90.913831, 40.193319], [-90.913831, 40.105688], [-90.919308, 39.842795], [-91.36294, 39.760641], [-91.43414, 39.946857], [-91.50534, 40.198796], [-91.204109, 40.198796]]]}}, {"type": "Feature", "properties": {"name": "Hall", "id": "31079", "FIPS": "31079", "FIPS State": 31, "ST": "NE", "County": "Hall County,NE", "State": "Nebraska"}, "geometry": {"type": "Polygon", "coordinates": [[[-98.70204, 41.047722], [-98.285792, 41.047722], [-98.280315, 40.87246], [-98.280315, 40.697198], [-98.723948, 40.697198], [-98.723948, 41.047722], [-98.70204, 41.047722]]]}}, {"type": "Feature", "properties": {"name": "Creek", "id": "40037", "FIPS": "40037", "FIPS State": 40, "ST": "OK", "County": "Creek County,OK", "State": "Oklahoma"}, "geometry": {"type": "Polygon", "coordinates": [[[-96.620803, 36.162291], [-96.297663, 36.162291], [-96.03477, 35.855582], [-96.138832, 35.855582], [-96.193601, 35.636505], [-96.478402, 35.636505], [-96.620803, 35.636505], [-96.620803, 35.943213], [-96.620803, 36.162291]]]}}, {"type": "Feature", "properties": {"name": "Etowah", "id": "01055", "FIPS": "01055", "FIPS State": 1, "ST": "AL", "County": "Etowah County,AL", "State": "Alabama"}, "geometry": {"type": "Polygon", "coordinates": [[[-86.105077, 34.201546], [-85.842184, 34.201546], [-85.738122, 33.966038], [-86.066738, 33.840068], [-86.291293, 33.982469], [-86.324155, 33.938653], [-86.302247, 34.097484], [-86.105077, 34.201546]]]}}, {"type": "Feature", "properties": {"name": "Rutland", "id": "50021", "FIPS": "50021", "FIPS State": 50, "ST": "VT", "County": "Rutland County,VT", "State": "Vermont"}, "geometry": {"type": "Polygon", "coordinates": [[[-73.365714, 43.75333], [-72.96042, 43.82453], [-72.867312, 43.298744], [-73.256175, 43.315175], [-73.365714, 43.75333]]]}}, {"type": "Feature", "properties": {"name": "Campbell", "id": "56005", "FIPS": "56005", "FIPS State": 56, "ST": "WY", "County": "Campbell County,WY", "State": "Wyoming"}, "geometry": {"type": "Polygon", "coordinates": [[[-106.024709, 44.991119], [-105.088152, 45.002073], [-105.077198, 44.175055], [-105.077198, 43.495914], [-106.019232, 43.495914], [-106.008278, 44.563917], [-106.024709, 44.991119]]]}}, {"type": "Feature", "properties": {"name": "Logan", "id": "17107", "FIPS": "17107", "FIPS State": 17, "ST": "IL", "County": "Logan County,IL", "State": "Illinois"}, "geometry": {"type": "Polygon", "coordinates": [[[-89.265272, 40.324766], [-89.150256, 40.28095], [-89.144779, 40.050919], [-89.215979, 39.919472], [-89.489826, 39.974241], [-89.577457, 39.974241], [-89.599365, 40.122119], [-89.604842, 40.319289], [-89.265272, 40.324766]]]}}, {"type": "Feature", "properties": {"name": "Lenoir", "id": "37107", "FIPS": "37107", "FIPS State": 37, "ST": "NC", "County": "Lenoir County,NC", "State": "North Carolina"}, "geometry": {"type": "Polygon", "coordinates": [[[-77.446034, 35.379088], [-77.391265, 35.34075], [-77.473419, 35.231211], [-77.730835, 35.006656], [-77.834897, 35.176442], [-77.807512, 35.368135], [-77.473419, 35.428381], [-77.446034, 35.379088]]]}}, {"type": "Feature", "properties": {"name": "Houston", "id": "48225", "FIPS": "48225", "FIPS State": 48, "ST": "TX", "County": "Houston County,TX", "State": "Texas"}, "geometry": {"type": "Polygon", "coordinates": [[[-95.623999, 31.54523], [-95.273475, 31.594523], [-95.005105, 31.424737], [-94.955813, 31.386399], [-95.432306, 31.057782], [-95.618522, 30.931813], [-95.7664, 31.096121], [-95.739015, 31.501415], [-95.623999, 31.54523]]]}}, {"type": "Feature", "properties": {"name": "Lancaster", "id": "51103", "FIPS": "51103", "FIPS State": 51, "ST": "VA", "County": "Lancaster County,VA", "State": "Virginia"}, "geometry": {"type": "Polygon", "coordinates": [[[-76.48757, 37.838235], [-76.317785, 37.679403], [-76.640924, 37.794419], [-76.509478, 37.838235], [-76.48757, 37.838235]]]}}, {"type": "Feature", "properties": {"name": "Cowley", "id": "20035", "FIPS": "20035", "FIPS State": 20, "ST": "KS", "County": "Cowley County,KS", "State": "Kansas"}, "geometry": {"type": "Polygon", "coordinates": [[[-97.080866, 37.476757], [-96.527695, 37.476757], [-96.522218, 37.301494], [-96.527695, 37.000263], [-96.730341, 37.000263], [-96.752249, 37.000263], [-96.867265, 37.000263], [-97.146589, 37.000263], [-97.152066, 37.476757], [-97.080866, 37.476757]]]}}, {"type": "Feature", "properties": {"name": "Highland", "id": "39071", "FIPS": "39071", "FIPS State": 39, "ST": "OH", "County": "Highland County,OH", "State": "Ohio"}, "geometry": {"type": "Polygon", "coordinates": [[[-83.591161, 39.377255], [-83.372084, 39.377255], [-83.355653, 39.196516], [-83.383038, 39.054115], [-83.673316, 39.021254], [-83.865008, 39.245808], [-83.591161, 39.377255]]]}}, {"type": "Feature", "properties": {"name": "Hill", "id": "48217", "FIPS": "48217", "FIPS State": 48, "ST": "TX", "County": "Hill County,TX", "State": "Texas"}, "geometry": {"type": "Polygon", "coordinates": [[[-97.113727, 32.257232], [-97.086342, 32.268186], [-96.89465, 32.076493], [-96.719387, 31.8136], [-96.932988, 31.709538], [-97.080866, 31.840985], [-97.278035, 31.747877], [-97.475205, 32.175078], [-97.113727, 32.257232]]]}}, {"type": "Feature", "properties": {"name": "Montgomery", "id": "21173", "FIPS": "21173", "FIPS State": 21, "ST": "KY", "County": "Montgomery County,KY", "State": "Kentucky"}, "geometry": {"type": "Polygon", "coordinates": [[[-84.040271, 38.144943], [-83.980024, 38.194236], [-83.760947, 37.997066], [-83.766424, 37.920389], [-83.96907, 37.931343], [-84.078609, 38.117559], [-84.040271, 38.144943]]]}}, {"type": "Feature", "properties": {"name": "Rockingham", "id": "37157", "FIPS": "37157", "FIPS State": 37, "ST": "NC", "County": "Rockingham County,NC", "State": "North Carolina"}, "geometry": {"type": "Polygon", "coordinates": [[[-79.965427, 36.5402], [-79.713488, 36.5402], [-79.510841, 36.5402], [-79.532749, 36.249922], [-79.532749, 36.238968], [-80.036627, 36.255399], [-80.025673, 36.5402], [-79.965427, 36.5402]]]}}, {"type": "Feature", "properties": {"name": "Defiance", "id": "39039", "FIPS": "39039", "FIPS State": 39, "ST": "OH", "County": "Defiance County,OH", "State": "Ohio"}, "geometry": {"type": "Polygon", "coordinates": [[[-84.270302, 41.425631], [-84.226487, 41.168214], [-84.341502, 41.162737], [-84.577011, 41.250368], [-84.801565, 41.250368], [-84.801565, 41.272276], [-84.801565, 41.425631], [-84.341502, 41.425631], [-84.270302, 41.425631]]]}}, {"type": "Feature", "properties": {"name": "Clay", "id": "27027", "FIPS": "27027", "FIPS State": 27, "ST": "MN", "County": "Clay County,MN", "State": "Minnesota"}, "geometry": {"type": "Polygon", "coordinates": [[[-96.582464, 47.149033], [-96.193601, 47.149033], [-96.17717, 46.716355], [-96.281232, 46.628724], [-96.790588, 46.628724], [-96.790588, 46.628724], [-96.828926, 47.149033], [-96.582464, 47.149033]]]}}, {"type": "Feature", "properties": {"name": "Montgomery", "id": "18107", "FIPS": "18107", "FIPS State": 18, "ST": "IN", "County": "Montgomery County,IN", "State": "Indiana"}, "geometry": {"type": "Polygon", "coordinates": [[[-86.921141, 40.215227], [-86.696587, 40.215227], [-86.696587, 40.176888], [-86.696587, 39.924949], [-86.696587, 39.864703], [-87.008772, 39.864703], [-87.090926, 39.952334], [-87.090926, 40.215227], [-86.921141, 40.215227]]]}}, {"type": "Feature", "properties": {"name": "Botetourt", "id": "51023", "FIPS": "51023", "FIPS State": 51, "ST": "VA", "County": "Botetourt County,VA", "State": "Virginia"}, "geometry": {"type": "Polygon", "coordinates": [[[-79.790165, 37.794419], [-79.675149, 37.761557], [-79.499887, 37.531526], [-79.844934, 37.306971], [-80.074966, 37.421987], [-80.020196, 37.646542], [-79.790165, 37.794419]]]}}, {"type": "Feature", "properties": {"name": "Rockwall", "id": "48397", "FIPS": "48397", "FIPS State": 48, "ST": "TX", "County": "Rockwall County,TX", "State": "Texas"}, "geometry": {"type": "Polygon", "coordinates": [[[-96.440064, 32.980189], [-96.297663, 32.980189], [-96.297663, 32.843265], [-96.516741, 32.81588], [-96.516741, 32.980189], [-96.440064, 32.980189]]]}}, {"type": "Feature", "properties": {"name": "Auglaize", "id": "39011", "FIPS": "39011", "FIPS State": 39, "ST": "OH", "County": "Auglaize County,OH", "State": "Ohio"}, "geometry": {"type": "Polygon", "coordinates": [[[-84.253871, 40.686244], [-83.881439, 40.642428], [-83.881439, 40.538366], [-84.001932, 40.483597], [-84.105994, 40.483597], [-84.43461, 40.35215], [-84.456518, 40.686244], [-84.396272, 40.686244], [-84.253871, 40.686244]]]}}, {"type": "Feature", "properties": {"name": "Tuolumne", "id": "06109", "FIPS": "06109", "FIPS State": 6, "ST": "CA", "County": "Tuolumne County,CA", "State": "California"}, "geometry": {"type": "Polygon", "coordinates": [[[-120.045677, 38.424267], [-120.018292, 38.435221], [-119.640383, 38.325682], [-119.267951, 37.73965], [-119.30629, 37.777988], [-120.084015, 37.827281], [-120.385247, 37.635588], [-120.653617, 37.832758], [-120.045677, 38.424267]]]}}, {"type": "Feature", "properties": {"name": "Marion", "id": "45067", "FIPS": "45067", "FIPS State": 45, "ST": "SC", "County": "Marion County,SC", "State": "South Carolina"}, "geometry": {"type": "Polygon", "coordinates": [[[-79.36844, 34.300131], [-79.127455, 34.256316], [-79.187701, 33.703145], [-79.319148, 33.779822], [-79.324625, 33.80173], [-79.549179, 34.228931], [-79.36844, 34.300131]]]}}, {"type": "Feature", "properties": {"name": "Fauquier", "id": "51061", "FIPS": "51061", "FIPS State": 51, "ST": "VA", "County": "Fauquier County,VA", "State": "Virginia"}, "geometry": {"type": "Polygon", "coordinates": [[[-77.960867, 39.015777], [-77.654158, 38.944577], [-77.533665, 38.555714], [-77.637727, 38.407836], [-77.933482, 38.698114], [-78.130652, 38.862422], [-78.004682, 38.977438], [-77.960867, 39.015777]]]}}, {"type": "Feature", "properties": {"name": "Bulloch", "id": "13031", "FIPS": "13031", "FIPS State": 13, "ST": "GA", "County": "Bulloch County,GA", "State": "Georgia"}, "geometry": {"type": "Polygon", "coordinates": [[[-81.827587, 32.651572], [-81.548263, 32.487264], [-81.433247, 32.240802], [-81.783771, 32.153171], [-81.969987, 32.268186], [-82.030233, 32.536556], [-82.002849, 32.607757], [-81.838541, 32.651572], [-81.827587, 32.651572]]]}}, {"type": "Feature", "properties": {"name": "Barrow", "id": "13013", "FIPS": "13013", "FIPS State": 13, "ST": "GA", "County": "Barrow County,GA", "State": "Georgia"}, "geometry": {"type": "Polygon", "coordinates": [[[-83.799285, 33.927699], [-83.815716, 34.124869], [-83.536392, 33.966038], [-83.645931, 33.905791], [-83.799285, 33.927699]]]}}, {"type": "Feature", "properties": {"name": "Leavenworth", "id": "20103", "FIPS": "20103", "FIPS State": 20, "ST": "KS", "County": "Leavenworth County,KS", "State": "Kansas"}, "geometry": {"type": "Polygon", "coordinates": [[[-95.065351, 39.42107], [-94.966767, 39.42107], [-94.775074, 39.201993], [-94.862705, 39.201993], [-94.90652, 38.988392], [-95.054398, 38.982915], [-95.185844, 39.043162], [-95.180367, 39.42107], [-95.065351, 39.42107]]]}}, {"type": "Feature", "properties": {"name": "Pickaway", "id": "39129", "FIPS": "39129", "FIPS State": 39, "ST": "OH", "County": "Pickaway County,OH", "State": "Ohio"}, "geometry": {"type": "Polygon", "coordinates": [[[-83.246114, 39.809933], [-83.246114, 39.81541], [-82.82439, 39.793502], [-82.731282, 39.552517], [-82.742236, 39.470363], [-83.268022, 39.514178], [-83.251591, 39.694917], [-83.246114, 39.809933]]]}}, {"type": "Feature", "properties": {"name": "Bedford", "id": "51019", "FIPS": "51019", "FIPS State": 51, "ST": "VA", "County": "Bedford County,VA", "State": "Virginia"}, "geometry": {"type": "Polygon", "coordinates": [[[-79.439641, 37.619157], [-79.187701, 37.465803], [-79.187701, 37.465803], [-79.258902, 37.356264], [-79.445118, 37.055032], [-79.592995, 37.044078], [-79.784688, 37.230294], [-79.844934, 37.224817], [-79.844934, 37.306971], [-79.499887, 37.531526], [-79.439641, 37.619157]]]}}, {"type": "Feature", "properties": {"name": "Haywood", "id": "37087", "FIPS": "37087", "FIPS State": 37, "ST": "NC", "County": "Haywood County,NC", "State": "North Carolina"}, "geometry": {"type": "Polygon", "coordinates": [[[-82.961313, 35.789859], [-82.884636, 35.68032], [-82.747713, 35.422904], [-82.922975, 35.291457], [-83.185868, 35.516012], [-83.257068, 35.696751], [-83.257068, 35.713182], [-82.961313, 35.789859]]]}}, {"type": "Feature", "properties": {"name": "Calcasieu", "id": "22019", "FIPS": "22019", "FIPS State": 22, "ST": "LA", "County": "Calcasieu County,LA", "State": "Louisiana"}, "geometry": {"type": "Polygon", "coordinates": [[[-93.460608, 30.488181], [-93.131992, 30.40055], [-92.995068, 30.039072], [-93.372977, 30.050025], [-93.723501, 30.050025], [-93.70707, 30.247195], [-93.739932, 30.40055], [-93.460608, 30.488181]]]}}, {"type": "Feature", "properties": {"name": "Macon", "id": "37113", "FIPS": "37113", "FIPS State": 37, "ST": "NC", "County": "Macon County,NC", "State": "North Carolina"}, "geometry": {"type": "Polygon", "coordinates": [[[-83.339222, 35.329796], [-83.109191, 35.00118], [-83.481623, 34.995703], [-83.739039, 35.154534], [-83.7007, 35.247642], [-83.678792, 35.280503], [-83.339222, 35.329796]]]}}, {"type": "Feature", "properties": {"name": "Columbus", "id": "37047", "FIPS": "37047", "FIPS State": 37, "ST": "NC", "County": "Columbus County,NC", "State": "North Carolina"}, "geometry": {"type": "Polygon", "coordinates": [[[-78.870039, 34.48087], [-78.256622, 34.398716], [-78.163514, 34.354901], [-78.650961, 33.94413], [-79.072686, 34.300131], [-78.870039, 34.48087]]]}}, {"type": "Feature", "properties": {"name": "Madison", "id": "48313", "FIPS": "48313", "FIPS State": 48, "ST": "TX", "County": "Madison County,TX", "State": "Texas"}, "geometry": {"type": "Polygon", "coordinates": [[[-95.903323, 31.090644], [-95.7664, 31.096121], [-95.618522, 30.931813], [-95.864985, 30.86609], [-96.166217, 30.822274], [-96.237417, 30.964674], [-96.242894, 30.975628], [-95.903323, 31.090644]]]}}, {"type": "Feature", "properties": {"name": "Randolph", "id": "37151", "FIPS": "37151", "FIPS State": 37, "ST": "NC", "County": "Randolph County,NC", "State": "North Carolina"}, "geometry": {"type": "Polygon", "coordinates": [[[-80.036627, 35.921306], [-79.543702, 35.899398], [-79.543702, 35.844628], [-79.554656, 35.516012], [-79.768257, 35.510535], [-80.064012, 35.505058], [-80.047581, 35.921306], [-80.036627, 35.921306]]]}}, {"type": "Feature", "properties": {"name": "Mariposa", "id": "06043", "FIPS": "06043", "FIPS State": 6, "ST": "CA", "County": "Mariposa County,CA", "State": "California"}, "geometry": {"type": "Polygon", "coordinates": [[[-120.084015, 37.827281], [-119.30629, 37.777988], [-120.051153, 37.181002], [-120.385247, 37.635588], [-120.385247, 37.635588], [-120.084015, 37.827281]]]}}, {"type": "Feature", "properties": {"name": "Wyoming", "id": "42131", "FIPS": "42131", "FIPS State": 42, "ST": "PA", "County": "Wyoming County,PA", "State": "Pennsylvania"}, "geometry": {"type": "Polygon", "coordinates": [[[-76.2192, 41.540646], [-76.115138, 41.650185], [-75.720798, 41.644708], [-75.835814, 41.425631], [-75.835814, 41.425631], [-76.284923, 41.376338], [-76.2192, 41.540646]]]}}, {"type": "Feature", "properties": {"name": "Saline", "id": "20169", "FIPS": "20169", "FIPS State": 20, "ST": "KS", "County": "Saline County,KS", "State": "Kansas"}, "geometry": {"type": "Polygon", "coordinates": [[[-97.486159, 38.95553], [-97.371143, 38.95553], [-97.371143, 38.610483], [-97.924314, 38.610483], [-97.929791, 38.873376], [-97.929791, 38.95553], [-97.486159, 38.95553]]]}}, {"type": "Feature", "properties": {"name": "Mercer", "id": "39107", "FIPS": "39107", "FIPS State": 39, "ST": "OH", "County": "Mercer County,OH", "State": "Ohio"}, "geometry": {"type": "Polygon", "coordinates": [[[-84.774181, 40.730059], [-84.456518, 40.686244], [-84.43461, 40.35215], [-84.43461, 40.35215], [-84.456518, 40.35215], [-84.801565, 40.35215], [-84.801565, 40.571228], [-84.801565, 40.730059], [-84.774181, 40.730059]]]}}, {"type": "Feature", "properties": {"name": "Warrick", "id": "18173", "FIPS": "18173", "FIPS State": 18, "ST": "IN", "County": "Warrick County,IN", "State": "Indiana"}, "geometry": {"type": "Polygon", "coordinates": [[[-87.310004, 38.243528], [-87.074495, 38.232574], [-87.019726, 38.20519], [-87.266188, 37.876573], [-87.304527, 37.898481], [-87.452404, 37.942297], [-87.468835, 38.166851], [-87.315481, 38.243528], [-87.310004, 38.243528]]]}}, {"type": "Feature", "properties": {"name": "Maury", "id": "47119", "FIPS": "47119", "FIPS State": 47, "ST": "TN", "County": "Maury County,TN", "State": "Tennessee"}, "geometry": {"type": "Polygon", "coordinates": [[[-87.216896, 35.850105], [-86.784218, 35.707705], [-86.95948, 35.417427], [-87.129265, 35.455766], [-87.205942, 35.433858], [-87.293573, 35.444812], [-87.337389, 35.658412], [-87.216896, 35.850105]]]}}, {"type": "Feature", "properties": {"name": "Lyon", "id": "20111", "FIPS": "20111", "FIPS State": 20, "ST": "KS", "County": "Lyon County,KS", "State": "Kansas"}, "geometry": {"type": "Polygon", "coordinates": [[[-96.336002, 38.74193], [-95.947139, 38.736453], [-95.952616, 38.435221], [-95.958093, 38.172328], [-96.281232, 38.172328], [-96.357909, 38.172328], [-96.352432, 38.522852], [-96.352432, 38.74193], [-96.336002, 38.74193]]]}}, {"type": "Feature", "properties": {"name": "Neosho", "id": "20133", "FIPS": "20133", "FIPS State": 20, "ST": "KS", "County": "Neosho County,KS", "State": "Kansas"}, "geometry": {"type": "Polygon", "coordinates": [[[-95.399445, 37.734173], [-95.087259, 37.734173], [-95.087259, 37.673926], [-95.087259, 37.383649], [-95.125598, 37.383649], [-95.519938, 37.383649], [-95.525414, 37.383649], [-95.525414, 37.734173], [-95.399445, 37.734173]]]}}, {"type": "Feature", "properties": {"name": "Tioga", "id": "36107", "FIPS": "36107", "FIPS State": 36, "ST": "NY", "County": "Tioga County,NY", "State": "New York"}, "geometry": {"type": "Polygon", "coordinates": [[[-76.131569, 42.41148], [-76.104184, 42.000709], [-76.147999, 42.000709], [-76.55877, 42.000709], [-76.536862, 42.280033], [-76.252061, 42.406003], [-76.131569, 42.41148]]]}}, {"type": "Feature", "properties": {"name": "Shenandoah", "id": "51171", "FIPS": "51171", "FIPS State": 51, "ST": "VA", "County": "Shenandoah County,VA", "State": "Virginia"}, "geometry": {"type": "Polygon", "coordinates": [[[-78.338776, 39.103408], [-78.311391, 39.0103], [-78.388068, 38.829561], [-78.640007, 38.605006], [-78.870039, 38.763838], [-78.541422, 39.054115], [-78.338776, 39.103408]]]}}, {"type": "Feature", "properties": {"name": "Warren", "id": "51187", "FIPS": "51187", "FIPS State": 51, "ST": "VA", "County": "Warren County,VA", "State": "Virginia"}, "geometry": {"type": "Polygon", "coordinates": [[[-78.15256, 39.037685], [-78.004682, 38.977438], [-78.130652, 38.862422], [-78.256622, 38.758361], [-78.284006, 38.758361], [-78.388068, 38.829561], [-78.311391, 39.0103], [-78.15256, 39.037685]]]}}, {"type": "Feature", "properties": {"name": "Ontario", "id": "36069", "FIPS": "36069", "FIPS State": 36, "ST": "NY", "County": "Ontario County,NY", "State": "New York"}, "geometry": {"type": "Polygon", "coordinates": [[[-77.122895, 43.013943], [-76.964064, 43.013943], [-76.975017, 42.762004], [-77.36388, 42.575788], [-77.48985, 42.575788], [-77.582958, 42.942743], [-77.369357, 43.035851], [-77.122895, 43.013943]]]}}, {"type": "Feature", "properties": {"name": "Sequatchie", "id": "47153", "FIPS": "47153", "FIPS State": 47, "ST": "TN", "County": "Sequatchie County,TN", "State": "Tennessee"}, "geometry": {"type": "Polygon", "coordinates": [[[-85.425936, 35.565304], [-85.22329, 35.351704], [-85.387598, 35.149057], [-85.557383, 35.318842], [-85.590245, 35.521489], [-85.606675, 35.532443], [-85.557383, 35.532443], [-85.425936, 35.565304]]]}}, {"type": "Feature", "properties": {"name": "Clallam", "id": "53009", "FIPS": "53009", "FIPS State": 53, "ST": "WA", "County": "Clallam County,WA", "State": "Washington"}, "geometry": {"type": "Polygon", "coordinates": [[[-122.926547, 48.063682], [-122.948455, 47.866512], [-124.613445, 47.882943], [-124.597014, 48.381345], [-123.983597, 48.162267], [-122.926547, 48.063682]]]}}, {"type": "Feature", "properties": {"name": "Indiana", "id": "42063", "FIPS": "42063", "FIPS State": 42, "ST": "PA", "County": "Indiana County,PA", "State": "Pennsylvania"}, "geometry": {"type": "Polygon", "coordinates": [[[-79.215086, 40.910798], [-78.804316, 40.905321], [-78.804316, 40.724582], [-78.974101, 40.395966], [-79.450595, 40.527412], [-79.215086, 40.910798]]]}}, {"type": "Feature", "properties": {"name": "Christian", "id": "21047", "FIPS": "21047", "FIPS State": 21, "ST": "KY", "County": "Christian County,KY", "State": "Kentucky"}, "geometry": {"type": "Polygon", "coordinates": [[[-87.682436, 37.14814], [-87.331912, 37.159094], [-87.260711, 37.071463], [-87.260711, 37.071463], [-87.337389, 36.644262], [-87.63862, 36.638785], [-87.69339, 36.638785], [-87.731728, 37.000263], [-87.682436, 37.14814]]]}}, {"type": "Feature", "properties": {"name": "Weakley", "id": "47183", "FIPS": "47183", "FIPS State": 47, "ST": "TN", "County": "Weakley County,TN", "State": "Tennessee"}, "geometry": {"type": "Polygon", "coordinates": [[[-88.827116, 36.501861], [-88.816163, 36.501861], [-88.514931, 36.501861], [-88.531362, 36.151337], [-88.690193, 36.063706], [-88.958563, 36.222537], [-88.827116, 36.501861]]]}}]}