{"type": "FeatureCollection", "crs": {"type": "name", "properties": {"name": "urn:ogc:def:crs:OGC:1.3:CRS84"}}, "features": [{"type": "Feature", "properties": {"name": "Platte", "id": "56031", "FIPS": "56031", "FIPS State": 56, "ST": "WY", "County": "Platte County,WY", "State": "Wyoming"}, "geometry": {"type": "Polygon", "coordinates": [[[-104.655474, 42.60865], [-104.655474, 41.655662], [-105.279845, 41.655662], [-105.285322, 42.433388], [-104.890983, 42.60865], [-104.655474, 42.60865]]]}}, {"type": "Feature", "properties": {"name": "Juab", "id": "49023", "FIPS": "49023", "FIPS State": 49, "ST": "UT", "County": "Juab County,UT", "State": "Utah"}, "geometry": {"type": "Polygon", "coordinates": [[[-112.18079, 40.01258], [-111.64405, 39.81541], [-112.016482, 39.317009], [-112.23556, 39.552517], [-114.048427, 39.541563], [-114.048427, 39.908518], [-112.339621, 39.903041], [-112.18079, 40.01258]]]}}, {"type": "Feature", "properties": {"name": "Lawrence", "id": "05075", "FIPS": "05075", "FIPS State": 5, "ST": "AR", "County": "Lawrence County,AR", "State": "Arkansas"}, "geometry": {"type": "Polygon", "coordinates": [[[-91.242447, 36.255399], [-90.809769, 36.151337], [-90.853584, 35.970598], [-91.034323, 35.882967], [-91.198632, 35.888444], [-91.357463, 35.888444], [-91.258878, 36.255399], [-91.242447, 36.255399]]]}}, {"type": "Feature", "properties": {"name": "Camp", "id": "48063", "FIPS": "48063", "FIPS State": 48, "ST": "TX", "County": "Camp County,TX", "State": "Texas"}, "geometry": {"type": "Polygon", "coordinates": [[[-95.125598, 33.034958], [-94.818889, 32.980189], [-94.720304, 32.903511], [-94.780551, 32.903511], [-95.152983, 32.903511], [-95.152983, 33.01305], [-95.125598, 33.034958]]]}}, {"type": "Feature", "properties": {"name": "Wayne", "id": "29223", "FIPS": "29223", "FIPS State": 29, "ST": "MO", "County": "Wayne County,MO", "State": "Missouri"}, "geometry": {"type": "Polygon", "coordinates": [[[-90.552353, 37.317925], [-90.218259, 37.312448], [-90.10872, 37.038601], [-90.256598, 36.923586], [-90.568783, 36.929063], [-90.678322, 36.929063], [-90.776907, 37.049555], [-90.733092, 37.268633], [-90.552353, 37.317925]]]}}, {"type": "Feature", "properties": {"name": "Carbon", "id": "30009", "FIPS": "30009", "FIPS State": 30, "ST": "MT", "County": "Carbon County,MT", "State": "Montana"}, "geometry": {"type": "Polygon", "coordinates": [[[-108.806995, 45.626444], [-108.642687, 45.462136], [-108.248347, 45.002073], [-108.620779, 45.002073], [-109.798321, 45.002073], [-109.798321, 45.166381], [-108.845333, 45.610013], [-108.806995, 45.626444]]]}}, {"type": "Feature", "properties": {"name": "Barber", "id": "20007", "FIPS": "20007", "FIPS State": 20, "ST": "KS", "County": "Barber County,KS", "State": "Kansas"}, "geometry": {"type": "Polygon", "coordinates": [[[-98.482962, 37.47128], [-98.466531, 37.47128], [-98.351516, 37.383649], [-98.346039, 37.000263], [-98.543209, 37.000263], [-99.003272, 37.000263], [-99.014225, 37.383649], [-99.014225, 37.47128], [-98.482962, 37.47128]]]}}, {"type": "Feature", "properties": {"name": "Pike", "id": "05109", "FIPS": "05109", "FIPS State": 5, "ST": "AR", "County": "Pike County,AR", "State": "Arkansas"}, "geometry": {"type": "Polygon", "coordinates": [[[-93.750886, 34.349424], [-93.477039, 34.33847], [-93.372977, 33.955084], [-93.455131, 33.955084], [-93.811132, 34.009853], [-93.822086, 34.009853], [-93.937102, 34.349424], [-93.750886, 34.349424]]]}}, {"type": "Feature", "properties": {"name": "Norman", "id": "27107", "FIPS": "27107", "FIPS State": 27, "ST": "MN", "County": "Norman County,MN", "State": "Minnesota"}, "geometry": {"type": "Polygon", "coordinates": [[[-96.23194, 47.499557], [-96.067632, 47.499557], [-96.067632, 47.149033], [-96.193601, 47.149033], [-96.582464, 47.149033], [-96.828926, 47.149033], [-96.834403, 47.236664], [-96.850834, 47.499557], [-96.23194, 47.499557]]]}}, {"type": "Feature", "properties": {"name": "Adams", "id": "19003", "FIPS": "19003", "FIPS State": 19, "ST": "IA", "County": "Adams County,IA", "State": "Iowa"}, "geometry": {"type": "Polygon", "coordinates": [[[-94.813412, 41.157261], [-94.698396, 41.157261], [-94.468365, 41.157261], [-94.468365, 40.899844], [-94.857228, 40.899844], [-94.928428, 40.899844], [-94.928428, 41.157261], [-94.813412, 41.157261]]]}}, {"type": "Feature", "properties": {"name": "Audubon", "id": "19009", "FIPS": "19009", "FIPS State": 19, "ST": "IA", "County": "Audubon County,IA", "State": "Iowa"}, "geometry": {"type": "Polygon", "coordinates": [[[-95.092736, 41.863786], [-94.742212, 41.863786], [-94.698396, 41.502308], [-95.043444, 41.502308], [-95.092736, 41.863786]]]}}, {"type": "Feature", "properties": {"name": "Caldwell", "id": "22021", "FIPS": "22021", "FIPS State": 22, "ST": "LA", "County": "Caldwell County,LA", "State": "Louisiana"}, "geometry": {"type": "Polygon", "coordinates": [[[-92.16805, 32.27914], [-92.036603, 32.27914], [-91.894203, 32.153171], [-91.888726, 31.972432], [-92.003742, 31.928616], [-92.184481, 31.928616], [-92.31045, 31.928616], [-92.31045, 32.147694], [-92.31045, 32.27914], [-92.16805, 32.27914]]]}}, {"type": "Feature", "properties": {"name": "Idaho", "id": "16049", "FIPS": "16049", "FIPS State": 16, "ST": "ID", "County": "Idaho County,ID", "State": "Idaho"}, "geometry": {"type": "Polygon", "coordinates": [[[-114.333228, 46.661586], [-114.557782, 45.566198], [-114.694706, 45.199243], [-115.828432, 45.193766], [-116.146095, 45.106135], [-116.688312, 45.270443], [-116.463758, 45.61549], [-116.792374, 45.856475], [-116.699266, 45.998876], [-116.168003, 46.371308], [-114.596121, 46.634201], [-114.333228, 46.661586]]]}}, {"type": "Feature", "properties": {"name": "Bailey", "id": "48017", "FIPS": "48017", "FIPS State": 48, "ST": "TX", "County": "Bailey County,TX", "State": "Texas"}, "geometry": {"type": "Polygon", "coordinates": [[[-102.612575, 34.311085], [-102.618052, 33.823637], [-103.001438, 33.823637], [-103.045254, 33.823637], [-103.045254, 34.300131], [-103.045254, 34.311085], [-102.612575, 34.311085]]]}}, {"type": "Feature", "properties": {"name": "Putnam", "id": "17155", "FIPS": "17155", "FIPS State": 17, "ST": "IL", "County": "Putnam County,IL", "State": "Illinois"}, "geometry": {"type": "Polygon", "coordinates": [[[-89.16121, 41.310615], [-89.16121, 41.102491], [-89.467918, 41.146307], [-89.16121, 41.310615]]]}}, {"type": "Feature", "properties": {"name": "Hale", "id": "01065", "FIPS": "01065", "FIPS State": 1, "ST": "AL", "County": "Hale County,AL", "State": "Alabama"}, "geometry": {"type": "Polygon", "coordinates": [[[-87.644097, 33.007573], [-87.419543, 33.002096], [-87.419543, 32.876127], [-87.523605, 32.481787], [-87.813882, 32.525602], [-87.715298, 33.007573], [-87.644097, 33.007573]]]}}, {"type": "Feature", "properties": {"name": "Musselshell", "id": "30065", "FIPS": "30065", "FIPS State": 30, "ST": "MT", "County": "Musselshell County,MT", "State": "Montana"}, "geometry": {"type": "Polygon", "coordinates": [[[-107.837576, 46.754694], [-107.826623, 46.754694], [-107.782807, 46.497277], [-108.77961, 46.130322], [-109.009642, 46.749217], [-108.631733, 46.749217], [-107.837576, 46.754694]]]}}, {"type": "Feature", "properties": {"name": "Hyde", "id": "46069", "FIPS": "46069", "FIPS State": 46, "ST": "SD", "County": "Hyde County,SD", "State": "South Dakota"}, "geometry": {"type": "Polygon", "coordinates": [[[-99.572873, 44.898011], [-99.30998, 44.898011], [-99.299026, 44.196962], [-99.57835, 44.191485], [-99.665981, 44.21887], [-99.676935, 44.547487], [-99.676935, 44.898011], [-99.572873, 44.898011]]]}}, {"type": "Feature", "properties": {"name": "Wayne", "id": "54099", "FIPS": "54099", "FIPS State": 54, "ST": "WV", "County": "Wayne County,WV", "State": "West Virginia"}, "geometry": {"type": "Polygon", "coordinates": [[[-82.561497, 38.40236], [-82.506727, 38.413313], [-82.265742, 38.227097], [-82.30408, 37.942297], [-82.413619, 37.854665], [-82.495773, 37.947773], [-82.605312, 38.249005], [-82.594358, 38.424267], [-82.561497, 38.40236]]]}}, {"type": "Feature", "properties": {"name": "Washington", "id": "17189", "FIPS": "17189", "FIPS State": 17, "ST": "IL", "County": "Washington County,IL", "State": "Illinois"}, "geometry": {"type": "Polygon", "coordinates": [[[-89.320041, 38.511898], [-89.144779, 38.500944], [-89.144779, 38.47356], [-89.144779, 38.210667], [-89.593888, 38.22162], [-89.703427, 38.22162], [-89.703427, 38.41879], [-89.320041, 38.511898]]]}}, {"type": "Feature", "properties": {"name": "Custer", "id": "46033", "FIPS": "46033", "FIPS State": 46, "ST": "SD", "County": "Custer County,SD", "State": "South Dakota"}, "geometry": {"type": "Polygon", "coordinates": [[[-103.417686, 43.857392], [-102.809745, 43.687607], [-103.001438, 43.479483], [-103.937995, 43.479483], [-104.053011, 43.479483], [-104.053011, 43.501391], [-104.053011, 43.851915], [-103.417686, 43.857392]]]}}, {"type": "Feature", "properties": {"name": "Franklin", "id": "19069", "FIPS": "19069", "FIPS State": 19, "ST": "IA", "County": "Franklin County,IA", "State": "Iowa"}, "geometry": {"type": "Polygon", "coordinates": [[[-93.487993, 42.909881], [-93.022453, 42.909881], [-93.02793, 42.55388], [-93.263438, 42.559357], [-93.498947, 42.559357], [-93.498947, 42.909881], [-93.487993, 42.909881]]]}}, {"type": "Feature", "properties": {"name": "Lunenburg", "id": "51111", "FIPS": "51111", "FIPS State": 51, "ST": "VA", "County": "Lunenburg County,VA", "State": "Virginia"}, "geometry": {"type": "Polygon", "coordinates": [[[-78.399022, 37.087894], [-78.240191, 37.120755], [-78.004682, 37.022171], [-78.02659, 36.775708], [-78.475699, 36.885247], [-78.49213, 36.890724], [-78.442837, 37.07694], [-78.399022, 37.087894]]]}}, {"type": "Feature", "properties": {"name": "Wheeler", "id": "48483", "FIPS": "48483", "FIPS State": 48, "ST": "TX", "County": "Wheeler County,TX", "State": "Texas"}, "geometry": {"type": "Polygon", "coordinates": [[[-100.542292, 35.620074], [-100.000075, 35.620074], [-100.000075, 35.422904], [-100.000075, 35.181919], [-100.093183, 35.181919], [-100.536815, 35.181919], [-100.542292, 35.620074]]]}}, {"type": "Feature", "properties": {"name": "Greeley", "id": "31077", "FIPS": "31077", "FIPS State": 31, "ST": "NE", "County": "Greeley County,NE", "State": "Nebraska"}, "geometry": {"type": "Polygon", "coordinates": [[[-98.521301, 41.743293], [-98.296746, 41.743293], [-98.291269, 41.4804], [-98.291269, 41.392769], [-98.521301, 41.392769], [-98.745855, 41.392769], [-98.751332, 41.392769], [-98.751332, 41.737816], [-98.521301, 41.743293]]]}}, {"type": "Feature", "properties": {"name": "Conecuh", "id": "01035", "FIPS": "01035", "FIPS State": 1, "ST": "AL", "County": "Conecuh County,AL", "State": "Alabama"}, "geometry": {"type": "Polygon", "coordinates": [[[-86.910187, 31.753354], [-86.90471, 31.753354], [-86.702064, 31.523322], [-86.702064, 31.194706], [-86.948526, 31.260429], [-87.42502, 31.260429], [-86.910187, 31.753354]]]}}, {"type": "Feature", "properties": {"name": "Smith", "id": "20183", "FIPS": "20183", "FIPS State": 20, "ST": "KS", "County": "Smith County,KS", "State": "Kansas"}, "geometry": {"type": "Polygon", "coordinates": [[[-98.691086, 40.001626], [-98.50487, 40.001626], [-98.50487, 39.568948], [-98.849917, 39.568948], [-99.04161, 39.568948], [-99.063518, 39.568948], [-99.068995, 40.001626], [-98.723948, 40.001626], [-98.691086, 40.001626]]]}}, {"type": "Feature", "properties": {"name": "Union", "id": "22111", "FIPS": "22111", "FIPS State": 22, "ST": "LA", "County": "Union County,LA", "State": "Louisiana"}, "geometry": {"type": "Polygon", "coordinates": [[[-92.710267, 33.01305], [-92.069465, 33.007573], [-92.063988, 32.722772], [-92.414512, 32.580372], [-92.726698, 32.761111], [-92.726698, 33.01305], [-92.710267, 33.01305]]]}}, {"type": "Feature", "properties": {"name": "Bertie", "id": "37015", "FIPS": "37015", "FIPS State": 37, "ST": "NC", "County": "Bertie County,NC", "State": "North Carolina"}, "geometry": {"type": "Polygon", "coordinates": [[[-76.706647, 36.244445], [-76.668309, 36.01989], [-76.690217, 35.943213], [-76.761417, 35.866536], [-77.325542, 36.07466], [-77.29268, 36.167768], [-77.210526, 36.244445], [-76.706647, 36.244445]]]}}, {"type": "Feature", "properties": {"name": "Colfax", "id": "35007", "FIPS": "35007", "FIPS State": 35, "ST": "NM", "County": "Colfax County,NM", "State": "New Mexico"}, "geometry": {"type": "Polygon", "coordinates": [[[-104.009195, 36.994786], [-104.009195, 36.21706], [-104.436396, 36.21706], [-105.340092, 36.260876], [-105.219599, 36.994786], [-105.153876, 36.994786], [-104.009195, 36.994786]]]}}, {"type": "Feature", "properties": {"name": "Jasper", "id": "17079", "FIPS": "17079", "FIPS State": 17, "ST": "IL", "County": "Jasper County,IL", "State": "Illinois"}, "geometry": {"type": "Polygon", "coordinates": [[[-88.005575, 39.174608], [-87.950806, 39.174608], [-87.945329, 38.851469], [-88.257515, 38.845992], [-88.361576, 38.911715], [-88.361576, 39.169131], [-88.005575, 39.174608]]]}}, {"type": "Feature", "properties": {"name": "Hancock", "id": "17067", "FIPS": "17067", "FIPS State": 17, "ST": "IL", "County": "Hancock County,IL", "State": "Illinois"}, "geometry": {"type": "Polygon", "coordinates": [[[-91.187678, 40.636951], [-90.902877, 40.636951], [-90.908354, 40.286427], [-90.913831, 40.193319], [-91.204109, 40.198796], [-91.50534, 40.198796], [-91.499863, 40.248088], [-91.417709, 40.379535], [-91.187678, 40.636951]]]}}, {"type": "Feature", "properties": {"name": "Kearney", "id": "31099", "FIPS": "31099", "FIPS State": 31, "ST": "NE", "County": "Kearney County,NE", "State": "Nebraska"}, "geometry": {"type": "Polygon", "coordinates": [[[-98.953979, 40.653382], [-98.723948, 40.691721], [-98.723948, 40.35215], [-98.729425, 40.35215], [-99.11281, 40.35215], [-99.178534, 40.35215], [-99.178534, 40.658859], [-98.953979, 40.653382]]]}}, {"type": "Feature", "properties": {"name": "Renville", "id": "27129", "FIPS": "27129", "FIPS State": 27, "ST": "MN", "County": "Renville County,MN", "State": "Minnesota"}, "geometry": {"type": "Polygon", "coordinates": [[[-94.49575, 44.892534], [-94.49575, 44.717272], [-94.621719, 44.454379], [-94.780551, 44.454379], [-94.851751, 44.498194], [-94.868182, 44.498194], [-95.295383, 44.662502], [-95.361106, 44.700841], [-95.481599, 44.75561], [-95.246091, 44.892534], [-94.758643, 44.892534], [-94.501227, 44.892534], [-94.49575, 44.892534]]]}}, {"type": "Feature", "properties": {"name": "Yoakum", "id": "48501", "FIPS": "48501", "FIPS State": 48, "ST": "TX", "County": "Yoakum County,TX", "State": "Texas"}, "geometry": {"type": "Polygon", "coordinates": [[[-103.056207, 33.390959], [-102.596144, 33.390959], [-102.596144, 32.958281], [-103.067161, 32.958281], [-103.056207, 33.390959]]]}}, {"type": "Feature", "properties": {"name": "Clay", "id": "01027", "FIPS": "01027", "FIPS State": 1, "ST": "AL", "County": "Clay County,AL", "State": "Alabama"}, "geometry": {"type": "Polygon", "coordinates": [[[-85.875046, 33.500498], [-85.853138, 33.500498], [-85.645014, 33.495021], [-85.655968, 33.106158], [-86.006492, 33.089727], [-86.176277, 33.106158], [-85.875046, 33.500498]]]}}, {"type": "Feature", "properties": {"name": "Saguache", "id": "08109", "FIPS": "08109", "FIPS State": 8, "ST": "CO", "County": "Saguache County,CO", "State": "Colorado"}, "geometry": {"type": "Polygon", "coordinates": [[[-106.008278, 38.446175], [-105.794678, 38.265436], [-105.471538, 37.898481], [-105.455107, 37.750604], [-105.707047, 37.750604], [-106.04114, 37.750604], [-106.692896, 37.832758], [-106.999605, 37.958727], [-106.999605, 38.144943], [-106.999605, 38.424267], [-106.249264, 38.424267], [-106.008278, 38.446175]]]}}, {"type": "Feature", "properties": {"name": "Johnston", "id": "40069", "FIPS": "40069", "FIPS State": 40, "ST": "OK", "County": "Johnston County,OK", "State": "Oklahoma"}, "geometry": {"type": "Polygon", "coordinates": [[[-96.878219, 34.502778], [-96.828926, 34.508255], [-96.511264, 34.502778], [-96.407202, 34.420624], [-96.407202, 34.157731], [-96.412679, 34.157731], [-96.587941, 34.113915], [-96.932988, 34.174162], [-96.932988, 34.332993], [-96.878219, 34.502778]]]}}, {"type": "Feature", "properties": {"name": "Edgefield", "id": "45037", "FIPS": "45037", "FIPS State": 45, "ST": "SC", "County": "Edgefield County,SC", "State": "South Carolina"}, "geometry": {"type": "Polygon", "coordinates": [[[-82.008326, 33.960561], [-81.652325, 33.812683], [-82.013803, 33.53336], [-82.030233, 33.544313], [-82.117864, 33.599083], [-82.046664, 33.955084], [-82.008326, 33.960561]]]}}, {"type": "Feature", "properties": {"name": "Malheur", "id": "41045", "FIPS": "41045", "FIPS State": 41, "ST": "OR", "County": "Malheur County,OR", "State": "Oregon"}, "geometry": {"type": "Polygon", "coordinates": [[[-117.608438, 44.443425], [-117.219575, 44.301024], [-116.896436, 44.153147], [-116.97859, 43.8793], [-117.027882, 43.68213], [-117.027882, 42.000709], [-118.194471, 41.995232], [-118.227332, 44.038131], [-118.232809, 44.257209], [-117.608438, 44.443425]]]}}, {"type": "Feature", "properties": {"name": "Newton", "id": "05101", "FIPS": "05101", "FIPS State": 5, "ST": "AR", "County": "Newton County,AR", "State": "Arkansas"}, "geometry": {"type": "Polygon", "coordinates": [[[-93.301777, 36.123952], [-92.945776, 36.112998], [-92.951253, 35.724136], [-93.016976, 35.724136], [-93.164853, 35.729613], [-93.520854, 35.762474], [-93.477039, 36.123952], [-93.301777, 36.123952]]]}}, {"type": "Feature", "properties": {"name": "Nemaha", "id": "31127", "FIPS": "31127", "FIPS State": 31, "ST": "NE", "County": "Nemaha County,NE", "State": "Nebraska"}, "geometry": {"type": "Polygon", "coordinates": [[[-96.023816, 40.521935], [-95.71163, 40.521935], [-95.552799, 40.264519], [-95.552799, 40.264519], [-95.673292, 40.264519], [-96.012862, 40.259042], [-96.067632, 40.264519], [-96.067632, 40.521935], [-96.023816, 40.521935]]]}}, {"type": "Feature", "properties": {"name": "Traill", "id": "38097", "FIPS": "38097", "FIPS State": 38, "ST": "ND", "County": "Traill County,ND", "State": "North Dakota"}, "geometry": {"type": "Polygon", "coordinates": [[[-97.475205, 47.669343], [-96.889173, 47.67482], [-96.850834, 47.499557], [-96.834403, 47.236664], [-97.453297, 47.236664], [-97.475205, 47.669343]]]}}, {"type": "Feature", "properties": {"name": "Sumter", "id": "01119", "FIPS": "01119", "FIPS State": 1, "ST": "AL", "County": "Sumter County,AL", "State": "Alabama"}, "geometry": {"type": "Polygon", "coordinates": [[[-88.339669, 32.991142], [-88.169884, 32.996619], [-87.852221, 32.531079], [-87.928898, 32.312002], [-87.994621, 32.312002], [-88.421823, 32.306525], [-88.388961, 32.580372], [-88.345146, 32.930896], [-88.339669, 32.991142]]]}}, {"type": "Feature", "properties": {"name": "Grant", "id": "41023", "FIPS": "41023", "FIPS State": 41, "ST": "OR", "County": "Grant County,OR", "State": "Oregon"}, "geometry": {"type": "Polygon", "coordinates": [[[-118.676441, 44.996596], [-118.51761, 44.996596], [-118.243763, 44.958257], [-118.495702, 44.257209], [-118.232809, 44.257209], [-118.227332, 44.038131], [-118.468318, 44.038131], [-119.656814, 43.961454], [-119.656814, 44.306501], [-119.673245, 44.996596], [-119.163889, 44.996596], [-118.676441, 44.996596]]]}}, {"type": "Feature", "properties": {"name": "Zavala", "id": "48507", "FIPS": "48507", "FIPS State": 48, "ST": "TX", "County": "Zavala County,TX", "State": "Texas"}, "geometry": {"type": "Polygon", "coordinates": [[[-99.414042, 29.091561], [-99.408565, 28.642452], [-99.780997, 28.642452], [-100.115091, 28.647929], [-100.109614, 29.086084], [-99.414042, 29.091561]]]}}, {"type": "Feature", "properties": {"name": "Charles Mix", "id": "46023", "FIPS": "46023", "FIPS State": 46, "ST": "SD", "County": "Charles Mix County,SD", "State": "South Dakota"}, "geometry": {"type": "Polygon", "coordinates": [[[-99.299026, 43.501391], [-98.795148, 43.501391], [-98.707517, 43.501391], [-98.11053, 43.194682], [-98.077669, 43.167298], [-98.154346, 42.838681], [-98.3077, 42.882497], [-98.499393, 42.997512], [-99.299026, 43.501391], [-99.299026, 43.501391]]]}}, {"type": "Feature", "properties": {"name": "Divide", "id": "38023", "FIPS": "38023", "FIPS State": 38, "ST": "ND", "County": "Divide County,ND", "State": "North Dakota"}, "geometry": {"type": "Polygon", "coordinates": [[[-102.941192, 49.000239], [-102.886422, 48.633284], [-104.047534, 48.633284], [-104.047534, 49.000239], [-102.941192, 49.000239]]]}}, {"type": "Feature", "properties": {"name": "Pendleton", "id": "21191", "FIPS": "21191", "FIPS State": 21, "ST": "KY", "County": "Pendleton County,KY", "State": "Kentucky"}, "geometry": {"type": "Polygon", "coordinates": [[[-84.231963, 38.829561], [-84.204579, 38.583099], [-84.401749, 38.561191], [-84.478426, 38.54476], [-84.533195, 38.791222], [-84.418179, 38.807653], [-84.231963, 38.873376], [-84.231963, 38.829561]]]}}, {"type": "Feature", "properties": {"name": "Unicoi", "id": "47171", "FIPS": "47171", "FIPS State": 47, "ST": "TN", "County": "Unicoi County,TN", "State": "Tennessee"}, "geometry": {"type": "Polygon", "coordinates": [[[-82.320511, 36.260876], [-82.221926, 36.156814], [-82.419096, 36.07466], [-82.506727, 35.976075], [-82.605312, 36.041798], [-82.594358, 36.096568], [-82.342419, 36.255399], [-82.320511, 36.260876]]]}}, {"type": "Feature", "properties": {"name": "Sullivan", "id": "29211", "FIPS": "29211", "FIPS State": 29, "ST": "MO", "County": "Sullivan County,MO", "State": "Missouri"}, "geometry": {"type": "Polygon", "coordinates": [[[-93.186761, 40.385012], [-92.858145, 40.341196], [-92.858145, 40.039965], [-93.362023, 40.034488], [-93.3675, 40.264519], [-93.3675, 40.385012], [-93.186761, 40.385012]]]}}, {"type": "Feature", "properties": {"name": "Hawkins", "id": "47073", "FIPS": "47073", "FIPS State": 47, "ST": "TN", "County": "Hawkins County,TN", "State": "Tennessee"}, "geometry": {"type": "Polygon", "coordinates": [[[-82.654605, 36.594969], [-82.610789, 36.594969], [-82.681989, 36.430661], [-82.703897, 36.408753], [-83.081806, 36.244445], [-83.158483, 36.332076], [-83.257068, 36.288261], [-83.278976, 36.392322], [-82.829867, 36.594969], [-82.654605, 36.594969]]]}}, {"type": "Feature", "properties": {"name": "East Feliciana", "id": "22037", "FIPS": "22037", "FIPS State": 22, "ST": "LA", "County": "East Feliciana County,LA", "State": "Louisiana"}, "geometry": {"type": "Polygon", "coordinates": [[[-91.061708, 30.997536], [-90.8262, 30.997536], [-90.848107, 30.718212], [-90.864538, 30.718212], [-91.297217, 30.647012], [-91.302693, 30.652489], [-91.176724, 30.997536], [-91.061708, 30.997536]]]}}, {"type": "Feature", "properties": {"name": "Valley", "id": "31175", "FIPS": "31175", "FIPS State": 31, "ST": "NE", "County": "Valley County,NE", "State": "Nebraska"}, "geometry": {"type": "Polygon", "coordinates": [[[-99.074472, 41.737816], [-98.756809, 41.737816], [-98.751332, 41.737816], [-98.751332, 41.392769], [-98.822533, 41.392769], [-99.205918, 41.392769], [-99.211395, 41.743293], [-99.074472, 41.737816]]]}}, {"type": "Feature", "properties": {"name": "Madison", "id": "48313", "FIPS": "48313", "FIPS State": 48, "ST": "TX", "County": "Madison County,TX", "State": "Texas"}, "geometry": {"type": "Polygon", "coordinates": [[[-95.903323, 31.090644], [-95.7664, 31.096121], [-95.618522, 30.931813], [-95.864985, 30.86609], [-96.166217, 30.822274], [-96.237417, 30.964674], [-96.242894, 30.975628], [-95.903323, 31.090644]]]}}, {"type": "Feature", "properties": {"name": "Lee", "id": "45061", "FIPS": "45061", "FIPS State": 45, "ST": "SC", "County": "Lee County,SC", "State": "South Carolina"}, "geometry": {"type": "Polygon", "coordinates": [[[-80.244751, 34.322039], [-80.074966, 34.08653], [-79.998289, 34.048192], [-80.480259, 34.168685], [-80.288566, 34.365854], [-80.244751, 34.322039]]]}}, {"type": "Feature", "properties": {"name": "Foster", "id": "38031", "FIPS": "38031", "FIPS State": 38, "ST": "ND", "County": "Foster County,ND", "State": "North Dakota"}, "geometry": {"type": "Polygon", "coordinates": [[[-99.200441, 47.587189], [-98.499393, 47.587189], [-98.499393, 47.324295], [-99.266165, 47.329772], [-99.266165, 47.587189], [-99.200441, 47.587189]]]}}, {"type": "Feature", "properties": {"name": "Haywood", "id": "47075", "FIPS": "47075", "FIPS State": 47, "ST": "TN", "County": "Haywood County,TN", "State": "Tennessee"}, "geometry": {"type": "Polygon", "coordinates": [[[-89.341949, 35.789859], [-89.068102, 35.691274], [-89.079056, 35.433858], [-89.150256, 35.433858], [-89.183118, 35.395519], [-89.473395, 35.400996], [-89.50078, 35.581735], [-89.35838, 35.817244], [-89.341949, 35.789859]]]}}, {"type": "Feature", "properties": {"name": "Lawrence", "id": "29109", "FIPS": "29109", "FIPS State": 29, "ST": "MO", "County": "Lawrence County,MO", "State": "Missouri"}, "geometry": {"type": "Polygon", "coordinates": [[[-94.008302, 37.290541], [-93.624916, 37.279587], [-93.608485, 37.098848], [-93.608485, 36.994786], [-93.608485, 36.923586], [-94.008302, 36.929063], [-94.063071, 36.929063], [-94.057594, 37.049555], [-94.052118, 37.290541], [-94.008302, 37.290541]]]}}, {"type": "Feature", "properties": {"name": "Potter", "id": "42105", "FIPS": "42105", "FIPS State": 42, "ST": "PA", "County": "Potter County,PA", "State": "Pennsylvania"}, "geometry": {"type": "Polygon", "coordinates": [[[-78.207329, 42.000709], [-77.747266, 42.000709], [-77.610343, 42.000709], [-77.599389, 41.540646], [-77.599389, 41.4804], [-77.747266, 41.474923], [-77.988251, 41.474923], [-78.201852, 41.617324], [-78.207329, 42.000709]]]}}, {"type": "Feature", "properties": {"name": "Rockbridge", "id": "51163", "FIPS": "51163", "FIPS State": 51, "ST": "VA", "County": "Rockbridge County,VA", "State": "Virginia"}, "geometry": {"type": "Polygon", "coordinates": [[[-79.483456, 38.084697], [-79.15484, 37.893004], [-79.171271, 37.805373], [-79.439641, 37.619157], [-79.499887, 37.531526], [-79.675149, 37.761557], [-79.653241, 37.871096], [-79.483456, 38.084697]]]}}, {"type": "Feature", "properties": {"name": "Metcalfe", "id": "21169", "FIPS": "21169", "FIPS State": 21, "ST": "KY", "County": "Metcalfe County,KY", "State": "Kentucky"}, "geometry": {"type": "Polygon", "coordinates": [[[-85.68883, 37.181002], [-85.524521, 37.109802], [-85.453321, 36.940016], [-85.595722, 36.819524], [-85.738122, 36.841432], [-85.743599, 37.170048], [-85.68883, 37.181002]]]}}, {"type": "Feature", "properties": {"name": "Stafford", "id": "20185", "FIPS": "20185", "FIPS State": 20, "ST": "KS", "County": "Stafford County,KS", "State": "Kansas"}, "geometry": {"type": "Polygon", "coordinates": [[[-98.800625, 38.259959], [-98.477485, 38.259959], [-98.472008, 38.172328], [-98.472008, 37.827281], [-98.904687, 37.827281], [-99.014225, 37.827281], [-99.019702, 38.002543], [-98.910164, 38.259959], [-98.800625, 38.259959]]]}}, {"type": "Feature", "properties": {"name": "Giles", "id": "51071", "FIPS": "51071", "FIPS State": 51, "ST": "VA", "County": "Giles County,VA", "State": "Virginia"}, "geometry": {"type": "Polygon", "coordinates": [[[-80.474782, 37.421987], [-80.430967, 37.312448], [-80.606229, 37.246725], [-80.852691, 37.14814], [-80.978661, 37.290541], [-80.858168, 37.427464], [-80.858168, 37.427464], [-80.474782, 37.421987]]]}}, {"type": "Feature", "properties": {"name": "Wright", "id": "19197", "FIPS": "19197", "FIPS State": 19, "ST": "IA", "County": "Wright County,IA", "State": "Iowa"}, "geometry": {"type": "Polygon", "coordinates": [[[-93.526331, 42.909881], [-93.498947, 42.909881], [-93.498947, 42.559357], [-93.893286, 42.559357], [-93.969963, 42.559357], [-93.969963, 42.646988], [-93.969963, 42.909881], [-93.526331, 42.909881]]]}}, {"type": "Feature", "properties": {"name": "Torrance", "id": "35057", "FIPS": "35057", "FIPS State": 35, "ST": "NM", "County": "Torrance County,NM", "State": "New Mexico"}, "geometry": {"type": "Polygon", "coordinates": [[[-105.290799, 35.039518], [-105.312707, 34.349424], [-105.926124, 34.261793], [-106.419049, 34.442532], [-106.413572, 34.869733], [-106.243787, 35.039518], [-105.712524, 35.039518], [-105.290799, 35.039518]]]}}, {"type": "Feature", "properties": {"name": "Red Lake", "id": "27125", "FIPS": "27125", "FIPS State": 27, "ST": "MN", "County": "Red Lake County,MN", "State": "Minnesota"}, "geometry": {"type": "Polygon", "coordinates": [[[-95.8376, 47.965097], [-95.71163, 47.937713], [-96.352432, 47.762451], [-96.483879, 47.965097], [-95.8376, 47.965097]]]}}, {"type": "Feature", "properties": {"name": "Schley", "id": "13249", "FIPS": "13249", "FIPS State": 13, "ST": "GA", "County": "Schley County,GA", "State": "Georgia"}, "geometry": {"type": "Polygon", "coordinates": [[[-84.36341, 32.399633], [-84.253871, 32.372248], [-84.182671, 32.229848], [-84.429133, 32.164124], [-84.390795, 32.416064], [-84.36341, 32.399633]]]}}, {"type": "Feature", "properties": {"name": "Pawnee", "id": "40117", "FIPS": "40117", "FIPS State": 40, "ST": "OK", "County": "Pawnee County,OK", "State": "Oklahoma"}, "geometry": {"type": "Polygon", "coordinates": [[[-96.724864, 36.529246], [-96.270278, 36.162291], [-96.297663, 36.162291], [-96.620803, 36.162291], [-96.927511, 36.244445], [-97.009665, 36.507338], [-96.724864, 36.529246]]]}}, {"type": "Feature", "properties": {"name": "Jeff Davis", "id": "48243", "FIPS": "48243", "FIPS State": 48, "ST": "TX", "County": "Jeff Davis County,TX", "State": "Texas"}, "geometry": {"type": "Polygon", "coordinates": [[[-104.102303, 31.107075], [-103.587471, 30.767505], [-103.439593, 30.663443], [-103.801071, 30.411504], [-104.98409, 30.630581], [-104.918367, 30.663443], [-104.102303, 31.107075]]]}}, {"type": "Feature", "properties": {"name": "Cibola", "id": "35006", "FIPS": "35006", "FIPS State": 35, "ST": "NM", "County": "Cibola County,NM", "State": "New Mexico"}, "geometry": {"type": "Polygon", "coordinates": [[[-107.985454, 35.307888], [-107.31179, 35.307888], [-107.196774, 35.220257], [-107.065328, 34.957364], [-107.196774, 34.957364], [-107.202251, 34.579455], [-107.536345, 34.579455], [-107.722561, 34.579455], [-108.987734, 34.579455], [-109.04798, 34.579455], [-109.04798, 34.957364], [-108.467425, 34.957364], [-108.467425, 35.307888], [-107.985454, 35.307888]]]}}, {"type": "Feature", "properties": {"name": "Shelby", "id": "29205", "FIPS": "29205", "FIPS State": 29, "ST": "MO", "County": "Shelby County,MO", "State": "Missouri"}, "geometry": {"type": "Polygon", "coordinates": [[[-91.998265, 39.952334], [-91.954449, 39.946857], [-91.839434, 39.946857], [-91.844911, 39.656579], [-92.299497, 39.607286], [-92.288543, 39.952334], [-91.998265, 39.952334]]]}}, {"type": "Feature", "properties": {"name": "Carroll", "id": "21041", "FIPS": "21041", "FIPS State": 21, "ST": "KY", "County": "Carroll County,KY", "State": "Kentucky"}, "geometry": {"type": "Polygon", "coordinates": [[[-85.02612, 38.763838], [-84.933012, 38.659776], [-85.075412, 38.599529], [-85.16852, 38.583099], [-85.332828, 38.736453], [-85.201382, 38.692637], [-85.02612, 38.763838]]]}}, {"type": "Feature", "properties": {"name": "Thayer", "id": "31169", "FIPS": "31169", "FIPS State": 31, "ST": "NE", "County": "Thayer County,NE", "State": "Nebraska"}, "geometry": {"type": "Polygon", "coordinates": [[[-97.50259, 40.35215], [-97.365666, 40.35215], [-97.371143, 40.001626], [-97.820252, 40.001626], [-97.820252, 40.35215], [-97.50259, 40.35215]]]}}, {"type": "Feature", "properties": {"name": "Beaver", "id": "40007", "FIPS": "40007", "FIPS State": 40, "ST": "OK", "County": "Beaver County,OK", "State": "Oklahoma"}, "geometry": {"type": "Polygon", "coordinates": [[[-100.087706, 37.000263], [-100.000075, 37.000263], [-100.005552, 36.594969], [-100.005552, 36.501861], [-100.547769, 36.501861], [-100.805185, 36.501861], [-100.953062, 36.501861], [-100.947585, 37.000263], [-100.6354, 37.000263], [-100.087706, 37.000263]]]}}, {"type": "Feature", "properties": {"name": "Middlesex", "id": "51119", "FIPS": "51119", "FIPS State": 51, "ST": "VA", "County": "Middlesex County,VA", "State": "Virginia"}, "geometry": {"type": "Polygon", "coordinates": [[[-76.356123, 37.526049], [-76.356123, 37.526049], [-76.438277, 37.515095], [-76.62997, 37.591772], [-76.651878, 37.602726], [-76.750463, 37.728696], [-76.68474, 37.772511], [-76.356123, 37.526049]]]}}, {"type": "Feature", "properties": {"name": "Todd", "id": "27153", "FIPS": "27153", "FIPS State": 27, "ST": "MN", "County": "Todd County,MN", "State": "Minnesota"}, "geometry": {"type": "Polygon", "coordinates": [[[-95.152983, 46.371308], [-94.731258, 46.371308], [-94.654581, 46.3494], [-94.643627, 45.774321], [-95.142029, 45.774321], [-95.147506, 46.108415], [-95.152983, 46.371308]]]}}, {"type": "Feature", "properties": {"name": "Ritchie", "id": "54085", "FIPS": "54085", "FIPS State": 54, "ST": "WV", "County": "Ritchie County,WV", "State": "West Virginia"}, "geometry": {"type": "Polygon", "coordinates": [[[-81.016999, 39.34987], [-81.006046, 39.34987], [-80.89103, 39.295101], [-80.814353, 39.108885], [-81.03343, 39.0103], [-81.115584, 39.037685], [-81.164877, 39.032208], [-81.296323, 39.185562], [-81.241554, 39.267716], [-81.016999, 39.34987]]]}}, {"type": "Feature", "properties": {"name": "Lamar", "id": "13171", "FIPS": "13171", "FIPS State": 13, "ST": "GA", "County": "Lamar County,GA", "State": "Georgia"}, "geometry": {"type": "Polygon", "coordinates": [[[-84.040271, 33.204743], [-84.122425, 32.930896], [-84.270302, 32.991142], [-84.248394, 33.188312], [-84.122425, 33.204743], [-84.040271, 33.204743]]]}}, {"type": "Feature", "properties": {"name": "Garfield", "id": "49017", "FIPS": "49017", "FIPS State": 49, "ST": "UT", "County": "Garfield County,UT", "State": "Utah"}, "geometry": {"type": "Polygon", "coordinates": [[[-111.84122, 38.15042], [-109.929768, 38.15042], [-110.647247, 37.54248], [-112.684669, 37.54248], [-112.476545, 38.144943], [-112.443683, 38.15042], [-111.84122, 38.15042]]]}}, {"type": "Feature", "properties": {"name": "Clay", "id": "20027", "FIPS": "20027", "FIPS State": 20, "ST": "KS", "County": "Clay County,KS", "State": "Kansas"}, "geometry": {"type": "Polygon", "coordinates": [[[-97.299943, 39.568948], [-96.960373, 39.568948], [-96.960373, 39.218424], [-96.96585, 39.130793], [-97.261605, 39.130793], [-97.371143, 39.130793], [-97.371143, 39.306055], [-97.371143, 39.568948], [-97.299943, 39.568948]]]}}, {"type": "Feature", "properties": {"name": "Marion", "id": "20115", "FIPS": "20115", "FIPS State": 20, "ST": "KS", "County": "Marion County,KS", "State": "Kansas"}, "geometry": {"type": "Polygon", "coordinates": [[[-97.261605, 38.610483], [-96.932988, 38.610483], [-96.817972, 38.522852], [-96.83988, 38.084697], [-97.113727, 38.084697], [-97.152066, 38.090174], [-97.152066, 38.172328], [-97.371143, 38.172328], [-97.371143, 38.610483], [-97.261605, 38.610483]]]}}, {"type": "Feature", "properties": {"name": "Boyd", "id": "31015", "FIPS": "31015", "FIPS State": 31, "ST": "NE", "County": "Boyd County,NE", "State": "Nebraska"}, "geometry": {"type": "Polygon", "coordinates": [[[-98.499393, 42.997512], [-98.3077, 42.882497], [-98.3077, 42.762004], [-98.997795, 42.887974], [-99.255211, 42.80582], [-99.255211, 42.997512], [-98.499393, 42.997512]]]}}, {"type": "Feature", "properties": {"name": "Adams", "id": "38001", "FIPS": "38001", "FIPS State": 38, "ST": "ND", "County": "Adams County,ND", "State": "North Dakota"}, "geometry": {"type": "Polygon", "coordinates": [[[-102.49756, 46.283677], [-101.999158, 46.207], [-101.999158, 46.053645], [-101.999158, 45.944106], [-101.999158, 45.944106], [-102.623529, 45.944106], [-102.941192, 45.944106], [-102.995961, 45.944106], [-102.995961, 46.2782], [-102.924761, 46.283677], [-102.49756, 46.283677]]]}}, {"type": "Feature", "properties": {"name": "Wilkes", "id": "13317", "FIPS": "13317", "FIPS State": 13, "ST": "GA", "County": "Wilkes County,GA", "State": "Georgia"}, "geometry": {"type": "Polygon", "coordinates": [[[-82.731282, 33.982469], [-82.643651, 33.982469], [-82.479343, 33.637421], [-82.649128, 33.610037], [-82.681989, 33.599083], [-82.950359, 33.736006], [-82.780574, 33.971515], [-82.731282, 33.982469]]]}}, {"type": "Feature", "properties": {"name": "Marshall", "id": "40095", "FIPS": "40095", "FIPS State": 40, "ST": "OK", "County": "Marshall County,OK", "State": "Oklahoma"}, "geometry": {"type": "Polygon", "coordinates": [[[-96.932988, 34.174162], [-96.587941, 34.113915], [-96.587941, 33.894838], [-96.932988, 33.955084], [-96.971327, 34.0701], [-96.932988, 34.174162]]]}}, {"type": "Feature", "properties": {"name": "Cumberland", "id": "21057", "FIPS": "21057", "FIPS State": 21, "ST": "KY", "County": "Cumberland County,KY", "State": "Kentucky"}, "geometry": {"type": "Polygon", "coordinates": [[[-85.447844, 36.940016], [-85.234244, 36.923586], [-85.217813, 36.852385], [-85.29449, 36.627831], [-85.43689, 36.616877], [-85.595722, 36.819524], [-85.453321, 36.940016], [-85.447844, 36.940016]]]}}, {"type": "Feature", "properties": {"name": "Ida", "id": "19093", "FIPS": "19093", "FIPS State": 19, "ST": "IA", "County": "Ida County,IA", "State": "Iowa"}, "geometry": {"type": "Polygon", "coordinates": [[[-95.465168, 42.559357], [-95.388491, 42.559357], [-95.322768, 42.208833], [-95.64043, 42.208833], [-95.673292, 42.208833], [-95.739015, 42.559357], [-95.465168, 42.559357]]]}}, {"type": "Feature", "properties": {"name": "Johnson", "id": "05071", "FIPS": "05071", "FIPS State": 5, "ST": "AR", "County": "Johnson County,AR", "State": "Arkansas"}, "geometry": {"type": "Polygon", "coordinates": [[[-93.696116, 35.767951], [-93.520854, 35.762474], [-93.164853, 35.729613], [-93.2963, 35.329796], [-93.422269, 35.329796], [-93.712547, 35.373611], [-93.696116, 35.767951]]]}}, {"type": "Feature", "properties": {"name": "Newton", "id": "18111", "FIPS": "18111", "FIPS State": 18, "ST": "IN", "County": "Newton County,IN", "State": "Indiana"}, "geometry": {"type": "Polygon", "coordinates": [[[-87.277142, 41.21203], [-87.266188, 40.735536], [-87.326435, 40.735536], [-87.523605, 40.735536], [-87.523605, 41.009383], [-87.529082, 41.168214], [-87.277142, 41.217507], [-87.277142, 41.21203]]]}}, {"type": "Feature", "properties": {"name": "Stevens", "id": "53065", "FIPS": "53065", "FIPS State": 53, "ST": "WA", "County": "Stevens County,WA", "State": "Washington"}, "geometry": {"type": "Polygon", "coordinates": [[[-117.427699, 49.000239], [-117.438653, 48.047251], [-117.537238, 48.047251], [-117.822039, 47.822697], [-118.342348, 47.893897], [-118.139701, 48.266329], [-118.194471, 49.000239], [-117.427699, 49.000239]]]}}, {"type": "Feature", "properties": {"name": "Dixie", "id": "12029", "FIPS": "12029", "FIPS State": 12, "ST": "FL", "County": "Dixie County,FL", "State": "Florida"}, "geometry": {"type": "Polygon", "coordinates": [[[-82.939406, 29.825471], [-82.922975, 29.825471], [-82.939406, 29.589962], [-83.16396, 29.288731], [-83.410422, 29.66664], [-83.317314, 29.819994], [-82.939406, 29.825471]]]}}, {"type": "Feature", "properties": {"name": "Heard", "id": "13149", "FIPS": "13149", "FIPS State": 13, "ST": "GA", "County": "Heard County,GA", "State": "Georgia"}, "geometry": {"type": "Polygon", "coordinates": [[[-85.015166, 33.423821], [-84.938489, 33.226651], [-84.938489, 33.226651], [-85.234244, 33.128066], [-85.29449, 33.429298], [-85.015166, 33.423821]]]}}, {"type": "Feature", "properties": {"name": "Pierce", "id": "38069", "FIPS": "38069", "FIPS State": 38, "ST": "ND", "County": "Pierce County,ND", "State": "North Dakota"}, "geometry": {"type": "Polygon", "coordinates": [[[-99.616689, 48.545653], [-99.490719, 48.545653], [-99.490719, 48.370391], [-99.819336, 48.370391], [-99.813859, 47.850082], [-100.000075, 47.850082], [-100.071275, 47.844605], [-100.197245, 47.850082], [-100.279399, 48.545653], [-100.147952, 48.545653], [-99.616689, 48.545653]]]}}, {"type": "Feature", "properties": {"name": "Iron", "id": "26071", "FIPS": "26071", "FIPS State": 26, "ST": "MI", "County": "Iron County,MI", "State": "Michigan"}, "geometry": {"type": "Polygon", "coordinates": [[[-88.712101, 46.4206], [-88.679239, 46.4206], [-88.115114, 46.4206], [-88.115114, 46.245338], [-88.115114, 45.922199], [-88.493023, 45.993399], [-88.684716, 46.015307], [-88.931178, 46.075553], [-88.991425, 46.097461], [-88.991425, 46.332969], [-88.991425, 46.4206], [-88.712101, 46.4206]]]}}, {"type": "Feature", "properties": {"name": "Wilcox", "id": "01131", "FIPS": "01131", "FIPS State": 1, "ST": "AL", "County": "Wilcox County,AL", "State": "Alabama"}, "geometry": {"type": "Polygon", "coordinates": [[[-87.277142, 32.147694], [-86.90471, 32.049109], [-86.855418, 31.961478], [-86.90471, 31.830031], [-87.501697, 31.830031], [-87.666005, 31.988862], [-87.474312, 32.262709], [-87.277142, 32.147694]]]}}, {"type": "Feature", "properties": {"name": "Clark", "id": "17023", "FIPS": "17023", "FIPS State": 17, "ST": "IL", "County": "Clark County,IL", "State": "Illinois"}, "geometry": {"type": "Polygon", "coordinates": [[[-87.76459, 39.486794], [-87.529082, 39.47584], [-87.605759, 39.256762], [-87.644097, 39.158177], [-87.786498, 39.180085], [-87.950806, 39.174608], [-88.005575, 39.174608], [-88.011052, 39.377255], [-87.96176, 39.481317], [-87.76459, 39.486794]]]}}, {"type": "Feature", "properties": {"name": "Conway", "id": "05029", "FIPS": "05029", "FIPS State": 5, "ST": "AR", "County": "Conway County,AR", "State": "Arkansas"}, "geometry": {"type": "Polygon", "coordinates": [[[-92.852668, 35.461243], [-92.480236, 35.368135], [-92.556913, 35.110718], [-93.038884, 35.077857], [-92.896483, 35.170965], [-92.852668, 35.461243]]]}}, {"type": "Feature", "properties": {"name": "Stephens", "id": "48429", "FIPS": "48429", "FIPS State": 48, "ST": "TX", "County": "Stephens County,TX", "State": "Texas"}, "geometry": {"type": "Polygon", "coordinates": [[[-98.762286, 32.958281], [-98.57607, 32.952804], [-98.57607, 32.514649], [-98.740378, 32.514649], [-99.09638, 32.514649], [-99.09638, 32.958281], [-98.948502, 32.958281], [-98.762286, 32.958281]]]}}, {"type": "Feature", "properties": {"name": "Sabine", "id": "48403", "FIPS": "48403", "FIPS State": 48, "ST": "TX", "County": "Sabine County,TX", "State": "Texas"}, "geometry": {"type": "Polygon", "coordinates": [[[-93.843994, 31.589046], [-93.83304, 31.583569], [-93.603008, 31.178275], [-93.909717, 31.156367], [-93.997348, 31.139937], [-94.041164, 31.13446], [-93.986394, 31.567138], [-93.843994, 31.589046]]]}}, {"type": "Feature", "properties": {"name": "King William", "id": "51101", "FIPS": "51101", "FIPS State": 51, "ST": "VA", "County": "King William County,VA", "State": "Virginia"}, "geometry": {"type": "Polygon", "coordinates": [[[-77.177664, 37.893004], [-76.794278, 37.515095], [-77.122895, 37.624634], [-77.347449, 37.788942], [-77.183141, 37.893004], [-77.177664, 37.893004]]]}}, {"type": "Feature", "properties": {"name": "Toole", "id": "30101", "FIPS": "30101", "FIPS State": 30, "ST": "MT", "County": "Toole County,MT", "State": "Montana"}, "geometry": {"type": "Polygon", "coordinates": [[[-111.271618, 48.994762], [-111.408542, 48.217037], [-112.186267, 48.47993], [-112.191744, 49.000239], [-111.271618, 48.994762]]]}}, {"type": "Feature", "properties": {"name": "Wetzel", "id": "54103", "FIPS": "54103", "FIPS State": 54, "ST": "WV", "County": "Wetzel County,WV", "State": "West Virginia"}, "geometry": {"type": "Polygon", "coordinates": [[[-80.830783, 39.722302], [-80.518598, 39.722302], [-80.420013, 39.722302], [-80.398105, 39.634671], [-80.49669, 39.470363], [-80.545983, 39.426547], [-80.617183, 39.448455], [-80.945799, 39.607286], [-80.830783, 39.722302]]]}}, {"type": "Feature", "properties": {"name": "Burnett", "id": "55013", "FIPS": "55013", "FIPS State": 55, "ST": "WI", "County": "Burnett County,WI", "State": "Wisconsin"}, "geometry": {"type": "Polygon", "coordinates": [[[-92.29402, 46.157707], [-92.047557, 46.157707], [-92.031127, 45.637398], [-92.157096, 45.637398], [-92.529528, 45.730506], [-92.885529, 45.642875], [-92.841714, 45.730506], [-92.29402, 46.157707]]]}}, {"type": "Feature", "properties": {"name": "Linn", "id": "20107", "FIPS": "20107", "FIPS State": 20, "ST": "KS", "County": "Linn County,KS", "State": "Kansas"}, "geometry": {"type": "Polygon", "coordinates": [[[-95.010582, 38.391406], [-94.610765, 38.391406], [-94.616242, 38.062789], [-94.616242, 38.035405], [-94.933905, 38.035405], [-95.076305, 38.035405], [-95.065351, 38.391406], [-95.010582, 38.391406]]]}}, {"type": "Feature", "properties": {"name": "Fountain", "id": "18045", "FIPS": "18045", "FIPS State": 18, "ST": "IN", "County": "Fountain County,IN", "State": "Indiana"}, "geometry": {"type": "Polygon", "coordinates": [[[-87.255235, 40.297381], [-87.090926, 40.368581], [-87.090926, 40.215227], [-87.090926, 39.952334], [-87.205942, 39.952334], [-87.419543, 39.952334], [-87.408589, 40.127596], [-87.255235, 40.297381]]]}}, {"type": "Feature", "properties": {"name": "Vernon", "id": "29217", "FIPS": "29217", "FIPS State": 29, "ST": "MO", "County": "Vernon County,MO", "State": "Missouri"}, "geometry": {"type": "Polygon", "coordinates": [[[-94.501227, 38.057312], [-94.057594, 38.035405], [-94.063071, 37.898481], [-94.074025, 37.641065], [-94.490273, 37.652019], [-94.616242, 37.652019], [-94.616242, 37.673926], [-94.616242, 38.035405], [-94.616242, 38.062789], [-94.501227, 38.057312]]]}}, {"type": "Feature", "properties": {"name": "Gaines", "id": "48165", "FIPS": "48165", "FIPS State": 48, "ST": "TX", "County": "Gaines County,TX", "State": "Texas"}, "geometry": {"type": "Polygon", "coordinates": [[[-103.067161, 32.958281], [-102.596144, 32.958281], [-102.207282, 32.958281], [-102.201805, 32.525602], [-102.212759, 32.525602], [-102.995961, 32.525602], [-103.067161, 32.520126], [-103.067161, 32.958281]]]}}, {"type": "Feature", "properties": {"name": "Miner", "id": "46097", "FIPS": "46097", "FIPS State": 46, "ST": "SD", "County": "Miner County,SD", "State": "South Dakota"}, "geometry": {"type": "Polygon", "coordinates": [[[-97.727145, 44.196962], [-97.371143, 44.196962], [-97.371143, 43.846438], [-97.491636, 43.846438], [-97.606652, 43.846438], [-97.853114, 43.851915], [-97.847637, 44.196962], [-97.727145, 44.196962]]]}}, {"type": "Feature", "properties": {"name": "Pike", "id": "13231", "FIPS": "13231", "FIPS State": 13, "ST": "GA", "County": "Pike County,GA", "State": "Georgia"}, "geometry": {"type": "Polygon", "coordinates": [[[-84.494857, 33.182835], [-84.248394, 33.188312], [-84.270302, 32.991142], [-84.36341, 32.991142], [-84.527718, 32.969235], [-84.494857, 33.182835]]]}}, {"type": "Feature", "properties": {"name": "Webster", "id": "54101", "FIPS": "54101", "FIPS State": 54, "ST": "WV", "County": "Webster County,WV", "State": "West Virginia"}, "geometry": {"type": "Polygon", "coordinates": [[[-80.458352, 38.74193], [-80.392628, 38.725499], [-80.277612, 38.692637], [-80.244751, 38.385929], [-80.359767, 38.227097], [-80.414536, 38.254482], [-80.436444, 38.265436], [-80.650044, 38.528329], [-80.458352, 38.74193]]]}}, {"type": "Feature", "properties": {"name": "San Miguel", "id": "08113", "FIPS": "08113", "FIPS State": 8, "ST": "CO", "County": "San Miguel County,CO", "State": "Colorado"}, "geometry": {"type": "Polygon", "coordinates": [[[-109.042503, 38.15042], [-107.963546, 38.15042], [-107.738991, 37.903958], [-107.859484, 37.777988], [-109.042503, 37.88205], [-109.042503, 38.15042]]]}}, {"type": "Feature", "properties": {"name": "Bleckley", "id": "13023", "FIPS": "13023", "FIPS State": 13, "ST": "GA", "County": "Bleckley County,GA", "State": "Georgia"}, "geometry": {"type": "Polygon", "coordinates": [[[-83.224206, 32.585849], [-83.136575, 32.421541], [-83.344699, 32.273663], [-83.498053, 32.399633], [-83.498053, 32.454402], [-83.224206, 32.585849]]]}}, {"type": "Feature", "properties": {"name": "Mitchell", "id": "37121", "FIPS": "37121", "FIPS State": 37, "ST": "NC", "County": "Mitchell County,NC", "State": "North Carolina"}, "geometry": {"type": "Polygon", "coordinates": [[[-82.079526, 36.107521], [-81.980941, 35.910352], [-82.134295, 35.822721], [-82.419096, 36.07466], [-82.221926, 36.156814], [-82.079526, 36.107521]]]}}, {"type": "Feature", "properties": {"name": "Lake", "id": "46079", "FIPS": "46079", "FIPS State": 46, "ST": "SD", "County": "Lake County,SD", "State": "South Dakota"}, "geometry": {"type": "Polygon", "coordinates": [[[-97.217789, 44.196962], [-97.130158, 44.196962], [-96.889173, 44.196962], [-96.889173, 43.846438], [-97.130158, 43.846438], [-97.371143, 43.846438], [-97.371143, 44.196962], [-97.217789, 44.196962]]]}}, {"type": "Feature", "properties": {"name": "Sunflower", "id": "28133", "FIPS": "28133", "FIPS State": 28, "ST": "MS", "County": "Sunflower County,MS", "State": "Mississippi"}, "geometry": {"type": "Polygon", "coordinates": [[[-90.448291, 33.987946], [-90.453768, 33.812683], [-90.453768, 33.330713], [-90.716661, 33.270466], [-90.765953, 33.527883], [-90.656414, 33.987946], [-90.448291, 33.987946]]]}}, {"type": "Feature", "properties": {"name": "Dodge", "id": "13091", "FIPS": "13091", "FIPS State": 13, "ST": "GA", "County": "Dodge County,GA", "State": "Georgia"}, "geometry": {"type": "Polygon", "coordinates": [[[-83.136575, 32.421541], [-82.884636, 32.196986], [-82.928452, 32.13674], [-82.950359, 32.120309], [-83.207776, 31.901231], [-83.339222, 32.103878], [-83.344699, 32.273663], [-83.136575, 32.421541]]]}}, {"type": "Feature", "properties": {"name": "Nelson", "id": "38063", "FIPS": "38063", "FIPS State": 38, "ST": "ND", "County": "Nelson County,ND", "State": "North Dakota"}, "geometry": {"type": "Polygon", "coordinates": [[[-97.91336, 48.195129], [-97.902407, 48.195129], [-97.880499, 47.67482], [-97.979084, 47.67482], [-97.984561, 47.67482], [-98.11053, 47.67482], [-98.499393, 47.67482], [-98.526778, 47.844605], [-98.526778, 47.915805], [-98.291269, 48.195129], [-97.91336, 48.195129]]]}}, {"type": "Feature", "properties": {"name": "Rice", "id": "20159", "FIPS": "20159", "FIPS State": 20, "ST": "KS", "County": "Rice County,KS", "State": "Kansas"}, "geometry": {"type": "Polygon", "coordinates": [[[-98.017422, 38.522852], [-97.924314, 38.522852], [-97.924314, 38.172328], [-97.929791, 38.172328], [-98.472008, 38.172328], [-98.477485, 38.259959], [-98.482962, 38.522852], [-98.017422, 38.522852]]]}}, {"type": "Feature", "properties": {"name": "Montague", "id": "48337", "FIPS": "48337", "FIPS State": 48, "ST": "TX", "County": "Montague County,TX", "State": "Texas"}, "geometry": {"type": "Polygon", "coordinates": [[[-97.562836, 33.894838], [-97.486159, 33.916745], [-97.486159, 33.434775], [-97.50259, 33.434775], [-97.918837, 33.434775], [-97.979084, 33.467636], [-97.979084, 33.889361], [-97.562836, 33.894838]]]}}, {"type": "Feature", "properties": {"name": "Morris", "id": "48343", "FIPS": "48343", "FIPS State": 48, "ST": "TX", "County": "Morris County,TX", "State": "Texas"}, "geometry": {"type": "Polygon", "coordinates": [[[-94.807935, 33.363574], [-94.747689, 33.330713], [-94.654581, 33.270466], [-94.654581, 32.881604], [-94.703873, 32.881604], [-94.720304, 32.903511], [-94.818889, 32.980189], [-94.807935, 33.363574]]]}}, {"type": "Feature", "properties": {"name": "Stevens", "id": "20189", "FIPS": "20189", "FIPS State": 20, "ST": "KS", "County": "Stevens County,KS", "State": "Kansas"}, "geometry": {"type": "Polygon", "coordinates": [[[-101.528141, 37.389126], [-101.089986, 37.389126], [-101.068078, 37.389126], [-101.068078, 37.000263], [-101.555526, 36.994786], [-101.555526, 37.389126], [-101.528141, 37.389126]]]}}, {"type": "Feature", "properties": {"name": "Harper", "id": "20077", "FIPS": "20077", "FIPS State": 20, "ST": "KS", "County": "Harper County,KS", "State": "Kansas"}, "geometry": {"type": "Polygon", "coordinates": [[[-97.803822, 37.389126], [-97.803822, 37.000263], [-98.11053, 37.000263], [-98.346039, 37.000263], [-98.351516, 37.383649], [-97.809299, 37.383649], [-97.803822, 37.389126]]]}}, {"type": "Feature", "properties": {"name": "Montgomery", "id": "37123", "FIPS": "37123", "FIPS State": 37, "ST": "NC", "County": "Montgomery County,NC", "State": "North Carolina"}, "geometry": {"type": "Polygon", "coordinates": [[[-79.768257, 35.510535], [-79.614903, 35.165488], [-79.729918, 35.176442], [-80.074966, 35.14358], [-80.184505, 35.505058], [-80.064012, 35.505058], [-79.768257, 35.510535]]]}}, {"type": "Feature", "properties": {"name": "Clay", "id": "31035", "FIPS": "31035", "FIPS State": 31, "ST": "NE", "County": "Clay County,NE", "State": "Nebraska"}, "geometry": {"type": "Polygon", "coordinates": [[[-97.825729, 40.697198], [-97.825729, 40.35215], [-98.011945, 40.35215], [-98.274839, 40.35215], [-98.280315, 40.35215], [-98.280315, 40.697198], [-97.825729, 40.697198], [-97.825729, 40.697198]]]}}, {"type": "Feature", "properties": {"name": "Gregory", "id": "46053", "FIPS": "46053", "FIPS State": 46, "ST": "SD", "County": "Gregory County,SD", "State": "South Dakota"}, "geometry": {"type": "Polygon", "coordinates": [[[-99.534535, 43.501391], [-99.299026, 43.501391], [-98.499393, 42.997512], [-99.255211, 42.997512], [-99.534535, 42.997512], [-99.534535, 43.501391]]]}}, {"type": "Feature", "properties": {"name": "Marlboro", "id": "45069", "FIPS": "45069", "FIPS State": 45, "ST": "SC", "County": "Marlboro County,SC", "State": "South Carolina"}, "geometry": {"type": "Polygon", "coordinates": [[[-79.927088, 34.80401], [-79.686103, 34.80401], [-79.461548, 34.628748], [-79.450595, 34.623271], [-79.631334, 34.300131], [-79.658718, 34.305608], [-79.828503, 34.530163], [-79.927088, 34.80401]]]}}, {"type": "Feature", "properties": {"name": "Pocahontas", "id": "54075", "FIPS": "54075", "FIPS State": 54, "ST": "WV", "County": "Pocahontas County,WV", "State": "West Virginia"}, "geometry": {"type": "Polygon", "coordinates": [[[-79.625857, 38.665253], [-79.647764, 38.594052], [-79.795642, 38.265436], [-79.95995, 38.062789], [-80.359767, 38.227097], [-80.244751, 38.385929], [-79.625857, 38.665253]]]}}, {"type": "Feature", "properties": {"name": "Owsley", "id": "21189", "FIPS": "21189", "FIPS State": 21, "ST": "KY", "County": "Owsley County,KY", "State": "Kentucky"}, "geometry": {"type": "Polygon", "coordinates": [[[-83.651408, 37.537003], [-83.580208, 37.504141], [-83.547346, 37.334356], [-83.525438, 37.257679], [-83.574731, 37.279587], [-83.782854, 37.350787], [-83.886916, 37.520572], [-83.651408, 37.537003]]]}}, {"type": "Feature", "properties": {"name": "Craig", "id": "40035", "FIPS": "40035", "FIPS State": 40, "ST": "OK", "County": "Craig County,OK", "State": "Oklahoma"}, "geometry": {"type": "Polygon", "coordinates": [[[-95.152983, 37.000263], [-95.070828, 37.000263], [-95.005105, 37.000263], [-94.999628, 36.671646], [-95.005105, 36.507338], [-95.322768, 36.512815], [-95.328245, 36.512815], [-95.432306, 36.594969], [-95.410399, 37.000263], [-95.152983, 37.000263]]]}}, {"type": "Feature", "properties": {"name": "Major", "id": "40093", "FIPS": "40093", "FIPS State": 40, "ST": "OK", "County": "Major County,OK", "State": "Oklahoma"}, "geometry": {"type": "Polygon", "coordinates": [[[-98.959456, 36.501861], [-98.959456, 36.507338], [-98.532255, 36.463523], [-98.105053, 36.463523], [-98.105053, 36.162291], [-98.209115, 36.162291], [-98.488439, 36.162291], [-98.636317, 36.162291], [-98.953979, 36.162291], [-98.959456, 36.501861]]]}}, {"type": "Feature", "properties": {"name": "Jefferson", "id": "12065", "FIPS": "12065", "FIPS State": 12, "ST": "FL", "County": "Jefferson County,FL", "State": "Florida"}, "geometry": {"type": "Polygon", "coordinates": [[[-83.744516, 30.657966], [-83.613069, 30.652489], [-83.821193, 30.301965], [-83.990978, 30.082887], [-84.078609, 30.093841], [-84.073132, 30.27458], [-84.007409, 30.674397], [-83.744516, 30.657966]]]}}, {"type": "Feature", "properties": {"name": "Chambers", "id": "48071", "FIPS": "48071", "FIPS State": 48, "ST": "TX", "County": "Chambers County,TX", "State": "Texas"}, "geometry": {"type": "Polygon", "coordinates": [[[-94.44098, 29.891194], [-94.353349, 29.562578], [-94.36978, 29.557101], [-94.36978, 29.595439], [-94.512181, 29.54067], [-94.928428, 29.672117], [-94.97772, 29.885717], [-94.44098, 29.891194]]]}}, {"type": "Feature", "properties": {"name": "Caldwell", "id": "29025", "FIPS": "29025", "FIPS State": 29, "ST": "MO", "County": "Caldwell County,MO", "State": "Missouri"}, "geometry": {"type": "Polygon", "coordinates": [[[-93.871378, 39.788025], [-93.756363, 39.782548], [-93.756363, 39.612763], [-93.76184, 39.525132], [-94.10141, 39.525132], [-94.210949, 39.525132], [-94.205472, 39.74421], [-94.205472, 39.788025], [-93.871378, 39.788025]]]}}, {"type": "Feature", "properties": {"name": "Hamilton", "id": "48193", "FIPS": "48193", "FIPS State": 48, "ST": "TX", "County": "Hamilton County,TX", "State": "Texas"}, "geometry": {"type": "Polygon", "coordinates": [[[-98.006468, 32.016247], [-97.765483, 31.6712], [-98.181731, 31.463076], [-98.269362, 31.413784], [-98.461055, 31.682154], [-98.209115, 31.917662], [-98.006468, 32.016247]]]}}, {"type": "Feature", "properties": {"name": "Cedar", "id": "31027", "FIPS": "31027", "FIPS State": 31, "ST": "NE", "County": "Cedar County,NE", "State": "Nebraska"}, "geometry": {"type": "Polygon", "coordinates": [[[-97.486159, 42.849635], [-97.16302, 42.800343], [-97.015142, 42.762004], [-97.015142, 42.351234], [-97.365666, 42.351234], [-97.365666, 42.438865], [-97.486159, 42.438865], [-97.486159, 42.849635]]]}}, {"type": "Feature", "properties": {"name": "Lyman", "id": "46085", "FIPS": "46085", "FIPS State": 46, "ST": "SD", "County": "Lyman County,SD", "State": "South Dakota"}, "geometry": {"type": "Polygon", "coordinates": [[[-100.224629, 44.196962], [-99.939828, 44.196962], [-99.665981, 44.21887], [-99.57835, 44.191485], [-99.353796, 43.934069], [-99.299026, 43.501391], [-99.299026, 43.501391], [-99.534535, 43.501391], [-99.665981, 43.75333], [-100.230106, 43.714992], [-100.339645, 43.714992], [-100.36703, 44.169578], [-100.224629, 44.196962]]]}}, {"type": "Feature", "properties": {"name": "Karnes", "id": "48255", "FIPS": "48255", "FIPS State": 48, "ST": "TX", "County": "Karnes County,TX", "State": "Texas"}, "geometry": {"type": "Polygon", "coordinates": [[[-97.727145, 29.223007], [-97.612129, 29.107992], [-97.57379, 28.812237], [-97.776437, 28.669836], [-97.935268, 28.713652], [-98.006468, 28.691744], [-98.099576, 28.784852], [-98.192684, 28.883437], [-97.727145, 29.223007]]]}}, {"type": "Feature", "properties": {"name": "Mathews", "id": "51115", "FIPS": "51115", "FIPS State": 51, "ST": "VA", "County": "Mathews County,VA", "State": "Virginia"}, "geometry": {"type": "Polygon", "coordinates": [[[-76.356123, 37.526049], [-76.356123, 37.526049], [-76.405416, 37.400079], [-76.438277, 37.515095], [-76.356123, 37.526049]]]}}, {"type": "Feature", "properties": {"name": "Chase", "id": "20017", "FIPS": "20017", "FIPS State": 20, "ST": "KS", "County": "Chase County,KS", "State": "Kansas"}, "geometry": {"type": "Polygon", "coordinates": [[[-96.817972, 38.522852], [-96.352432, 38.522852], [-96.357909, 38.172328], [-96.522218, 38.084697], [-96.83988, 38.084697], [-96.817972, 38.522852]]]}}, {"type": "Feature", "properties": {"name": "Wilson", "id": "20205", "FIPS": "20205", "FIPS State": 20, "ST": "KS", "County": "Wilson County,KS", "State": "Kansas"}, "geometry": {"type": "Polygon", "coordinates": [[[-95.919754, 37.734173], [-95.525414, 37.734173], [-95.525414, 37.383649], [-95.96357, 37.389126], [-95.96357, 37.602726], [-95.96357, 37.734173], [-95.919754, 37.734173]]]}}, {"type": "Feature", "properties": {"name": "Covington", "id": "28031", "FIPS": "28031", "FIPS State": 28, "ST": "MS", "County": "Covington County,MS", "State": "Mississippi"}, "geometry": {"type": "Polygon", "coordinates": [[[-89.402195, 31.797169], [-89.396718, 31.435691], [-89.42958, 31.435691], [-89.451488, 31.435691], [-89.588411, 31.435691], [-89.752719, 31.775262], [-89.654134, 31.780739], [-89.402195, 31.797169]]]}}, {"type": "Feature", "properties": {"name": "Hancock", "id": "47067", "FIPS": "47067", "FIPS State": 47, "ST": "TN", "County": "Hancock County,TN", "State": "Tennessee"}, "geometry": {"type": "Polygon", "coordinates": [[[-82.983221, 36.594969], [-82.829867, 36.594969], [-83.278976, 36.392322], [-83.388515, 36.41423], [-83.470669, 36.594969], [-82.983221, 36.594969]]]}}, {"type": "Feature", "properties": {"name": "Taylor", "id": "13269", "FIPS": "13269", "FIPS State": 13, "ST": "GA", "County": "Taylor County,GA", "State": "Georgia"}, "geometry": {"type": "MultiPolygon", "coordinates": [[[[-84.286733, 32.750157], [-84.204579, 32.689911], [-84.001932, 32.531079], [-84.051224, 32.520126], [-84.253871, 32.372248], [-84.36341, 32.399633], [-84.390795, 32.416064], [-84.445564, 32.563941], [-84.286733, 32.750157]]], [[[-84.051224, 32.520126], [-84.007409, 32.520126], [-84.018363, 32.503695], [-84.051224, 32.520126], [-84.051224, 32.520126]]]]}}, {"type": "Feature", "properties": {"name": "Hancock", "id": "19081", "FIPS": "19081", "FIPS State": 19, "ST": "IA", "County": "Hancock County,IA", "State": "Iowa"}, "geometry": {"type": "Polygon", "coordinates": [[[-93.570147, 43.254929], [-93.498947, 43.254929], [-93.498947, 42.909881], [-93.526331, 42.909881], [-93.969963, 42.909881], [-93.969963, 43.254929], [-93.570147, 43.254929]]]}}, {"type": "Feature", "properties": {"name": "Zapata", "id": "48505", "FIPS": "48505", "FIPS State": 48, "ST": "TX", "County": "Zapata County,TX", "State": "Texas"}, "geometry": {"type": "Polygon", "coordinates": [[[-99.359273, 27.306078], [-98.953979, 27.26774], [-98.953979, 26.785769], [-99.16758, 26.572168], [-99.452381, 27.262263], [-99.359273, 27.306078]]]}}, {"type": "Feature", "properties": {"name": "Bosque", "id": "48035", "FIPS": "48035", "FIPS State": 48, "ST": "TX", "County": "Bosque County,TX", "State": "Texas"}, "geometry": {"type": "Polygon", "coordinates": [[[-97.62856, 32.20794], [-97.617606, 32.202463], [-97.475205, 32.175078], [-97.278035, 31.747877], [-97.606652, 31.589046], [-97.688806, 31.709538], [-97.765483, 31.6712], [-98.006468, 32.016247], [-97.864068, 32.087447], [-97.62856, 32.20794]]]}}, {"type": "Feature", "properties": {"name": "Jones", "id": "48253", "FIPS": "48253", "FIPS State": 48, "ST": "TX", "County": "Jones County,TX", "State": "Texas"}, "geometry": {"type": "Polygon", "coordinates": [[[-100.109614, 32.958281], [-99.989121, 32.958281], [-99.611212, 32.958281], [-99.611212, 32.514649], [-99.627643, 32.514649], [-100.136998, 32.520126], [-100.147952, 32.520126], [-100.142475, 32.958281], [-100.109614, 32.958281]]]}}, {"type": "Feature", "properties": {"name": "Reagan", "id": "48383", "FIPS": "48383", "FIPS State": 48, "ST": "TX", "County": "Reagan County,TX", "State": "Texas"}, "geometry": {"type": "Polygon", "coordinates": [[[-101.686972, 31.649292], [-101.265248, 31.649292], [-101.265248, 31.556184], [-101.265248, 31.528799], [-101.276202, 31.07969], [-101.774603, 31.07969], [-101.774603, 31.649292], [-101.686972, 31.649292]]]}}, {"type": "Feature", "properties": {"name": "Waseca", "id": "27161", "FIPS": "27161", "FIPS State": 27, "ST": "MN", "County": "Waseca County,MN", "State": "Minnesota"}, "geometry": {"type": "Polygon", "coordinates": [[[-93.679686, 44.196962], [-93.526331, 44.196962], [-93.405839, 44.196962], [-93.405839, 43.846438], [-93.646824, 43.846438], [-93.767317, 43.846438], [-93.767317, 44.196962], [-93.679686, 44.196962]]]}}, {"type": "Feature", "properties": {"name": "Cleburne", "id": "01029", "FIPS": "01029", "FIPS State": 1, "ST": "AL", "County": "Cleburne County,AL", "State": "Alabama"}, "geometry": {"type": "Polygon", "coordinates": [[[-85.398552, 33.966038], [-85.387598, 33.900315], [-85.338305, 33.653852], [-85.305444, 33.484067], [-85.645014, 33.495021], [-85.853138, 33.500498], [-85.798368, 33.555267], [-85.529998, 33.94413], [-85.398552, 33.966038]]]}}, {"type": "Feature", "properties": {"name": "Wayne", "id": "31179", "FIPS": "31179", "FIPS State": 31, "ST": "NE", "County": "Wayne County,NE", "State": "Nebraska"}, "geometry": {"type": "Polygon", "coordinates": [[[-97.365666, 42.351234], [-97.015142, 42.351234], [-96.823449, 42.263602], [-96.823449, 42.08834], [-96.89465, 42.08834], [-97.020619, 42.08834], [-97.36019, 42.08834], [-97.365666, 42.08834], [-97.365666, 42.351234]]]}}, {"type": "Feature", "properties": {"name": "Carroll", "id": "47017", "FIPS": "47017", "FIPS State": 47, "ST": "TN", "County": "Carroll County,TN", "State": "Tennessee"}, "geometry": {"type": "Polygon", "coordinates": [[[-88.531362, 36.151337], [-88.213699, 36.118475], [-88.175361, 35.844628], [-88.180837, 35.817244], [-88.514931, 35.822721], [-88.608039, 35.789859], [-88.706624, 35.789859], [-88.690193, 36.063706], [-88.531362, 36.151337]]]}}, {"type": "Feature", "properties": {"name": "Perry", "id": "05105", "FIPS": "05105", "FIPS State": 5, "ST": "AR", "County": "Perry County,AR", "State": "Arkansas"}, "geometry": {"type": "Polygon", "coordinates": [[[-93.038884, 35.077857], [-92.556913, 35.110718], [-92.545959, 34.951887], [-92.737652, 34.853302], [-92.967683, 34.858779], [-93.077222, 34.771148], [-93.285346, 34.771148], [-93.038884, 35.077857]]]}}, {"type": "Feature", "properties": {"name": "Chickasaw", "id": "19037", "FIPS": "19037", "FIPS State": 19, "ST": "IA", "County": "Chickasaw County,IA", "State": "Iowa"}, "geometry": {"type": "Polygon", "coordinates": [[[-92.255681, 43.211113], [-92.080419, 43.211113], [-92.080419, 43.085144], [-92.080419, 42.904404], [-92.387128, 42.909881], [-92.556913, 42.904404], [-92.556913, 43.211113], [-92.255681, 43.211113]]]}}, {"type": "Feature", "properties": {"name": "Grimes", "id": "48185", "FIPS": "48185", "FIPS State": 48, "ST": "TX", "County": "Grimes County,TX", "State": "Texas"}, "geometry": {"type": "Polygon", "coordinates": [[[-96.166217, 30.822274], [-95.864985, 30.86609], [-95.832123, 30.630581], [-95.804738, 30.247195], [-95.821169, 30.247195], [-96.095016, 30.225288], [-96.155263, 30.329349], [-96.166217, 30.822274]]]}}, {"type": "Feature", "properties": {"name": "Menard", "id": "17129", "FIPS": "17129", "FIPS State": 17, "ST": "IL", "County": "Menard County,IL", "State": "Illinois"}, "geometry": {"type": "Polygon", "coordinates": [[[-89.670565, 40.160457], [-89.599365, 40.122119], [-89.577457, 39.974241], [-89.993705, 39.903041], [-89.993705, 40.105688], [-89.670565, 40.160457]]]}}, {"type": "Feature", "properties": {"name": "Elbert", "id": "08039", "FIPS": "08039", "FIPS State": 8, "ST": "CO", "County": "Elbert County,CO", "State": "Colorado"}, "geometry": {"type": "Polygon", "coordinates": [[[-104.195411, 39.563471], [-103.71344, 39.568948], [-103.718917, 38.867899], [-104.053011, 38.867899], [-104.053011, 39.130793], [-104.660951, 39.130793], [-104.660951, 39.563471], [-104.195411, 39.563471]]]}}, {"type": "Feature", "properties": {"name": "Hamilton", "id": "17065", "FIPS": "17065", "FIPS State": 17, "ST": "IL", "County": "Hamilton County,IL", "State": "Illinois"}, "geometry": {"type": "Polygon", "coordinates": [[[-88.591608, 38.254482], [-88.37253, 38.254482], [-88.37253, 37.909435], [-88.37253, 37.909435], [-88.4273, 37.909435], [-88.706624, 37.909435], [-88.706624, 38.123036], [-88.701147, 38.254482], [-88.591608, 38.254482]]]}}, {"type": "Feature", "properties": {"name": "Custer", "id": "31041", "FIPS": "31041", "FIPS State": 31, "ST": "NE", "County": "Custer County,NE", "State": "Nebraska"}, "geometry": {"type": "Polygon", "coordinates": [[[-99.222349, 41.743293], [-99.211395, 41.743293], [-99.205918, 41.392769], [-99.205918, 41.047722], [-99.424996, 41.047722], [-99.994598, 41.047722], [-100.224629, 41.047722], [-100.252014, 41.392769], [-100.252014, 41.737816], [-99.687889, 41.737816], [-99.222349, 41.743293]]]}}, {"type": "Feature", "properties": {"name": "Colfax", "id": "31037", "FIPS": "31037", "FIPS State": 31, "ST": "NE", "County": "Colfax County,NE", "State": "Nebraska"}, "geometry": {"type": "Polygon", "coordinates": [[[-97.250651, 41.743293], [-97.020619, 41.743293], [-96.905603, 41.743293], [-96.905603, 41.453015], [-97.256128, 41.376338], [-97.250651, 41.743293], [-97.250651, 41.743293]]]}}, {"type": "Feature", "properties": {"name": "Lawrence", "id": "17101", "FIPS": "17101", "FIPS State": 17, "ST": "IL", "County": "Lawrence County,IL", "State": "Illinois"}, "geometry": {"type": "Polygon", "coordinates": [[[-87.534558, 38.851469], [-87.649574, 38.566668], [-87.912467, 38.572145], [-87.90699, 38.851469], [-87.534558, 38.851469]]]}}, {"type": "Feature", "properties": {"name": "Powell", "id": "21197", "FIPS": "21197", "FIPS State": 21, "ST": "KY", "County": "Powell County,KY", "State": "Kentucky"}, "geometry": {"type": "Polygon", "coordinates": [[[-83.990978, 37.914912], [-83.96907, 37.931343], [-83.766424, 37.920389], [-83.6295, 37.827281], [-83.706177, 37.717742], [-83.722608, 37.717742], [-84.001932, 37.838235], [-83.990978, 37.914912]]]}}, {"type": "Feature", "properties": {"name": "Bates", "id": "29013", "FIPS": "29013", "FIPS State": 29, "ST": "MO", "County": "Bates County,MO", "State": "Missouri"}, "geometry": {"type": "Polygon", "coordinates": [[[-94.610765, 38.479037], [-94.063071, 38.446175], [-94.052118, 38.216144], [-94.057594, 38.035405], [-94.501227, 38.057312], [-94.616242, 38.062789], [-94.610765, 38.391406], [-94.610765, 38.479037], [-94.610765, 38.479037]]]}}, {"type": "Feature", "properties": {"name": "De Soto", "id": "22031", "FIPS": "22031", "FIPS State": 22, "ST": "LA", "County": "De Soto County,LA", "State": "Louisiana"}, "geometry": {"type": "Polygon", "coordinates": [[[-93.750886, 32.339387], [-93.613962, 32.235325], [-93.356546, 31.934093], [-93.4387, 31.846462], [-93.619439, 31.846462], [-93.882332, 31.846462], [-94.013779, 31.977908], [-94.041164, 32.196986], [-93.750886, 32.339387]]]}}, {"type": "Feature", "properties": {"name": "Bayfield", "id": "55007", "FIPS": "55007", "FIPS State": 55, "ST": "WI", "County": "Bayfield County,WI", "State": "Wisconsin"}, "geometry": {"type": "Polygon", "coordinates": [[[-90.924785, 46.584908], [-90.924785, 46.15223], [-91.302693, 46.157707], [-91.549156, 46.157707], [-91.549156, 46.754694], [-90.870015, 46.962817], [-90.924785, 46.584908]]]}}, {"type": "Feature", "properties": {"name": "Merrick", "id": "31121", "FIPS": "31121", "FIPS State": 31, "ST": "NE", "County": "Merrick County,NE", "State": "Nebraska"}, "geometry": {"type": "Polygon", "coordinates": [[[-97.705237, 41.392769], [-97.601175, 41.332523], [-97.825729, 41.173691], [-98.280315, 40.87246], [-98.285792, 41.047722], [-98.285792, 41.392769], [-97.705237, 41.392769]]]}}, {"type": "Feature", "properties": {"name": "La Salle", "id": "22059", "FIPS": "22059", "FIPS State": 22, "ST": "LA", "County": "La Salle County,LA", "State": "Louisiana"}, "geometry": {"type": "Polygon", "coordinates": [[[-92.184481, 31.928616], [-92.003742, 31.928616], [-92.009219, 31.326153], [-92.085896, 31.337106], [-92.195435, 31.479507], [-92.36522, 31.797169], [-92.31045, 31.928616], [-92.184481, 31.928616]]]}}, {"type": "Feature", "properties": {"name": "Garfield", "id": "31071", "FIPS": "31071", "FIPS State": 31, "ST": "NE", "County": "Garfield County,NE", "State": "Nebraska"}, "geometry": {"type": "Polygon", "coordinates": [[[-98.762286, 42.08834], [-98.756809, 41.737816], [-99.074472, 41.737816], [-99.211395, 41.743293], [-99.222349, 41.743293], [-99.222349, 42.08834], [-98.762286, 42.08834]]]}}, {"type": "Feature", "properties": {"name": "Spencer", "id": "21215", "FIPS": "21215", "FIPS State": 21, "ST": "KY", "County": "Spencer County,KY", "State": "Kentucky"}, "geometry": {"type": "Polygon", "coordinates": [[[-85.425936, 38.144943], [-85.102797, 38.035405], [-85.16852, 37.969681], [-85.49166, 37.991589], [-85.431413, 38.117559], [-85.425936, 38.144943]]]}}, {"type": "Feature", "properties": {"name": "Hardin", "id": "47071", "FIPS": "47071", "FIPS State": 47, "ST": "TN", "County": "Hardin County,TN", "State": "Tennessee"}, "geometry": {"type": "Polygon", "coordinates": [[[-88.361576, 35.417427], [-88.241084, 35.422904], [-88.022006, 35.390042], [-87.983668, 35.006656], [-88.202745, 34.995703], [-88.252038, 34.995703], [-88.361576, 34.995703], [-88.378007, 34.995703], [-88.361576, 35.379088], [-88.361576, 35.417427]]]}}, {"type": "Feature", "properties": {"name": "Jefferson", "id": "40067", "FIPS": "40067", "FIPS State": 40, "ST": "OK", "County": "Jefferson County,OK", "State": "Oklahoma"}, "geometry": {"type": "Polygon", "coordinates": [[[-98.061238, 34.289177], [-97.562836, 34.289177], [-97.562836, 34.0701], [-97.562836, 33.894838], [-97.979084, 33.889361], [-98.137915, 34.1413], [-98.137915, 34.289177], [-98.061238, 34.289177]]]}}, {"type": "Feature", "properties": {"name": "West Carroll", "id": "22123", "FIPS": "22123", "FIPS State": 22, "ST": "LA", "County": "West Carroll County,LA", "State": "Louisiana"}, "geometry": {"type": "Polygon", "coordinates": [[[-91.30817, 33.007573], [-91.264355, 33.007573], [-91.445094, 32.580372], [-91.598448, 32.668003], [-91.636787, 32.668003], [-91.43414, 33.007573], [-91.30817, 33.007573]]]}}, {"type": "Feature", "properties": {"name": "Norton", "id": "20137", "FIPS": "20137", "FIPS State": 20, "ST": "KS", "County": "Norton County,KS", "State": "Kansas"}, "geometry": {"type": "Polygon", "coordinates": [[[-99.627643, 40.001626], [-99.627643, 39.568948], [-100.164383, 39.568948], [-100.180814, 39.568948], [-100.175337, 40.001626], [-99.627643, 40.001626], [-99.627643, 40.001626]]]}}, {"type": "Feature", "properties": {"name": "Gonzales", "id": "48177", "FIPS": "48177", "FIPS State": 48, "ST": "TX", "County": "Gonzales County,TX", "State": "Texas"}, "geometry": {"type": "Polygon", "coordinates": [[[-97.316374, 29.787132], [-97.141112, 29.628301], [-97.239697, 29.381839], [-97.612129, 29.107992], [-97.727145, 29.223007], [-97.84216, 29.376362], [-97.634037, 29.650209], [-97.316374, 29.787132]]]}}, {"type": "Feature", "properties": {"name": "Northwest Arctic", "id": "02188", "FIPS": "02188", "FIPS State": 2, "ST": "AK", "County": "Northwest Arctic County,AK", "State": "Alaska"}, "geometry": {"type": "Polygon", "coordinates": [[[-162.683657, 68.300977], [-161.993563, 68.2243], [-157.157424, 68.207869], [-155.300742, 67.999745], [-155.350034, 67.775191], [-154.687324, 67.599929], [-154.747571, 67.254881], [-154.145107, 67.161773], [-154.199877, 66.718141], [-155.514342, 66.570264], [-155.563635, 66.307371], [-157.891334, 66.477156], [-157.896811, 66.126632], [-158.964815, 66.121155], [-159.594663, 65.956846], [-159.594663, 65.524168], [-159.802787, 65.436537], [-163.757138, 65.436537], [-164.244585, 65.781584], [-164.403417, 66.581218], [-163.751661, 66.553833], [-163.768091, 66.060908], [-161.840208, 66.02257], [-160.991283, 66.23617], [-162.502918, 66.740049], [-161.884024, 66.718141], [-161.851162, 67.052235], [-162.902735, 67.008419], [-163.740707, 67.128912], [-164.009077, 67.534205], [-165.361881, 68.02713], [-164.496525, 68.021653], [-164.502001, 68.229777], [-162.683657, 68.300977]]]}}, {"type": "Feature", "properties": {"name": "Jefferson", "id": "13163", "FIPS": "13163", "FIPS State": 13, "ST": "GA", "County": "Jefferson County,GA", "State": "Georgia"}, "geometry": {"type": "Polygon", "coordinates": [[[-82.386235, 33.314282], [-82.353373, 33.314282], [-82.265742, 33.264989], [-82.315034, 32.837788], [-82.435527, 32.761111], [-82.523158, 32.821357], [-82.660082, 33.128066], [-82.43005, 33.275943], [-82.386235, 33.314282]]]}}, {"type": "Feature", "properties": {"name": "Saluda", "id": "45081", "FIPS": "45081", "FIPS State": 45, "ST": "SC", "County": "Saluda County,SC", "State": "South Carolina"}, "geometry": {"type": "Polygon", "coordinates": [[[-81.739956, 34.185115], [-81.471585, 34.075577], [-81.57017, 33.878407], [-81.652325, 33.812683], [-82.008326, 33.960561], [-81.871402, 34.135823], [-81.739956, 34.185115]]]}}, {"type": "Feature", "properties": {"name": "Wells", "id": "38103", "FIPS": "38103", "FIPS State": 38, "ST": "ND", "County": "Wells County,ND", "State": "North Dakota"}, "geometry": {"type": "Polygon", "coordinates": [[[-100.000075, 47.850082], [-99.813859, 47.850082], [-99.299026, 47.844605], [-99.266165, 47.587189], [-99.266165, 47.329772], [-99.479765, 47.329772], [-99.863151, 47.329772], [-100.032936, 47.329772], [-100.071275, 47.844605], [-100.000075, 47.850082]]]}}, {"type": "Feature", "properties": {"name": "Latimer", "id": "40077", "FIPS": "40077", "FIPS State": 40, "ST": "OK", "County": "Latimer County,OK", "State": "Oklahoma"}, "geometry": {"type": "Polygon", "coordinates": [[[-95.333722, 35.055949], [-94.928428, 35.055949], [-95.059875, 34.67804], [-95.311814, 34.683517], [-95.514461, 34.683517], [-95.350152, 35.055949], [-95.333722, 35.055949]]]}}, {"type": "Feature", "properties": {"name": "Wabash", "id": "17185", "FIPS": "17185", "FIPS State": 17, "ST": "IL", "County": "Wabash County,IL", "State": "Illinois"}, "geometry": {"type": "Polygon", "coordinates": [[[-87.912467, 38.572145], [-87.649574, 38.566668], [-87.742682, 38.413313], [-87.972714, 38.232574], [-87.989145, 38.259959], [-87.956283, 38.572145], [-87.912467, 38.572145]]]}}, {"type": "Feature", "properties": {"name": "Adams", "id": "55001", "FIPS": "55001", "FIPS State": 55, "ST": "WI", "County": "Adams County,WI", "State": "Wisconsin"}, "geometry": {"type": "Polygon", "coordinates": [[[-89.818443, 44.251732], [-89.725335, 44.246255], [-89.599365, 44.246255], [-89.599365, 43.983362], [-89.599365, 43.643791], [-89.785581, 43.638314], [-89.900597, 44.251732], [-89.818443, 44.251732]]]}}, {"type": "Feature", "properties": {"name": "Franklin", "id": "28037", "FIPS": "28037", "FIPS State": 28, "ST": "MS", "County": "Franklin County,MS", "State": "Mississippi"}, "geometry": {"type": "Polygon", "coordinates": [[[-91.154816, 31.610953], [-90.738569, 31.610953], [-90.634507, 31.34806], [-90.722138, 31.34806], [-91.09457, 31.320676], [-91.160293, 31.34806], [-91.154816, 31.610953]]]}}, {"type": "Feature", "properties": {"name": "Yellow Medicine", "id": "27173", "FIPS": "27173", "FIPS State": 27, "ST": "MN", "County": "Yellow Medicine County,MN", "State": "Minnesota"}, "geometry": {"type": "Polygon", "coordinates": [[[-95.733538, 44.930872], [-95.481599, 44.75561], [-95.361106, 44.700841], [-95.596615, 44.54201], [-95.936185, 44.629641], [-96.095016, 44.629641], [-96.44554, 44.629641], [-96.451017, 44.629641], [-96.451017, 44.804903], [-95.739015, 44.936349], [-95.733538, 44.930872]]]}}]}