{"type": "FeatureCollection", "crs": {"type": "name", "properties": {"name": "urn:ogc:def:crs:OGC:1.3:CRS84"}}, "features": [{"type": "Feature", "properties": {"name": "Emmet", "id": "19063", "FIPS": "19063", "FIPS State": 19, "ST": "IA", "County": "Emmet County,IA", "State": "Iowa"}, "geometry": {"type": "Polygon", "coordinates": [[[-94.676489, 43.501391], [-94.44098, 43.501391], [-94.44098, 43.254929], [-94.588858, 43.254929], [-94.911997, 43.254929], [-94.917474, 43.501391], [-94.851751, 43.501391], [-94.676489, 43.501391]]]}}, {"type": "Feature", "properties": {"name": "San Jacinto", "id": "48407", "FIPS": "48407", "FIPS State": 48, "ST": "TX", "County": "San Jacinto County,TX", "State": "Texas"}, "geometry": {"type": "Polygon", "coordinates": [[[-95.311814, 30.88252], [-95.202275, 30.822274], [-94.851751, 30.493658], [-95.163936, 30.34578], [-95.361106, 30.504611], [-95.328245, 30.860613], [-95.311814, 30.88252]]]}}, {"type": "Feature", "properties": {"name": "Osage", "id": "20139", "FIPS": "20139", "FIPS State": 20, "ST": "KS", "County": "Osage County,KS", "State": "Kansas"}, "geometry": {"type": "Polygon", "coordinates": [[[-95.667815, 38.867899], [-95.49803, 38.867899], [-95.503507, 38.736453], [-95.508984, 38.435221], [-95.656861, 38.435221], [-95.952616, 38.435221], [-95.947139, 38.736453], [-95.947139, 38.867899], [-95.667815, 38.867899]]]}}, {"type": "Feature", "properties": {"name": "Hancock", "id": "54029", "FIPS": "54029", "FIPS State": 54, "ST": "WV", "County": "Hancock County,WV", "State": "West Virginia"}, "geometry": {"type": "Polygon", "coordinates": [[[-80.518598, 40.636951], [-80.518598, 40.47812], [-80.518598, 40.401443], [-80.633614, 40.395966], [-80.666475, 40.582182], [-80.518598, 40.636951]]]}}, {"type": "Feature", "properties": {"name": "Carroll", "id": "19027", "FIPS": "19027", "FIPS State": 19, "ST": "IA", "County": "Carroll County,IA", "State": "Iowa"}, "geometry": {"type": "Polygon", "coordinates": [[[-95.092736, 42.208833], [-94.857228, 42.208833], [-94.627196, 42.208833], [-94.627196, 41.863786], [-94.742212, 41.863786], [-95.092736, 41.863786], [-95.092736, 42.208833]]]}}, {"type": "Feature", "properties": {"name": "Pontotoc", "id": "28115", "FIPS": "28115", "FIPS State": 28, "ST": "MS", "County": "Pontotoc County,MS", "State": "Mississippi"}, "geometry": {"type": "Polygon", "coordinates": [[[-89.09001, 34.382285], [-88.827116, 34.365854], [-88.827116, 34.075577], [-89.139302, 34.075577], [-89.243364, 34.163208], [-89.248841, 34.376808], [-89.09001, 34.382285]]]}}, {"type": "Feature", "properties": {"name": "Houston", "id": "47083", "FIPS": "47083", "FIPS State": 47, "ST": "TN", "County": "Houston County,TN", "State": "Tennessee"}, "geometry": {"type": "Polygon", "coordinates": [[[-87.753636, 36.34303], [-87.594805, 36.364938], [-87.512651, 36.332076], [-87.56742, 36.178722], [-87.879606, 36.233491], [-87.950806, 36.244445], [-87.983668, 36.353984], [-87.753636, 36.34303]]]}}, {"type": "Feature", "properties": {"name": "Wood", "id": "48499", "FIPS": "48499", "FIPS State": 48, "ST": "TX", "County": "Wood County,TX", "State": "Texas"}, "geometry": {"type": "Polygon", "coordinates": [[[-95.152983, 33.01305], [-95.152983, 32.903511], [-95.152983, 32.569418], [-95.574707, 32.67348], [-95.596615, 32.684434], [-95.634953, 32.722772], [-95.667815, 32.958281], [-95.306337, 32.963758], [-95.152983, 33.01305]]]}}, {"type": "Feature", "properties": {"name": "Gilchrist", "id": "12041", "FIPS": "12041", "FIPS State": 12, "ST": "FL", "County": "Gilchrist County,FL", "State": "Florida"}, "geometry": {"type": "Polygon", "coordinates": [[[-82.879159, 29.885717], [-82.802482, 29.93501], [-82.660082, 29.830948], [-82.654605, 29.562578], [-82.873682, 29.589962], [-82.939406, 29.589962], [-82.922975, 29.825471], [-82.917498, 29.825471], [-82.906544, 29.825471], [-82.879159, 29.885717]]]}}, {"type": "Feature", "properties": {"name": "Floyd", "id": "51063", "FIPS": "51063", "FIPS State": 51, "ST": "VA", "County": "Floyd County,VA", "State": "Virginia"}, "geometry": {"type": "Polygon", "coordinates": [[[-80.129735, 37.120755], [-80.233797, 36.874293], [-80.463828, 36.709985], [-80.633614, 36.929063], [-80.545983, 36.983832], [-80.179028, 37.115279], [-80.129735, 37.120755]]]}}, {"type": "Feature", "properties": {"name": "Brooke", "id": "54009", "FIPS": "54009", "FIPS State": 54, "ST": "WV", "County": "Brooke County,WV", "State": "West Virginia"}, "geometry": {"type": "Polygon", "coordinates": [[[-80.518598, 40.401443], [-80.518598, 40.160457], [-80.682906, 40.187842], [-80.633614, 40.395966], [-80.518598, 40.401443]]]}}, {"type": "Feature", "properties": {"name": "Pratt", "id": "20151", "FIPS": "20151", "FIPS State": 20, "ST": "KS", "County": "Pratt County,KS", "State": "Kansas"}, "geometry": {"type": "Polygon", "coordinates": [[[-98.904687, 37.827281], [-98.472008, 37.827281], [-98.466531, 37.734173], [-98.466531, 37.47128], [-98.482962, 37.47128], [-99.014225, 37.47128], [-99.014225, 37.734173], [-99.014225, 37.827281], [-98.904687, 37.827281]]]}}, {"type": "Feature", "properties": {"name": "Tazewell", "id": "51185", "FIPS": "51185", "FIPS State": 51, "ST": "VA", "County": "Tazewell County,VA", "State": "Virginia"}, "geometry": {"type": "Polygon", "coordinates": [[[-81.373001, 37.323402], [-81.362047, 37.339833], [-81.225123, 37.235771], [-81.438724, 37.011217], [-81.477062, 36.989309], [-81.778294, 36.956447], [-81.898787, 37.142663], [-81.739956, 37.241248], [-81.373001, 37.323402]]]}}, {"type": "Feature", "properties": {"name": "Obion", "id": "47131", "FIPS": "47131", "FIPS State": 47, "ST": "TN", "County": "Obion County,TN", "State": "Tennessee"}, "geometry": {"type": "Polygon", "coordinates": [[[-89.117394, 36.501861], [-88.832593, 36.501861], [-88.827116, 36.501861], [-88.958563, 36.222537], [-89.155733, 36.206106], [-89.265272, 36.206106], [-89.484349, 36.211583], [-89.347426, 36.501861], [-89.117394, 36.501861]]]}}, {"type": "Feature", "properties": {"name": "Oconee", "id": "13219", "FIPS": "13219", "FIPS State": 13, "ST": "GA", "County": "Oconee County,GA", "State": "Georgia"}, "geometry": {"type": "Polygon", "coordinates": [[[-83.530915, 33.960561], [-83.273499, 33.845545], [-83.278976, 33.763391], [-83.28993, 33.736006], [-83.404945, 33.697668], [-83.50353, 33.81816], [-83.645931, 33.905791], [-83.536392, 33.966038], [-83.530915, 33.960561]]]}}, {"type": "Feature", "properties": {"name": "Cass", "id": "26027", "FIPS": "26027", "FIPS State": 26, "ST": "MI", "County": "Cass County,MI", "State": "Michigan"}, "geometry": {"type": "Polygon", "coordinates": [[[-86.22557, 42.07191], [-85.765507, 42.07191], [-85.792891, 41.759724], [-85.990061, 41.759724], [-86.061262, 41.759724], [-86.22557, 41.759724], [-86.22557, 42.07191]]]}}, {"type": "Feature", "properties": {"name": "Elmore", "id": "16039", "FIPS": "16039", "FIPS State": 16, "ST": "ID", "County": "Elmore County,ID", "State": "Idaho"}, "geometry": {"type": "Polygon", "coordinates": [[[-114.990461, 43.9505], [-114.968553, 43.939546], [-114.990461, 43.857392], [-115.089045, 43.200159], [-115.039753, 42.909881], [-115.039753, 42.767481], [-116.266588, 43.112528], [-115.97631, 43.589022], [-115.1712, 44.087424], [-114.990461, 43.9505]]]}}, {"type": "Feature", "properties": {"name": "Austin", "id": "48015", "FIPS": "48015", "FIPS State": 48, "ST": "TX", "County": "Austin County,TX", "State": "Texas"}, "geometry": {"type": "Polygon", "coordinates": [[[-96.379817, 30.082887], [-96.144309, 30.071933], [-96.03477, 29.726886], [-96.089539, 29.600916], [-96.17717, 29.633778], [-96.57151, 29.962394], [-96.620803, 30.044549], [-96.379817, 30.082887]]]}}, {"type": "Feature", "properties": {"name": "Gunnison", "id": "08051", "FIPS": "08051", "FIPS State": 8, "ST": "CO", "County": "Gunnison County,CO", "State": "Colorado"}, "geometry": {"type": "Polygon", "coordinates": [[[-107.503483, 39.218424], [-107.393944, 39.256762], [-106.599788, 38.999346], [-106.249264, 38.424267], [-106.999605, 38.424267], [-106.999605, 38.144943], [-107.569206, 38.144943], [-107.63493, 38.303775], [-107.498006, 38.67073], [-107.503483, 39.218424]]]}}, {"type": "Feature", "properties": {"name": "Union", "id": "41061", "FIPS": "41061", "FIPS State": 41, "ST": "OR", "County": "Union County,OR", "State": "Oregon"}, "geometry": {"type": "Polygon", "coordinates": [[[-117.898716, 45.861952], [-117.268868, 45.07875], [-117.778223, 44.991119], [-118.243763, 44.958257], [-118.51761, 44.996596], [-118.698349, 45.34712], [-118.117793, 45.47309], [-117.975393, 45.861952], [-117.898716, 45.861952]]]}}, {"type": "Feature", "properties": {"name": "Clare", "id": "26035", "FIPS": "26035", "FIPS State": 26, "ST": "MI", "County": "Clare County,MI", "State": "Michigan"}, "geometry": {"type": "Polygon", "coordinates": [[[-85.086366, 44.164101], [-84.850858, 44.158624], [-84.609872, 44.158624], [-84.604395, 43.813577], [-84.752273, 43.813577], [-85.086366, 43.813577], [-85.086366, 44.164101]]]}}, {"type": "Feature", "properties": {"name": "Madison", "id": "39097", "FIPS": "39097", "FIPS State": 39, "ST": "OH", "County": "Madison County,OH", "State": "Ohio"}, "geometry": {"type": "Polygon", "coordinates": [[[-83.50353, 40.111165], [-83.207776, 40.105688], [-83.246114, 39.81541], [-83.246114, 39.809933], [-83.251591, 39.694917], [-83.651408, 39.716825], [-83.645931, 39.771595], [-83.514484, 40.01258], [-83.50353, 40.111165]]]}}, {"type": "Feature", "properties": {"name": "Coahoma", "id": "28027", "FIPS": "28027", "FIPS State": 28, "ST": "MS", "County": "Coahoma County,MS", "State": "Mississippi"}, "geometry": {"type": "Polygon", "coordinates": [[[-90.568783, 34.524686], [-90.398998, 34.426101], [-90.448291, 34.075577], [-90.448291, 33.987946], [-90.656414, 33.987946], [-90.738569, 34.119392], [-90.957646, 34.119392], [-90.568783, 34.524686]]]}}, {"type": "Feature", "properties": {"name": "Kay", "id": "40071", "FIPS": "40071", "FIPS State": 40, "ST": "OK", "County": "Kay County,OK", "State": "Oklahoma"}, "geometry": {"type": "Polygon", "coordinates": [[[-96.867265, 37.000263], [-96.752249, 37.000263], [-97.058958, 36.594969], [-97.464251, 36.594969], [-97.464251, 36.594969], [-97.464251, 37.000263], [-97.146589, 37.000263], [-96.867265, 37.000263]]]}}, {"type": "Feature", "properties": {"name": "Roosevelt", "id": "35041", "FIPS": "35041", "FIPS State": 35, "ST": "NM", "County": "Roosevelt County,NM", "State": "New Mexico"}, "geometry": {"type": "Polygon", "coordinates": [[[-103.740825, 34.60684], [-103.740825, 34.305608], [-103.045254, 34.300131], [-103.045254, 33.823637], [-103.050731, 33.571698], [-103.510794, 33.571698], [-103.877749, 34.081054], [-103.943472, 34.081054], [-103.948949, 34.60684], [-103.740825, 34.60684]]]}}, {"type": "Feature", "properties": {"name": "Bladen", "id": "37017", "FIPS": "37017", "FIPS State": 37, "ST": "NC", "County": "Bladen County,NC", "State": "North Carolina"}, "geometry": {"type": "Polygon", "coordinates": [[[-78.49213, 34.847825], [-78.256622, 34.55207], [-78.256622, 34.398716], [-78.870039, 34.48087], [-78.9029, 34.836871], [-78.49213, 34.858779], [-78.49213, 34.847825]]]}}, {"type": "Feature", "properties": {"name": "Smyth", "id": "51173", "FIPS": "51173", "FIPS State": 51, "ST": "VA", "County": "Smyth County,VA", "State": "Virginia"}, "geometry": {"type": "Polygon", "coordinates": [[[-81.477062, 36.989309], [-81.438724, 37.011217], [-81.378478, 36.95097], [-81.263462, 36.764754], [-81.608509, 36.638785], [-81.838541, 36.929063], [-81.778294, 36.956447], [-81.477062, 36.989309]]]}}, {"type": "Feature", "properties": {"name": "Poinsett", "id": "05111", "FIPS": "05111", "FIPS State": 5, "ST": "AR", "County": "Poinsett County,AR", "State": "Arkansas"}, "geometry": {"type": "Polygon", "coordinates": [[[-90.930262, 35.707705], [-90.289459, 35.702228], [-90.289459, 35.439335], [-90.50306, 35.439335], [-90.744046, 35.444812], [-91.0398, 35.444812], [-91.034323, 35.707705], [-90.930262, 35.707705]]]}}, {"type": "Feature", "properties": {"name": "Wise", "id": "48497", "FIPS": "48497", "FIPS State": 48, "ST": "TX", "County": "Wise County,TX", "State": "Texas"}, "geometry": {"type": "Polygon", "coordinates": [[[-97.50259, 33.434775], [-97.486159, 33.434775], [-97.382097, 33.429298], [-97.398528, 32.991142], [-97.535452, 32.996619], [-97.546405, 32.996619], [-97.924314, 33.002096], [-97.918837, 33.434775], [-97.50259, 33.434775]]]}}, {"type": "Feature", "properties": {"name": "Isanti", "id": "27059", "FIPS": "27059", "FIPS State": 27, "ST": "MN", "County": "Isanti County,MN", "State": "Minnesota"}, "geometry": {"type": "Polygon", "coordinates": [[[-93.498947, 45.735983], [-93.142945, 45.730506], [-93.016976, 45.412843], [-93.159376, 45.412843], [-93.5099, 45.412843], [-93.5099, 45.560721], [-93.515377, 45.735983], [-93.498947, 45.735983]]]}}, {"type": "Feature", "properties": {"name": "Washington", "id": "22117", "FIPS": "22117", "FIPS State": 22, "ST": "LA", "County": "Washington County,LA", "State": "Louisiana"}, "geometry": {"type": "Polygon", "coordinates": [[[-89.834873, 31.003013], [-89.730812, 31.003013], [-89.84035, 30.663443], [-90.256598, 30.712735], [-90.349706, 31.003013], [-90.262075, 31.003013], [-89.834873, 31.003013]]]}}, {"type": "Feature", "properties": {"name": "Ketchikan Gateway", "id": "02130", "FIPS": "02130", "FIPS State": 2, "ST": "AK", "County": "Ketchikan Gateway County,AK", "State": "Alaska"}, "geometry": {"type": "Polygon", "coordinates": [[[-131.706083, 55.89023], [-131.240543, 55.977861], [-131.032419, 55.28229], [-131.843006, 55.457552], [-131.706083, 55.89023]]]}}, {"type": "Feature", "properties": {"name": "Baker", "id": "12003", "FIPS": "12003", "FIPS State": 12, "ST": "FL", "County": "Baker County,FL", "State": "Florida"}, "geometry": {"type": "Polygon", "coordinates": [[[-82.419096, 30.581289], [-82.216449, 30.570335], [-82.052141, 30.362211], [-82.046664, 30.27458], [-82.052141, 30.186949], [-82.052141, 30.143133], [-82.145249, 30.143133], [-82.298603, 30.143133], [-82.457435, 30.137656], [-82.457435, 30.586766], [-82.419096, 30.581289]]]}}, {"type": "Feature", "properties": {"name": "Roberts", "id": "46109", "FIPS": "46109", "FIPS State": 46, "ST": "SD", "County": "Roberts County,SD", "State": "South Dakota"}, "geometry": {"type": "Polygon", "coordinates": [[[-96.735818, 45.933153], [-96.560556, 45.933153], [-96.834403, 45.588105], [-96.472925, 45.325212], [-96.681049, 45.325212], [-97.228743, 45.297827], [-97.228743, 45.560721], [-97.228743, 45.933153], [-96.735818, 45.933153]]]}}, {"type": "Feature", "properties": {"name": "Louisa", "id": "19115", "FIPS": "19115", "FIPS State": 19, "ST": "IA", "County": "Louisa County,IA", "State": "Iowa"}, "geometry": {"type": "Polygon", "coordinates": [[[-91.483432, 41.425631], [-91.368417, 41.425631], [-91.072662, 41.332523], [-91.072662, 41.332523], [-90.946692, 41.075106], [-91.324601, 41.075106], [-91.368417, 41.075106], [-91.483432, 41.162737], [-91.483432, 41.425631]]]}}, {"type": "Feature", "properties": {"name": "Ashe", "id": "37009", "FIPS": "37009", "FIPS State": 37, "ST": "NC", "County": "Ashe County,NC", "State": "North Carolina"}, "geometry": {"type": "Polygon", "coordinates": [[[-81.351093, 36.573061], [-81.252508, 36.364938], [-81.477062, 36.238968], [-81.734479, 36.392322], [-81.679709, 36.589492], [-81.351093, 36.573061]]]}}, {"type": "Feature", "properties": {"name": "Lafayette", "id": "29107", "FIPS": "29107", "FIPS State": 29, "ST": "MO", "County": "Lafayette County,MO", "State": "Missouri"}, "geometry": {"type": "Polygon", "coordinates": [[[-93.597531, 39.240331], [-93.477039, 39.295101], [-93.498947, 38.944577], [-93.498947, 38.928146], [-93.800178, 38.9391], [-94.112364, 38.917192], [-94.106887, 39.141746], [-93.756363, 39.20747], [-93.597531, 39.240331]]]}}, {"type": "Feature", "properties": {"name": "Langlade", "id": "55067", "FIPS": "55067", "FIPS State": 55, "ST": "WI", "County": "Langlade County,WI", "State": "Wisconsin"}, "geometry": {"type": "Polygon", "coordinates": [[[-89.237887, 45.467613], [-89.046194, 45.462136], [-88.679239, 45.379982], [-88.6409, 45.117088], [-88.974994, 45.117088], [-88.980471, 45.029457], [-88.991425, 45.029457], [-89.221456, 45.029457], [-89.424103, 45.117088], [-89.424103, 45.467613], [-89.237887, 45.467613]]]}}, {"type": "Feature", "properties": {"name": "Jackson", "id": "12063", "FIPS": "12063", "FIPS State": 12, "ST": "FL", "County": "Jackson County,FL", "State": "Florida"}, "geometry": {"type": "Polygon", "coordinates": [[[-85.486183, 30.997536], [-85.004212, 31.003013], [-84.867289, 30.712735], [-84.933012, 30.608673], [-85.16852, 30.608673], [-85.382121, 30.564858], [-85.43689, 30.570335], [-85.601199, 30.833228], [-85.497137, 30.997536], [-85.486183, 30.997536]]]}}, {"type": "Feature", "properties": {"name": "Hardy", "id": "54031", "FIPS": "54031", "FIPS State": 54, "ST": "WV", "County": "Hardy County,WV", "State": "West Virginia"}, "geometry": {"type": "Polygon", "coordinates": [[[-78.979578, 39.240331], [-78.508561, 39.086977], [-78.541422, 39.054115], [-78.870039, 38.763838], [-78.990532, 38.845992], [-79.056255, 38.763838], [-79.132932, 38.81313], [-78.979578, 39.240331]]]}}, {"type": "Feature", "properties": {"name": "Greene", "id": "51079", "FIPS": "51079", "FIPS State": 51, "ST": "VA", "County": "Greene County,VA", "State": "Virginia"}, "geometry": {"type": "Polygon", "coordinates": [[[-78.459268, 38.468083], [-78.453791, 38.47356], [-78.289483, 38.270913], [-78.371637, 38.183282], [-78.661915, 38.27639], [-78.486653, 38.41879], [-78.459268, 38.468083]]]}}, {"type": "Feature", "properties": {"name": "Tippah", "id": "28139", "FIPS": "28139", "FIPS State": 28, "ST": "MS", "County": "Tippah County,MS", "State": "Mississippi"}, "geometry": {"type": "Polygon", "coordinates": [[[-89.018809, 34.995703], [-88.821639, 34.995703], [-88.717578, 34.754717], [-88.734008, 34.595886], [-89.09001, 34.595886], [-89.018809, 34.995703]]]}}, {"type": "Feature", "properties": {"name": "Scott", "id": "51169", "FIPS": "51169", "FIPS State": 51, "ST": "VA", "County": "Scott County,VA", "State": "Virginia"}, "geometry": {"type": "Polygon", "coordinates": [[[-82.479343, 36.885247], [-82.408142, 36.874293], [-82.331465, 36.709985], [-82.293127, 36.594969], [-82.610789, 36.594969], [-82.654605, 36.594969], [-82.829867, 36.594969], [-82.983221, 36.594969], [-82.76962, 36.797616], [-82.479343, 36.885247]]]}}, {"type": "Feature", "properties": {"name": "Wasatch", "id": "49051", "FIPS": "49051", "FIPS State": 49, "ST": "UT", "County": "Wasatch County,UT", "State": "Utah"}, "geometry": {"type": "Polygon", "coordinates": [[[-111.430449, 40.686244], [-110.904663, 40.680767], [-110.893709, 39.897564], [-111.594758, 40.576705], [-111.550942, 40.609566], [-111.430449, 40.686244]]]}}, {"type": "Feature", "properties": {"name": "Logan", "id": "17107", "FIPS": "17107", "FIPS State": 17, "ST": "IL", "County": "Logan County,IL", "State": "Illinois"}, "geometry": {"type": "Polygon", "coordinates": [[[-89.265272, 40.324766], [-89.150256, 40.28095], [-89.144779, 40.050919], [-89.215979, 39.919472], [-89.489826, 39.974241], [-89.577457, 39.974241], [-89.599365, 40.122119], [-89.604842, 40.319289], [-89.265272, 40.324766]]]}}, {"type": "Feature", "properties": {"name": "Plaquemines", "id": "22075", "FIPS": "22075", "FIPS State": 22, "ST": "LA", "County": "Plaquemines County,LA", "State": "Louisiana"}, "geometry": {"type": "Polygon", "coordinates": [[[-89.988228, 29.907625], [-89.911551, 29.869286], [-89.484349, 29.622824], [-89.002379, 29.179192], [-89.16121, 29.009407], [-89.977274, 29.447562], [-90.010136, 29.896671], [-89.988228, 29.907625]]]}}, {"type": "Feature", "properties": {"name": "Richland", "id": "30083", "FIPS": "30083", "FIPS State": 30, "ST": "MT", "County": "Richland County,MT", "State": "Montana"}, "geometry": {"type": "Polygon", "coordinates": [[[-104.567843, 48.118452], [-104.042057, 47.997959], [-104.047534, 47.395496], [-104.419966, 47.357157], [-105.022429, 47.702204], [-105.23603, 47.789835], [-105.192214, 48.063682], [-104.567843, 48.118452]]]}}, {"type": "Feature", "properties": {"name": "Bonner", "id": "16017", "FIPS": "16017", "FIPS State": 16, "ST": "ID", "County": "Bonner County,ID", "State": "Idaho"}, "geometry": {"type": "Polygon", "coordinates": [[[-116.836189, 48.846885], [-116.786897, 48.501838], [-116.04751, 48.501838], [-116.04751, 48.217037], [-116.04751, 47.976051], [-116.310403, 48.030821], [-116.321357, 47.88842], [-116.567819, 47.992482], [-117.044313, 47.976051], [-117.044313, 48.047251], [-117.033359, 48.846885], [-116.836189, 48.846885]]]}}, {"type": "Feature", "properties": {"name": "Nodaway", "id": "29147", "FIPS": "29147", "FIPS State": 29, "ST": "MO", "County": "Nodaway County,MO", "State": "Missouri"}, "geometry": {"type": "Polygon", "coordinates": [[[-95.163936, 40.576705], [-94.917474, 40.576705], [-94.632673, 40.571228], [-94.599812, 40.385012], [-94.605288, 40.127596], [-95.043444, 40.127596], [-95.180367, 40.264519], [-95.202275, 40.576705], [-95.163936, 40.576705]]]}}, {"type": "Feature", "properties": {"name": "Gallia", "id": "39053", "FIPS": "39053", "FIPS State": 39, "ST": "OH", "County": "Gallia County,OH", "State": "Ohio"}, "geometry": {"type": "Polygon", "coordinates": [[[-82.435527, 39.037685], [-82.320511, 39.026731], [-82.101434, 38.95553], [-82.216449, 38.594052], [-82.265742, 38.599529], [-82.28765, 38.583099], [-82.577927, 38.845992], [-82.435527, 39.037685]]]}}, {"type": "Feature", "properties": {"name": "Okmulgee", "id": "40111", "FIPS": "40111", "FIPS State": 40, "ST": "OK", "County": "Okmulgee County,OK", "State": "Oklahoma"}, "geometry": {"type": "Polygon", "coordinates": [[[-96.138832, 35.855582], [-96.03477, 35.855582], [-95.821169, 35.855582], [-95.7664, 35.855582], [-95.71163, 35.554351], [-95.980001, 35.379088], [-96.193601, 35.636505], [-96.138832, 35.855582]]]}}, {"type": "Feature", "properties": {"name": "Mississippi", "id": "05093", "FIPS": "05093", "FIPS State": 5, "ST": "AR", "County": "Mississippi County,AR", "State": "Arkansas"}, "geometry": {"type": "Polygon", "coordinates": [[[-89.730812, 35.997983], [-89.643181, 35.904875], [-89.911551, 35.53792], [-90.141582, 35.439335], [-90.289459, 35.439335], [-90.289459, 35.702228], [-90.289459, 35.997983], [-89.960843, 35.997983], [-89.730812, 35.997983]]]}}, {"type": "Feature", "properties": {"name": "Marion", "id": "21155", "FIPS": "21155", "FIPS State": 21, "ST": "KY", "County": "Marion County,KY", "State": "Kentucky"}, "geometry": {"type": "Polygon", "coordinates": [[[-85.404029, 37.728696], [-85.031597, 37.630111], [-85.037074, 37.54248], [-85.075412, 37.411033], [-85.464275, 37.465803], [-85.519044, 37.553434], [-85.404029, 37.728696]]]}}, {"type": "Feature", "properties": {"name": "Wasco", "id": "41065", "FIPS": "41065", "FIPS State": 41, "ST": "OR", "County": "Wasco County,OR", "State": "Oregon"}, "geometry": {"type": "Polygon", "coordinates": [[[-121.442296, 45.697644], [-120.91651, 45.642875], [-121.026049, 45.22115], [-120.505739, 45.084227], [-120.494786, 45.067796], [-120.374293, 44.821334], [-120.998664, 44.821334], [-121.759959, 44.826811], [-121.732574, 44.887057], [-121.694236, 45.259489], [-121.442296, 45.697644]]]}}, {"type": "Feature", "properties": {"name": "Morton", "id": "38059", "FIPS": "38059", "FIPS State": 38, "ST": "ND", "County": "Morton County,ND", "State": "North Dakota"}, "geometry": {"type": "Polygon", "coordinates": [[[-100.936632, 46.984725], [-100.662785, 46.634201], [-100.591584, 46.426077], [-101.024263, 46.283677], [-101.29811, 46.628724], [-102.097743, 46.716355], [-102.097743, 46.979248], [-101.76365, 46.979248], [-100.936632, 46.984725]]]}}, {"type": "Feature", "properties": {"name": "Campbell", "id": "51031", "FIPS": "51031", "FIPS State": 51, "ST": "VA", "County": "Campbell County,VA", "State": "Virginia"}, "geometry": {"type": "Polygon", "coordinates": [[[-79.001485, 37.400079], [-78.826223, 37.20291], [-78.9029, 37.022171], [-78.974101, 37.049555], [-79.094593, 37.060509], [-79.302717, 37.109802], [-79.445118, 37.055032], [-79.258902, 37.356264], [-79.083639, 37.394602], [-79.017916, 37.427464], [-79.001485, 37.400079]]]}}, {"type": "Feature", "properties": {"name": "White", "id": "13311", "FIPS": "13311", "FIPS State": 13, "ST": "GA", "County": "White County,GA", "State": "Georgia"}, "geometry": {"type": "Polygon", "coordinates": [[[-83.782854, 34.793056], [-83.684269, 34.798533], [-83.667839, 34.502778], [-83.788331, 34.513732], [-83.843101, 34.502778], [-83.854055, 34.721856], [-83.782854, 34.793056]]]}}, {"type": "Feature", "properties": {"name": "Polk", "id": "47139", "FIPS": "47139", "FIPS State": 47, "ST": "TN", "County": "Polk County,TN", "State": "Tennessee"}, "geometry": {"type": "Polygon", "coordinates": [[[-84.686549, 35.253119], [-84.494857, 35.28598], [-84.29221, 35.209303], [-84.319594, 34.990226], [-84.620826, 34.990226], [-84.774181, 34.990226], [-84.70298, 35.242165], [-84.686549, 35.253119]]]}}, {"type": "Feature", "properties": {"name": "Hill", "id": "30041", "FIPS": "30041", "FIPS State": 30, "ST": "MT", "County": "Hill County,MT", "State": "Montana"}, "geometry": {"type": "Polygon", "coordinates": [[[-109.491612, 49.000239], [-109.535428, 48.134883], [-110.389831, 48.304668], [-110.756786, 48.217037], [-110.745832, 49.000239], [-109.491612, 49.000239]]]}}, {"type": "Feature", "properties": {"name": "Wayne", "id": "47181", "FIPS": "47181", "FIPS State": 47, "ST": "TN", "County": "Wayne County,TN", "State": "Tennessee"}, "geometry": {"type": "Polygon", "coordinates": [[[-87.956283, 35.461243], [-87.715298, 35.48315], [-87.572897, 35.400996], [-87.605759, 35.00118], [-87.983668, 35.006656], [-88.022006, 35.390042], [-88.005575, 35.422904], [-87.956283, 35.461243]]]}}, {"type": "Feature", "properties": {"name": "Silver Bow", "id": "30093", "FIPS": "30093", "FIPS State": 30, "ST": "MT", "County": "Silver Bow County,MT", "State": "Montana"}, "geometry": {"type": "Polygon", "coordinates": [[[-112.57513, 46.179615], [-112.191744, 45.746937], [-112.684669, 45.626444], [-113.084485, 45.861952], [-112.57513, 46.179615]]]}}, {"type": "Feature", "properties": {"name": "Knott", "id": "21119", "FIPS": "21119", "FIPS State": 21, "ST": "KY", "County": "Knott County,KY", "State": "Kentucky"}, "geometry": {"type": "Polygon", "coordinates": [[[-82.944882, 37.498664], [-82.922975, 37.48771], [-82.709374, 37.285064], [-82.731282, 37.27411], [-82.999652, 37.197433], [-83.125621, 37.405556], [-82.950359, 37.504141], [-82.944882, 37.498664]]]}}, {"type": "Feature", "properties": {"name": "Tattnall", "id": "13267", "FIPS": "13267", "FIPS State": 13, "ST": "GA", "County": "Tattnall County,GA", "State": "Georgia"}, "geometry": {"type": "Polygon", "coordinates": [[[-82.23288, 32.317479], [-82.024756, 32.27914], [-81.761863, 32.049109], [-81.82211, 32.016247], [-81.969987, 31.791692], [-82.046664, 31.824554], [-82.227403, 31.912185], [-82.23288, 32.317479]]]}}, {"type": "Feature", "properties": {"name": "Fluvanna", "id": "51065", "FIPS": "51065", "FIPS State": 51, "ST": "VA", "County": "Fluvanna County,VA", "State": "Virginia"}, "geometry": {"type": "Polygon", "coordinates": [[[-78.305914, 38.00802], [-78.064929, 37.903958], [-78.158037, 37.750604], [-78.163514, 37.750604], [-78.240191, 37.690357], [-78.49213, 37.794419], [-78.305914, 38.00802]]]}}, {"type": "Feature", "properties": {"name": "Audrain", "id": "29007", "FIPS": "29007", "FIPS State": 29, "ST": "MO", "County": "Audrain County,MO", "State": "Missouri"}, "geometry": {"type": "Polygon", "coordinates": [[[-92.31045, 39.34987], [-91.718941, 39.338916], [-91.439617, 39.317009], [-91.406755, 39.141746], [-91.625833, 39.147223], [-91.63131, 39.059592], [-92.107804, 39.065069], [-92.315927, 39.245808], [-92.31045, 39.34987]]]}}, {"type": "Feature", "properties": {"name": "Columbia", "id": "41009", "FIPS": "41009", "FIPS State": 41, "ST": "OR", "County": "Columbia County,OR", "State": "Oregon"}, "geometry": {"type": "Polygon", "coordinates": [[[-122.784147, 45.850998], [-122.762239, 45.730506], [-122.926547, 45.725029], [-123.134671, 45.779798], [-123.359225, 45.779798], [-123.364702, 46.146753], [-123.211348, 46.174138], [-122.784147, 45.850998]]]}}, {"type": "Feature", "properties": {"name": "Clinton", "id": "29049", "FIPS": "29049", "FIPS State": 29, "ST": "MO", "County": "Clinton County,MO", "State": "Missouri"}, "geometry": {"type": "Polygon", "coordinates": [[[-94.506704, 39.749687], [-94.205472, 39.74421], [-94.210949, 39.525132], [-94.210949, 39.453932], [-94.56695, 39.453932], [-94.599812, 39.453932], [-94.599812, 39.530609], [-94.599812, 39.749687], [-94.506704, 39.749687]]]}}, {"type": "Feature", "properties": {"name": "Henry", "id": "51089", "FIPS": "51089", "FIPS State": 51, "ST": "VA", "County": "Henry County,VA", "State": "Virginia"}, "geometry": {"type": "Polygon", "coordinates": [[[-79.647764, 36.852385], [-79.642287, 36.857862], [-79.713488, 36.5402], [-79.965427, 36.5402], [-80.025673, 36.5402], [-80.053058, 36.5402], [-80.042104, 36.792139], [-79.647764, 36.852385]]]}}, {"type": "Feature", "properties": {"name": "Cheatham", "id": "47021", "FIPS": "47021", "FIPS State": 47, "ST": "TN", "County": "Cheatham County,TN", "State": "Tennessee"}, "geometry": {"type": "Polygon", "coordinates": [[[-87.118311, 36.458046], [-86.915664, 36.381369], [-87.052588, 36.047275], [-87.184034, 36.047275], [-87.288096, 36.321122], [-87.118311, 36.458046]]]}}, {"type": "Feature", "properties": {"name": "Miami", "id": "20121", "FIPS": "20121", "FIPS State": 20, "ST": "KS", "County": "Miami County,KS", "State": "Kansas"}, "geometry": {"type": "Polygon", "coordinates": [[[-94.966767, 38.736453], [-94.610765, 38.736453], [-94.610765, 38.479037], [-94.610765, 38.391406], [-95.010582, 38.391406], [-95.065351, 38.391406], [-95.054398, 38.736453], [-94.966767, 38.736453]]]}}, {"type": "Feature", "properties": {"name": "Tallapoosa", "id": "01123", "FIPS": "01123", "FIPS State": 1, "ST": "AL", "County": "Tallapoosa County,AL", "State": "Alabama"}, "geometry": {"type": "Polygon", "coordinates": [[[-85.655968, 33.106158], [-85.595722, 33.106158], [-85.595722, 32.728249], [-85.694307, 32.596803], [-85.885999, 32.492741], [-86.006492, 32.755634], [-86.006492, 33.089727], [-85.655968, 33.106158]]]}}, {"type": "Feature", "properties": {"name": "Mariposa", "id": "06043", "FIPS": "06043", "FIPS State": 6, "ST": "CA", "County": "Mariposa County,CA", "State": "California"}, "geometry": {"type": "Polygon", "coordinates": [[[-120.084015, 37.827281], [-119.30629, 37.777988], [-120.051153, 37.181002], [-120.385247, 37.635588], [-120.385247, 37.635588], [-120.084015, 37.827281]]]}}, {"type": "Feature", "properties": {"name": "Lumpkin", "id": "13187", "FIPS": "13187", "FIPS State": 13, "ST": "GA", "County": "Lumpkin County,GA", "State": "Georgia"}, "geometry": {"type": "Polygon", "coordinates": [[[-83.854055, 34.721856], [-83.843101, 34.502778], [-83.980024, 34.420624], [-84.188148, 34.601363], [-84.155286, 34.650655], [-83.854055, 34.721856]]]}}, {"type": "Feature", "properties": {"name": "Stoddard", "id": "29207", "FIPS": "29207", "FIPS State": 29, "ST": "MO", "County": "Stoddard County,MO", "State": "Missouri"}, "geometry": {"type": "Polygon", "coordinates": [[[-89.867735, 37.126232], [-89.763673, 37.126232], [-89.692473, 36.857862], [-89.960843, 36.627831], [-90.048474, 36.627831], [-90.147059, 36.633308], [-90.256598, 36.923586], [-90.10872, 37.038601], [-89.867735, 37.126232], [-89.867735, 37.126232]]]}}, {"type": "Feature", "properties": {"name": "Buchanan", "id": "19019", "FIPS": "19019", "FIPS State": 19, "ST": "IA", "County": "Buchanan County,IA", "State": "Iowa"}, "geometry": {"type": "Polygon", "coordinates": [[[-91.905157, 42.641511], [-91.609402, 42.641511], [-91.598448, 42.296464], [-91.713464, 42.296464], [-91.82848, 42.296464], [-91.888726, 42.296464], [-92.063988, 42.296464], [-92.080419, 42.641511], [-91.905157, 42.641511]]]}}, {"type": "Feature", "properties": {"name": "Glenn", "id": "06021", "FIPS": "06021", "FIPS State": 6, "ST": "CA", "County": "Glenn County,CA", "State": "California"}, "geometry": {"type": "Polygon", "coordinates": [[[-122.937501, 39.798979], [-122.04476, 39.798979], [-121.891405, 39.382732], [-122.077621, 39.415593], [-122.740331, 39.382732], [-122.882732, 39.579902], [-122.937501, 39.798979]]]}}, {"type": "Feature", "properties": {"name": "Alamosa", "id": "08003", "FIPS": "08003", "FIPS State": 8, "ST": "CO", "County": "Alamosa County,CO", "State": "Colorado"}, "geometry": {"type": "Polygon", "coordinates": [[[-105.707047, 37.750604], [-105.455107, 37.750604], [-105.487969, 37.575342], [-105.745385, 37.356264], [-106.04114, 37.400079], [-106.04114, 37.750604], [-105.707047, 37.750604]]]}}, {"type": "Feature", "properties": {"name": "Sumner", "id": "20191", "FIPS": "20191", "FIPS State": 20, "ST": "KS", "County": "Sumner County,KS", "State": "Kansas"}, "geometry": {"type": "Polygon", "coordinates": [[[-97.349236, 37.476757], [-97.152066, 37.476757], [-97.146589, 37.000263], [-97.464251, 37.000263], [-97.650467, 37.000263], [-97.803822, 37.000263], [-97.803822, 37.389126], [-97.809299, 37.383649], [-97.809299, 37.476757], [-97.349236, 37.476757]]]}}, {"type": "Feature", "properties": {"name": "Dickinson", "id": "19059", "FIPS": "19059", "FIPS State": 19, "ST": "IA", "County": "Dickinson County,IA", "State": "Iowa"}, "geometry": {"type": "Polygon", "coordinates": [[[-95.092736, 43.501391], [-94.917474, 43.501391], [-94.911997, 43.254929], [-95.169413, 43.254929], [-95.388491, 43.254929], [-95.388491, 43.501391], [-95.092736, 43.501391]]]}}, {"type": "Feature", "properties": {"name": "Lake", "id": "30047", "FIPS": "30047", "FIPS State": 30, "ST": "MT", "County": "Lake County,MT", "State": "Montana"}, "geometry": {"type": "Polygon", "coordinates": [[[-114.010088, 48.052728], [-113.632179, 47.598142], [-113.91698, 47.499557], [-114.18535, 47.138079], [-114.601598, 47.789835], [-114.010088, 48.052728]]]}}, {"type": "Feature", "properties": {"name": "Chester", "id": "47023", "FIPS": "47023", "FIPS State": 47, "ST": "TN", "County": "Chester County,TN", "State": "Tennessee"}, "geometry": {"type": "Polygon", "coordinates": [[[-88.701147, 35.477673], [-88.613516, 35.587212], [-88.361576, 35.417427], [-88.361576, 35.379088], [-88.378007, 35.373611], [-88.783301, 35.247642], [-88.843547, 35.428381], [-88.701147, 35.477673]]]}}, {"type": "Feature", "properties": {"name": "Autauga", "id": "01001", "FIPS": "01001", "FIPS State": 1, "ST": "AL", "County": "Autauga County,AL", "State": "Alabama"}, "geometry": {"type": "Polygon", "coordinates": [[[-86.411786, 32.706342], [-86.411786, 32.410587], [-86.499417, 32.344863], [-86.817079, 32.339387], [-86.915664, 32.662526], [-86.411786, 32.706342]]]}}, {"type": "Feature", "properties": {"name": "Wyoming", "id": "36121", "FIPS": "36121", "FIPS State": 36, "ST": "NY", "County": "Wyoming County,NY", "State": "New York"}, "geometry": {"type": "Polygon", "coordinates": [[[-78.09779, 42.871543], [-77.95539, 42.860589], [-78.037544, 42.521019], [-78.22376, 42.521019], [-78.311391, 42.521019], [-78.464745, 42.537449], [-78.464745, 42.866066], [-78.09779, 42.871543]]]}}, {"type": "Feature", "properties": {"name": "White", "id": "47185", "FIPS": "47185", "FIPS State": 47, "ST": "TN", "County": "White County,TN", "State": "Tennessee"}, "geometry": {"type": "Polygon", "coordinates": [[[-85.508091, 36.080137], [-85.261628, 35.981552], [-85.267105, 35.795336], [-85.42046, 35.817244], [-85.601199, 35.795336], [-85.683353, 35.833674], [-85.645014, 36.014414], [-85.508091, 36.080137]]]}}, {"type": "Feature", "properties": {"name": "Highland", "id": "39071", "FIPS": "39071", "FIPS State": 39, "ST": "OH", "County": "Highland County,OH", "State": "Ohio"}, "geometry": {"type": "Polygon", "coordinates": [[[-83.591161, 39.377255], [-83.372084, 39.377255], [-83.355653, 39.196516], [-83.383038, 39.054115], [-83.673316, 39.021254], [-83.865008, 39.245808], [-83.591161, 39.377255]]]}}, {"type": "Feature", "properties": {"name": "Jennings", "id": "18079", "FIPS": "18079", "FIPS State": 18, "ST": "IN", "County": "Jennings County,IN", "State": "Indiana"}, "geometry": {"type": "Polygon", "coordinates": [[[-85.442367, 39.196516], [-85.442367, 38.911715], [-85.683353, 38.81313], [-85.792891, 38.807653], [-85.798368, 39.070546], [-85.68883, 39.130793], [-85.442367, 39.196516]]]}}, {"type": "Feature", "properties": {"name": "Webster", "id": "29225", "FIPS": "29225", "FIPS State": 29, "ST": "MO", "County": "Webster County,MO", "State": "Missouri"}, "geometry": {"type": "Polygon", "coordinates": [[[-93.071745, 37.48771], [-92.852668, 37.482234], [-92.688359, 37.482234], [-92.688359, 37.065986], [-92.90196, 37.071463], [-93.066268, 37.087894], [-93.071745, 37.41651], [-93.071745, 37.48771]]]}}, {"type": "Feature", "properties": {"name": "Mingo", "id": "54059", "FIPS": "54059", "FIPS State": 54, "ST": "WV", "County": "Mingo County,WV", "State": "West Virginia"}, "geometry": {"type": "Polygon", "coordinates": [[[-82.30408, 37.942297], [-82.189065, 37.975158], [-81.800202, 37.662973], [-81.854971, 37.547957], [-81.926172, 37.509618], [-81.969987, 37.537003], [-82.145249, 37.569865], [-82.331465, 37.73965], [-82.413619, 37.854665], [-82.30408, 37.942297]]]}}, {"type": "Feature", "properties": {"name": "Clay", "id": "46027", "FIPS": "46027", "FIPS State": 46, "ST": "SD", "County": "Clay County,SD", "State": "South Dakota"}, "geometry": {"type": "Polygon", "coordinates": [[[-96.807019, 43.085144], [-96.807019, 42.701758], [-97.015142, 42.762004], [-97.16302, 42.800343], [-97.157543, 43.085144], [-96.922034, 43.085144], [-96.807019, 43.085144]]]}}, {"type": "Feature", "properties": {"name": "Curry", "id": "41015", "FIPS": "41015", "FIPS State": 41, "ST": "OR", "County": "Curry County,OR", "State": "Oregon"}, "geometry": {"type": "Polygon", "coordinates": [[[-124.295782, 42.953697], [-123.813811, 42.789389], [-123.715227, 42.783912], [-124.027412, 42.35671], [-123.819288, 41.995232], [-124.213628, 42.000709], [-124.481998, 42.953697], [-124.295782, 42.953697]]]}}, {"type": "Feature", "properties": {"name": "Edgecombe", "id": "37065", "FIPS": "37065", "FIPS State": 37, "ST": "NC", "County": "Edgecombe County,NC", "State": "North Carolina"}, "geometry": {"type": "Polygon", "coordinates": [[[-77.697974, 36.151337], [-77.402219, 36.00346], [-77.352926, 35.817244], [-77.413173, 35.822721], [-77.659635, 35.674843], [-77.82942, 35.866536], [-77.82942, 35.866536], [-77.697974, 36.151337]]]}}, {"type": "Feature", "properties": {"name": "Miami", "id": "18103", "FIPS": "18103", "FIPS State": 18, "ST": "IN", "County": "Miami County,IN", "State": "Indiana"}, "geometry": {"type": "Polygon", "coordinates": [[[-85.946246, 40.998429], [-85.864092, 40.653382], [-85.864092, 40.565751], [-85.875046, 40.565751], [-86.165323, 40.560274], [-86.1708, 40.910798], [-85.946246, 40.998429]]]}}, {"type": "Feature", "properties": {"name": "Randolph", "id": "54083", "FIPS": "54083", "FIPS State": 54, "ST": "WV", "County": "Randolph County,WV", "State": "West Virginia"}, "geometry": {"type": "Polygon", "coordinates": [[[-79.757303, 39.032208], [-79.357487, 38.966484], [-79.35201, 38.95553], [-79.625857, 38.665253], [-80.244751, 38.385929], [-80.277612, 38.692637], [-80.08592, 38.944577], [-79.823026, 39.114362], [-79.757303, 39.032208]]]}}, {"type": "Feature", "properties": {"name": "Lewis", "id": "36049", "FIPS": "36049", "FIPS State": 36, "ST": "NY", "County": "Lewis County,NY", "State": "New York"}, "geometry": {"type": "Polygon", "coordinates": [[[-75.446951, 44.21887], [-75.167627, 44.098377], [-75.112858, 43.616407], [-75.75366, 43.468529], [-75.775568, 43.687607], [-75.446951, 44.21887]]]}}, {"type": "Feature", "properties": {"name": "Dawson", "id": "30021", "FIPS": "30021", "FIPS State": 30, "ST": "MT", "County": "Dawson County,MT", "State": "Montana"}, "geometry": {"type": "Polygon", "coordinates": [[[-105.022429, 47.702204], [-104.419966, 47.357157], [-104.606182, 46.858755], [-105.405815, 47.181895], [-105.23603, 47.789835], [-105.022429, 47.702204]]]}}, {"type": "Feature", "properties": {"name": "Jefferson", "id": "53031", "FIPS": "53031", "FIPS State": 53, "ST": "WA", "County": "Jefferson County,WA", "State": "Washington"}, "geometry": {"type": "Polygon", "coordinates": [[[-122.751285, 47.740543], [-122.948455, 47.603619], [-123.507103, 47.515988], [-124.323167, 47.532419], [-124.356029, 47.532419], [-124.613445, 47.882943], [-122.948455, 47.866512], [-122.926547, 48.063682], [-122.751285, 47.740543]]]}}, {"type": "Feature", "properties": {"name": "Manistee", "id": "26101", "FIPS": "26101", "FIPS State": 26, "ST": "MI", "County": "Manistee County,MI", "State": "Michigan"}, "geometry": {"type": "Polygon", "coordinates": [[[-86.181754, 44.520102], [-85.814799, 44.514625], [-85.820276, 44.164101], [-86.044831, 44.169578], [-86.384401, 44.180532], [-86.231047, 44.520102], [-86.181754, 44.520102]]]}}, {"type": "Feature", "properties": {"name": "Marshall", "id": "54051", "FIPS": "54051", "FIPS State": 54, "ST": "WV", "County": "Marshall County,WV", "State": "West Virginia"}, "geometry": {"type": "Polygon", "coordinates": [[[-80.726722, 40.034488], [-80.518598, 40.018057], [-80.518598, 39.963288], [-80.518598, 39.722302], [-80.830783, 39.722302], [-80.81983, 39.848272], [-80.732199, 40.034488], [-80.726722, 40.034488]]]}}, {"type": "Feature", "properties": {"name": "Medina", "id": "48325", "FIPS": "48325", "FIPS State": 48, "ST": "TX", "County": "Medina County,TX", "State": "Texas"}, "geometry": {"type": "Polygon", "coordinates": [[[-98.806102, 29.688547], [-98.806102, 29.250392], [-98.806102, 29.091561], [-98.904687, 29.091561], [-99.414042, 29.091561], [-99.414042, 29.628301], [-98.806102, 29.688547]]]}}, {"type": "Feature", "properties": {"name": "Iosco", "id": "26069", "FIPS": "26069", "FIPS State": 26, "ST": "MI", "County": "Iosco County,MI", "State": "Michigan"}, "geometry": {"type": "Polygon", "coordinates": [[[-83.563777, 44.164101], [-83.569254, 44.164101], [-83.886916, 44.164101], [-83.886916, 44.509148], [-83.317314, 44.509148], [-83.563777, 44.164101]]]}}, {"type": "Feature", "properties": {"name": "Appling", "id": "13001", "FIPS": "13001", "FIPS State": 13, "ST": "GA", "County": "Appling County,GA", "State": "Georgia"}, "geometry": {"type": "Polygon", "coordinates": [[[-82.43005, 31.966955], [-82.227403, 31.912185], [-82.046664, 31.824554], [-82.134295, 31.632861], [-82.134295, 31.468553], [-82.227403, 31.528799], [-82.523158, 31.709538], [-82.43005, 31.966955]]]}}, {"type": "Feature", "properties": {"name": "Moore", "id": "48341", "FIPS": "48341", "FIPS State": 48, "ST": "TX", "County": "Moore County,TX", "State": "Texas"}, "geometry": {"type": "Polygon", "coordinates": [[[-102.125128, 36.058229], [-101.621249, 36.052752], [-101.621249, 35.625551], [-101.621249, 35.620074], [-101.659588, 35.620074], [-102.163466, 35.620074], [-102.163466, 35.625551], [-102.163466, 36.052752], [-102.125128, 36.058229]]]}}, {"type": "Feature", "properties": {"name": "Lincoln", "id": "55069", "FIPS": "55069", "FIPS State": 55, "ST": "WI", "County": "Lincoln County,WI", "State": "Wisconsin"}, "geometry": {"type": "Polygon", "coordinates": [[[-89.424103, 45.467613], [-89.424103, 45.117088], [-90.042997, 45.122565], [-90.042997, 45.379982], [-90.042997, 45.555244], [-89.424103, 45.467613]]]}}, {"type": "Feature", "properties": {"name": "Union", "id": "19175", "FIPS": "19175", "FIPS State": 19, "ST": "IA", "County": "Union County,IA", "State": "Iowa"}, "geometry": {"type": "Polygon", "coordinates": [[[-94.468365, 41.157261], [-94.24381, 41.157261], [-94.013779, 41.157261], [-94.013779, 40.894367], [-94.358826, 40.899844], [-94.468365, 40.899844], [-94.468365, 41.157261]]]}}, {"type": "Feature", "properties": {"name": "Sanpete", "id": "49039", "FIPS": "49039", "FIPS State": 49, "ST": "UT", "County": "Sanpete County,UT", "State": "Utah"}, "geometry": {"type": "Polygon", "coordinates": [[[-111.556419, 39.81541], [-111.24971, 39.81541], [-111.24971, 39.705871], [-111.299003, 39.032208], [-111.978143, 39.043162], [-112.016482, 39.043162], [-112.016482, 39.317009], [-111.64405, 39.81541], [-111.556419, 39.81541]]]}}, {"type": "Feature", "properties": {"name": "Beadle", "id": "46005", "FIPS": "46005", "FIPS State": 46, "ST": "SD", "County": "Beadle County,SD", "State": "South Dakota"}, "geometry": {"type": "Polygon", "coordinates": [[[-98.088623, 44.629641], [-97.979084, 44.629641], [-97.853114, 44.54201], [-97.853114, 44.196962], [-98.209115, 44.196962], [-98.329608, 44.196962], [-98.691086, 44.196962], [-98.70204, 44.196962], [-98.707517, 44.635118], [-98.088623, 44.629641]]]}}, {"type": "Feature", "properties": {"name": "Deaf Smith", "id": "48117", "FIPS": "48117", "FIPS State": 48, "ST": "TX", "County": "Deaf Smith County,TX", "State": "Texas"}, "geometry": {"type": "Polygon", "coordinates": [[[-102.579714, 35.187396], [-102.168943, 35.181919], [-102.168943, 34.74924], [-102.524944, 34.74924], [-103.045254, 34.74924], [-103.045254, 34.951887], [-103.039777, 35.181919], [-102.579714, 35.187396]]]}}, {"type": "Feature", "properties": {"name": "Newberry", "id": "45071", "FIPS": "45071", "FIPS State": 45, "ST": "SC", "County": "Newberry County,SC", "State": "South Carolina"}, "geometry": {"type": "Polygon", "coordinates": [[[-81.646848, 34.519209], [-81.641371, 34.53564], [-81.422293, 34.491824], [-81.318231, 34.239885], [-81.340139, 34.196069], [-81.471585, 34.075577], [-81.739956, 34.185115], [-81.871402, 34.135823], [-81.942602, 34.201546], [-81.646848, 34.519209]]]}}, {"type": "Feature", "properties": {"name": "Marshall", "id": "47117", "FIPS": "47117", "FIPS State": 47, "ST": "TN", "County": "Marshall County,TN", "State": "Tennessee"}, "geometry": {"type": "Polygon", "coordinates": [[[-86.784218, 35.707705], [-86.685633, 35.707705], [-86.641817, 35.685797], [-86.598002, 35.362658], [-86.828033, 35.264073], [-86.95948, 35.417427], [-86.784218, 35.707705]]]}}, {"type": "Feature", "properties": {"name": "Pittsburg", "id": "40121", "FIPS": "40121", "FIPS State": 40, "ST": "OK", "County": "Pittsburg County,OK", "State": "Oklahoma"}, "geometry": {"type": "Polygon", "coordinates": [[[-95.706154, 35.203826], [-95.448737, 35.296934], [-95.350152, 35.055949], [-95.514461, 34.683517], [-95.673292, 34.595886], [-96.089539, 34.67804], [-96.089539, 34.765671], [-95.985477, 35.149057], [-95.706154, 35.203826]]]}}, {"type": "Feature", "properties": {"name": "Yazoo", "id": "28163", "FIPS": "28163", "FIPS State": 28, "ST": "MS", "County": "Yazoo County,MS", "State": "Mississippi"}, "geometry": {"type": "Polygon", "coordinates": [[[-90.366137, 33.01305], [-89.96632, 32.881604], [-90.448291, 32.574895], [-90.486629, 32.542033], [-90.552353, 32.509172], [-90.722138, 32.61871], [-90.722138, 32.662526], [-90.656414, 32.919942], [-90.366137, 33.01305]]]}}, {"type": "Feature", "properties": {"name": "Mason", "id": "26105", "FIPS": "26105", "FIPS State": 26, "ST": "MI", "County": "Mason County,MI", "State": "Michigan"}, "geometry": {"type": "Polygon", "coordinates": [[[-86.384401, 44.180532], [-86.044831, 44.169578], [-86.039354, 43.813577], [-86.433693, 43.819054], [-86.384401, 44.180532]]]}}, {"type": "Feature", "properties": {"name": "Lincoln", "id": "28085", "FIPS": "28085", "FIPS State": 28, "ST": "MS", "County": "Lincoln County,MS", "State": "Mississippi"}, "geometry": {"type": "Polygon", "coordinates": [[[-90.311367, 31.698584], [-90.245644, 31.715015], [-90.245644, 31.34806], [-90.262075, 31.34806], [-90.355183, 31.34806], [-90.546876, 31.34806], [-90.634507, 31.34806], [-90.738569, 31.610953], [-90.738569, 31.698584], [-90.311367, 31.698584]]]}}, {"type": "Feature", "properties": {"name": "Franklin", "id": "20059", "FIPS": "20059", "FIPS State": 20, "ST": "KS", "County": "Franklin County,KS", "State": "Kansas"}, "geometry": {"type": "Polygon", "coordinates": [[[-95.49803, 38.736453], [-95.054398, 38.736453], [-95.065351, 38.391406], [-95.235137, 38.391406], [-95.508984, 38.391406], [-95.508984, 38.435221], [-95.503507, 38.736453], [-95.49803, 38.736453]]]}}, {"type": "Feature", "properties": {"name": "Waushara", "id": "55137", "FIPS": "55137", "FIPS State": 55, "ST": "WI", "County": "Waushara County,WI", "State": "Wisconsin"}, "geometry": {"type": "Polygon", "coordinates": [[[-89.599365, 44.246255], [-89.226933, 44.246255], [-88.887363, 44.240778], [-88.887363, 43.983362], [-88.936655, 43.983362], [-89.166687, 43.983362], [-89.599365, 43.983362], [-89.599365, 44.246255]]]}}, {"type": "Feature", "properties": {"name": "Gulf", "id": "12045", "FIPS": "12045", "FIPS State": 12, "ST": "FL", "County": "Gulf County,FL", "State": "Florida"}, "geometry": {"type": "Polygon", "coordinates": [[[-85.22329, 30.20338], [-85.113751, 30.197903], [-85.02612, 29.973348], [-85.217813, 29.694024], [-85.387598, 29.924056], [-85.387598, 30.20338], [-85.22329, 30.20338]]]}}, {"type": "Feature", "properties": {"name": "Freeborn", "id": "27047", "FIPS": "27047", "FIPS State": 27, "ST": "MN", "County": "Freeborn County,MN", "State": "Minnesota"}, "geometry": {"type": "Polygon", "coordinates": [[[-93.164853, 43.846438], [-93.049837, 43.846438], [-93.049837, 43.501391], [-93.498947, 43.501391], [-93.646824, 43.501391], [-93.646824, 43.846438], [-93.405839, 43.846438], [-93.164853, 43.846438]]]}}, {"type": "Feature", "properties": {"name": "Laclede", "id": "29105", "FIPS": "29105", "FIPS State": 29, "ST": "MO", "County": "Laclede County,MO", "State": "Missouri"}, "geometry": {"type": "Polygon", "coordinates": [[[-92.852668, 37.893004], [-92.409035, 37.860142], [-92.250204, 37.602726], [-92.250204, 37.47128], [-92.688359, 37.482234], [-92.852668, 37.482234], [-92.852668, 37.893004]]]}}, {"type": "Feature", "properties": {"name": "Gage", "id": "31067", "FIPS": "31067", "FIPS State": 31, "ST": "NE", "County": "Gage County,NE", "State": "Nebraska"}, "geometry": {"type": "Polygon", "coordinates": [[[-96.478402, 40.521935], [-96.461971, 40.521935], [-96.461971, 40.264519], [-96.461971, 40.001626], [-96.692003, 40.001626], [-96.807019, 40.001626], [-96.916557, 40.001626], [-96.916557, 40.35215], [-96.91108, 40.521935], [-96.478402, 40.521935]]]}}, {"type": "Feature", "properties": {"name": "Bradford", "id": "12007", "FIPS": "12007", "FIPS State": 12, "ST": "FL", "County": "Bradford County,FL", "State": "Florida"}, "geometry": {"type": "Polygon", "coordinates": [[[-82.145249, 30.143133], [-82.052141, 30.143133], [-82.046664, 29.715932], [-82.052141, 29.715932], [-82.419096, 29.924056], [-82.145249, 30.143133]]]}}, {"type": "Feature", "properties": {"name": "Cass", "id": "27021", "FIPS": "27021", "FIPS State": 27, "ST": "MN", "County": "Cass County,MN", "State": "Minnesota"}, "geometry": {"type": "Polygon", "coordinates": [[[-94.052118, 47.428357], [-93.772794, 47.028541], [-93.778271, 46.803986], [-94.282149, 46.803986], [-94.342395, 46.2782], [-94.654581, 46.3494], [-94.731258, 46.371308], [-94.786028, 46.803986], [-94.671012, 47.411926], [-94.413596, 47.444788], [-94.052118, 47.428357]]]}}, {"type": "Feature", "properties": {"name": "Clay", "id": "17025", "FIPS": "17025", "FIPS State": 17, "ST": "IL", "County": "Clay County,IL", "State": "Illinois"}, "geometry": {"type": "Polygon", "coordinates": [[[-88.613516, 38.917192], [-88.361576, 38.911715], [-88.257515, 38.845992], [-88.252038, 38.599529], [-88.586131, 38.605006], [-88.701147, 38.605006], [-88.69567, 38.824084], [-88.69567, 38.917192], [-88.613516, 38.917192]]]}}, {"type": "Feature", "properties": {"name": "Bureau", "id": "17011", "FIPS": "17011", "FIPS State": 17, "ST": "IL", "County": "Bureau County,IL", "State": "Illinois"}, "geometry": {"type": "Polygon", "coordinates": [[[-89.254318, 41.584462], [-89.166687, 41.584462], [-89.16121, 41.310615], [-89.467918, 41.146307], [-89.522688, 41.146307], [-89.637704, 41.146307], [-89.856781, 41.233938], [-89.862258, 41.584462], [-89.632227, 41.584462], [-89.254318, 41.584462]]]}}, {"type": "Feature", "properties": {"name": "Lee", "id": "13177", "FIPS": "13177", "FIPS State": 13, "ST": "GA", "County": "Lee County,GA", "State": "Georgia"}, "geometry": {"type": "Polygon", "coordinates": [[[-84.259348, 31.917662], [-83.925255, 31.912185], [-83.941686, 31.846462], [-84.018363, 31.649292], [-84.297687, 31.621907], [-84.336025, 31.873847], [-84.259348, 31.917662]]]}}, {"type": "Feature", "properties": {"name": "Colusa", "id": "06011", "FIPS": "06011", "FIPS State": 6, "ST": "CA", "County": "Colusa County,CA", "State": "California"}, "geometry": {"type": "Polygon", "coordinates": [[[-122.077621, 39.415593], [-121.891405, 39.382732], [-121.907836, 39.306055], [-121.836636, 38.922669], [-122.061191, 38.928146], [-122.340515, 38.922669], [-122.740331, 39.382732], [-122.077621, 39.415593]]]}}, {"type": "Feature", "properties": {"name": "Fulton", "id": "17057", "FIPS": "17057", "FIPS State": 17, "ST": "IL", "County": "Fulton County,IL", "State": "Illinois"}, "geometry": {"type": "Polygon", "coordinates": [[[-90.442814, 40.713628], [-89.988228, 40.713628], [-89.873212, 40.510982], [-89.922504, 40.434304], [-90.201828, 40.182365], [-90.448291, 40.275473], [-90.442814, 40.625997], [-90.442814, 40.713628]]]}}, {"type": "Feature", "properties": {"name": "Fayette", "id": "48149", "FIPS": "48149", "FIPS State": 48, "ST": "TX", "County": "Fayette County,TX", "State": "Texas"}, "geometry": {"type": "Polygon", "coordinates": [[[-96.801542, 30.154087], [-96.796065, 30.159564], [-96.620803, 30.044549], [-96.57151, 29.962394], [-96.872742, 29.633778], [-97.141112, 29.628301], [-97.316374, 29.787132], [-97.316374, 29.787132], [-97.026096, 30.050025], [-96.801542, 30.154087]]]}}, {"type": "Feature", "properties": {"name": "Randolph", "id": "29175", "FIPS": "29175", "FIPS State": 29, "ST": "MO", "County": "Randolph County,MO", "State": "Missouri"}, "geometry": {"type": "Polygon", "coordinates": [[[-92.693836, 39.612763], [-92.299497, 39.607286], [-92.31045, 39.34987], [-92.315927, 39.245808], [-92.430943, 39.251285], [-92.70479, 39.322485], [-92.693836, 39.612763]]]}}, {"type": "Feature", "properties": {"name": "Evangeline", "id": "22039", "FIPS": "22039", "FIPS State": 22, "ST": "LA", "County": "Evangeline County,LA", "State": "Louisiana"}, "geometry": {"type": "Polygon", "coordinates": [[[-92.387128, 31.003013], [-92.283066, 30.964674], [-92.211866, 30.849659], [-92.49119, 30.482704], [-92.63359, 30.482704], [-92.628113, 30.488181], [-92.595251, 30.893474], [-92.387128, 31.003013]]]}}, {"type": "Feature", "properties": {"name": "Jefferson", "id": "18077", "FIPS": "18077", "FIPS State": 18, "ST": "IN", "County": "Jefferson County,IN", "State": "Indiana"}, "geometry": {"type": "Polygon", "coordinates": [[[-85.299967, 38.911715], [-85.201382, 38.911715], [-85.201382, 38.692637], [-85.332828, 38.736453], [-85.425936, 38.588575], [-85.568337, 38.605006], [-85.683353, 38.81313], [-85.442367, 38.911715], [-85.299967, 38.911715]]]}}, {"type": "Feature", "properties": {"name": "Union", "id": "28145", "FIPS": "28145", "FIPS State": 28, "ST": "MS", "County": "Union County,MS", "State": "Mississippi"}, "geometry": {"type": "Polygon", "coordinates": [[[-89.09001, 34.595886], [-88.734008, 34.595886], [-88.734008, 34.508255], [-88.827116, 34.365854], [-89.09001, 34.382285], [-89.248841, 34.376808], [-89.248841, 34.497301], [-89.243364, 34.584932], [-89.09001, 34.595886]]]}}, {"type": "Feature", "properties": {"name": "Bourbon", "id": "21017", "FIPS": "21017", "FIPS State": 21, "ST": "KY", "County": "Bourbon County,KY", "State": "Kentucky"}, "geometry": {"type": "Polygon", "coordinates": [[[-84.264825, 38.325682], [-84.193625, 38.369498], [-83.980024, 38.194236], [-84.040271, 38.144943], [-84.078609, 38.117559], [-84.286733, 38.068266], [-84.401749, 38.20519], [-84.440087, 38.281867], [-84.264825, 38.325682]]]}}, {"type": "Feature", "properties": {"name": "Cowley", "id": "20035", "FIPS": "20035", "FIPS State": 20, "ST": "KS", "County": "Cowley County,KS", "State": "Kansas"}, "geometry": {"type": "Polygon", "coordinates": [[[-97.080866, 37.476757], [-96.527695, 37.476757], [-96.522218, 37.301494], [-96.527695, 37.000263], [-96.730341, 37.000263], [-96.752249, 37.000263], [-96.867265, 37.000263], [-97.146589, 37.000263], [-97.152066, 37.476757], [-97.080866, 37.476757]]]}}, {"type": "Feature", "properties": {"name": "Dawson", "id": "31047", "FIPS": "31047", "FIPS State": 31, "ST": "NE", "County": "Dawson County,NE", "State": "Nebraska"}, "geometry": {"type": "Polygon", "coordinates": [[[-99.994598, 41.047722], [-99.424996, 41.047722], [-99.419519, 40.669813], [-99.644074, 40.686244], [-99.983644, 40.697198], [-100.224629, 40.702674], [-100.224629, 41.047722], [-99.994598, 41.047722]]]}}, {"type": "Feature", "properties": {"name": "Johnson", "id": "21115", "FIPS": "21115", "FIPS State": 21, "ST": "KY", "County": "Johnson County,KY", "State": "Kentucky"}, "geometry": {"type": "Polygon", "coordinates": [[[-82.851774, 37.975158], [-82.610789, 37.876573], [-82.638174, 37.717742], [-82.786051, 37.745127], [-82.939406, 37.717742], [-83.005129, 37.860142], [-82.988698, 37.964204], [-82.851774, 37.975158]]]}}, {"type": "Feature", "properties": {"name": "Pike", "id": "28113", "FIPS": "28113", "FIPS State": 28, "ST": "MS", "County": "Pike County,MS", "State": "Mississippi"}, "geometry": {"type": "Polygon", "coordinates": [[[-90.355183, 31.34806], [-90.262075, 31.34806], [-90.262075, 31.003013], [-90.349706, 31.003013], [-90.371614, 30.997536], [-90.546876, 30.997536], [-90.546876, 31.34806], [-90.355183, 31.34806]]]}}, {"type": "Feature", "properties": {"name": "Humboldt", "id": "32013", "FIPS": "32013", "FIPS State": 32, "ST": "NV", "County": "Humboldt County,NV", "State": "Nevada"}, "geometry": {"type": "Polygon", "coordinates": [[[-117.027882, 42.000709], [-117.016928, 42.000709], [-117.016928, 40.998429], [-117.301729, 40.527412], [-118.013732, 40.856029], [-119.311766, 40.960091], [-119.32272, 41.995232], [-118.194471, 41.995232], [-117.027882, 42.000709]]]}}, {"type": "Feature", "properties": {"name": "Ogemaw", "id": "26129", "FIPS": "26129", "FIPS State": 26, "ST": "MI", "County": "Ogemaw County,MI", "State": "Michigan"}, "geometry": {"type": "Polygon", "coordinates": [[[-83.925255, 44.509148], [-83.886916, 44.509148], [-83.886916, 44.164101], [-84.16624, 44.164101], [-84.248394, 44.164101], [-84.368887, 44.158624], [-84.368887, 44.509148], [-83.925255, 44.509148]]]}}, {"type": "Feature", "properties": {"name": "Oconto", "id": "55083", "FIPS": "55083", "FIPS State": 55, "ST": "WI", "County": "Oconto County,WI", "State": "Wisconsin"}, "geometry": {"type": "Polygon", "coordinates": [[[-88.4273, 45.374505], [-87.76459, 44.963734], [-87.989145, 44.678933], [-88.235607, 44.678933], [-88.241084, 44.678933], [-88.487546, 44.854195], [-88.6409, 45.117088], [-88.679239, 45.379982], [-88.4273, 45.374505]]]}}, {"type": "Feature", "properties": {"name": "Carbon", "id": "49007", "FIPS": "49007", "FIPS State": 49, "ST": "UT", "County": "Carbon County,UT", "State": "Utah"}, "geometry": {"type": "Polygon", "coordinates": [[[-111.014202, 39.81541], [-110.855371, 39.81541], [-109.968106, 39.804456], [-110.022876, 39.470363], [-111.079925, 39.464886], [-111.24971, 39.705871], [-111.24971, 39.81541], [-111.014202, 39.81541]]]}}, {"type": "Feature", "properties": {"name": "Sequatchie", "id": "47153", "FIPS": "47153", "FIPS State": 47, "ST": "TN", "County": "Sequatchie County,TN", "State": "Tennessee"}, "geometry": {"type": "Polygon", "coordinates": [[[-85.425936, 35.565304], [-85.22329, 35.351704], [-85.387598, 35.149057], [-85.557383, 35.318842], [-85.590245, 35.521489], [-85.606675, 35.532443], [-85.557383, 35.532443], [-85.425936, 35.565304]]]}}, {"type": "Feature", "properties": {"name": "Iberville", "id": "22047", "FIPS": "22047", "FIPS State": 22, "ST": "LA", "County": "Iberville County,LA", "State": "Louisiana"}, "geometry": {"type": "Polygon", "coordinates": [[[-91.521771, 30.499135], [-91.483432, 30.499135], [-91.143862, 30.323872], [-91.023369, 30.323872], [-91.105524, 30.060979], [-91.226016, 30.022641], [-91.368417, 30.060979], [-91.70251, 30.499135], [-91.521771, 30.499135]]]}}, {"type": "Feature", "properties": {"name": "Lake", "id": "27075", "FIPS": "27075", "FIPS State": 27, "ST": "MN", "County": "Lake County,MN", "State": "Minnesota"}, "geometry": {"type": "Polygon", "coordinates": [[[-91.801095, 47.866512], [-91.795618, 48.200606], [-91.034323, 48.189652], [-91.023369, 47.466696], [-91.795618, 46.94091], [-91.801095, 47.866512]]]}}, {"type": "Feature", "properties": {"name": "Christian", "id": "17021", "FIPS": "17021", "FIPS State": 17, "ST": "IL", "County": "Christian County,IL", "State": "Illinois"}, "geometry": {"type": "Polygon", "coordinates": [[[-89.254318, 39.820887], [-89.215979, 39.81541], [-89.024286, 39.656579], [-89.139302, 39.34987], [-89.533642, 39.525132], [-89.254318, 39.820887]]]}}, {"type": "Feature", "properties": {"name": "Van Wert", "id": "39161", "FIPS": "39161", "FIPS State": 39, "ST": "OH", "County": "Van Wert County,OH", "State": "Ohio"}, "geometry": {"type": "Polygon", "coordinates": [[[-84.456518, 40.987475], [-84.401749, 40.992952], [-84.341502, 40.861506], [-84.396272, 40.686244], [-84.456518, 40.686244], [-84.774181, 40.730059], [-84.801565, 40.730059], [-84.801565, 40.921752], [-84.801565, 40.987475], [-84.456518, 40.987475]]]}}, {"type": "Feature", "properties": {"name": "Pennington", "id": "27113", "FIPS": "27113", "FIPS State": 27, "ST": "MN", "County": "Pennington County,MN", "State": "Minnesota"}, "geometry": {"type": "Polygon", "coordinates": [[[-96.50031, 48.173221], [-95.591138, 48.173221], [-95.580184, 48.019867], [-95.580184, 47.932236], [-95.71163, 47.937713], [-95.8376, 47.965097], [-96.483879, 47.965097], [-96.50031, 48.173221]]]}}, {"type": "Feature", "properties": {"name": "Sumter", "id": "12119", "FIPS": "12119", "FIPS State": 12, "ST": "FL", "County": "Sumter County,FL", "State": "Florida"}, "geometry": {"type": "Polygon", "coordinates": [[[-82.013803, 28.960114], [-81.953556, 28.960114], [-81.959033, 28.346697], [-82.057618, 28.313835], [-82.057618, 28.478144], [-82.265742, 28.669836], [-82.309557, 28.960114], [-82.013803, 28.960114]]]}}, {"type": "Feature", "properties": {"name": "Pickens", "id": "13227", "FIPS": "13227", "FIPS State": 13, "ST": "GA", "County": "Pickens County,GA", "State": "Georgia"}, "geometry": {"type": "Polygon", "coordinates": [[[-84.346979, 34.563024], [-84.259348, 34.382285], [-84.582488, 34.387762], [-84.653688, 34.415147], [-84.653688, 34.546593], [-84.346979, 34.563024]]]}}, {"type": "Feature", "properties": {"name": "Barton", "id": "20009", "FIPS": "20009", "FIPS State": 20, "ST": "KS", "County": "Barton County,KS", "State": "Kansas"}, "geometry": {"type": "Polygon", "coordinates": [[[-98.811579, 38.698114], [-98.488439, 38.698114], [-98.482962, 38.522852], [-98.477485, 38.259959], [-98.800625, 38.259959], [-98.910164, 38.259959], [-99.030656, 38.34759], [-99.030656, 38.698114], [-98.811579, 38.698114]]]}}, {"type": "Feature", "properties": {"name": "Matagorda", "id": "48321", "FIPS": "48321", "FIPS State": 48, "ST": "TX", "County": "Matagorda County,TX", "State": "Texas"}, "geometry": {"type": "Polygon", "coordinates": [[[-95.864985, 29.223007], [-95.508984, 28.823191], [-96.379817, 28.385036], [-96.37434, 28.401466], [-96.325048, 28.642452], [-96.325048, 28.675313], [-96.308617, 28.965591], [-95.875939, 29.228484], [-95.864985, 29.223007]]]}}, {"type": "Feature", "properties": {"name": "Monroe", "id": "13207", "FIPS": "13207", "FIPS State": 13, "ST": "GA", "County": "Monroe County,GA", "State": "Georgia"}, "geometry": {"type": "Polygon", "coordinates": [[[-84.001932, 33.204743], [-83.821193, 33.182835], [-83.815716, 33.133543], [-83.711654, 32.952804], [-83.722608, 32.952804], [-83.892393, 32.848742], [-84.122425, 32.848742], [-84.122425, 32.930896], [-84.040271, 33.204743], [-84.001932, 33.204743]]]}}, {"type": "Feature", "properties": {"name": "Richland", "id": "17159", "FIPS": "17159", "FIPS State": 17, "ST": "IL", "County": "Richland County,IL", "State": "Illinois"}, "geometry": {"type": "Polygon", "coordinates": [[[-87.90699, 38.851469], [-87.912467, 38.572145], [-87.956283, 38.572145], [-88.005575, 38.572145], [-88.147976, 38.566668], [-88.252038, 38.599529], [-88.257515, 38.845992], [-87.945329, 38.851469], [-87.90699, 38.851469]]]}}, {"type": "Feature", "properties": {"name": "Apache", "id": "04001", "FIPS": "04001", "FIPS State": 4, "ST": "AZ", "County": "Apache County,AZ", "State": "Arizona"}, "geometry": {"type": "Polygon", "coordinates": [[[-110.000968, 37.000263], [-109.042503, 37.000263], [-109.04798, 36.00346], [-109.04798, 34.957364], [-109.04798, 34.579455], [-109.04798, 33.779822], [-109.497089, 33.653852], [-109.743552, 33.500498], [-109.891429, 33.566221], [-109.842137, 35.516012], [-110.000968, 35.663889], [-110.000968, 37.000263]]]}}, {"type": "Feature", "properties": {"name": "Washington", "id": "01129", "FIPS": "01129", "FIPS State": 1, "ST": "AL", "County": "Washington County,AL", "State": "Alabama"}, "geometry": {"type": "Polygon", "coordinates": [[[-88.186314, 31.698584], [-88.087729, 31.698584], [-87.945329, 31.194706], [-87.972714, 31.161844], [-88.432777, 31.112552], [-88.449208, 31.435691], [-88.465638, 31.698584], [-88.186314, 31.698584]]]}}, {"type": "Feature", "properties": {"name": "Winneshiek", "id": "19191", "FIPS": "19191", "FIPS State": 19, "ST": "IA", "County": "Winneshiek County,IA", "State": "Iowa"}, "geometry": {"type": "Polygon", "coordinates": [[[-91.850387, 43.501391], [-91.729895, 43.501391], [-91.609402, 43.501391], [-91.603925, 43.079667], [-92.080419, 43.085144], [-92.080419, 43.211113], [-92.080419, 43.501391], [-91.850387, 43.501391]]]}}, {"type": "Feature", "properties": {"name": "White", "id": "18181", "FIPS": "18181", "FIPS State": 18, "ST": "IN", "County": "White County,IN", "State": "Indiana"}, "geometry": {"type": "Polygon", "coordinates": [[[-86.877326, 40.910798], [-86.581571, 40.910798], [-86.581571, 40.735536], [-86.773264, 40.560274], [-87.096403, 40.560274], [-87.096403, 40.735536], [-86.932095, 40.910798], [-86.877326, 40.910798]]]}}, {"type": "Feature", "properties": {"name": "Maverick", "id": "48323", "FIPS": "48323", "FIPS State": 48, "ST": "TX", "County": "Maverick County,TX", "State": "Texas"}, "geometry": {"type": "Polygon", "coordinates": [[[-100.109614, 29.086084], [-100.115091, 28.647929], [-100.115091, 28.19882], [-100.213675, 28.19882], [-100.668261, 29.086084], [-100.109614, 29.086084]]]}}, {"type": "Feature", "properties": {"name": "Graham", "id": "04009", "FIPS": "04009", "FIPS State": 4, "ST": "AZ", "County": "Graham County,AZ", "State": "Arizona"}, "geometry": {"type": "Polygon", "coordinates": [[[-109.743552, 33.500498], [-109.497089, 33.653852], [-109.497089, 33.078773], [-109.113704, 32.427018], [-109.831183, 32.427018], [-110.450077, 32.427018], [-110.450077, 32.514649], [-110.450077, 33.193789], [-110.000968, 33.577175], [-109.891429, 33.566221], [-109.743552, 33.500498]]]}}, {"type": "Feature", "properties": {"name": "Lamar", "id": "48277", "FIPS": "48277", "FIPS State": 48, "ST": "TX", "County": "Lamar County,TX", "State": "Texas"}, "geometry": {"type": "Polygon", "coordinates": [[[-95.311814, 33.878407], [-95.306337, 33.380005], [-95.651384, 33.484067], [-95.859508, 33.462159], [-95.843077, 33.840068], [-95.760923, 33.87293], [-95.311814, 33.878407]]]}}, {"type": "Feature", "properties": {"name": "Yuma", "id": "08125", "FIPS": "08125", "FIPS State": 8, "ST": "CO", "County": "Yuma County,CO", "State": "Colorado"}, "geometry": {"type": "Polygon", "coordinates": [[[-102.426359, 40.439781], [-102.053927, 40.439781], [-102.053927, 40.346673], [-102.053927, 40.001626], [-102.04845, 39.574425], [-102.426359, 39.568948], [-102.804268, 39.568948], [-102.78236, 40.439781], [-102.667345, 40.439781], [-102.426359, 40.439781]]]}}, {"type": "Feature", "properties": {"name": "Marshall", "id": "21157", "FIPS": "21157", "FIPS State": 21, "ST": "KY", "County": "Marshall County,KY", "State": "Kentucky"}, "geometry": {"type": "Polygon", "coordinates": [[[-88.432777, 37.049555], [-88.241084, 36.983832], [-88.15893, 36.868816], [-88.109637, 36.748324], [-88.487546, 36.748324], [-88.482069, 36.940016], [-88.482069, 37.022171], [-88.432777, 37.049555]]]}}, {"type": "Feature", "properties": {"name": "Daviess", "id": "18027", "FIPS": "18027", "FIPS State": 18, "ST": "IN", "County": "Daviess County,IN", "State": "Indiana"}, "geometry": {"type": "Polygon", "coordinates": [[[-87.096403, 38.906238], [-86.90471, 38.906238], [-86.926618, 38.506421], [-87.074495, 38.517375], [-87.244281, 38.54476], [-87.096403, 38.906238]]]}}, {"type": "Feature", "properties": {"name": "Mitchell", "id": "19131", "FIPS": "19131", "FIPS State": 19, "ST": "IA", "County": "Mitchell County,IA", "State": "Iowa"}, "geometry": {"type": "Polygon", "coordinates": [[[-92.551436, 43.501391], [-92.556913, 43.211113], [-92.797898, 43.211113], [-93.022453, 43.211113], [-93.022453, 43.254929], [-93.022453, 43.501391], [-92.551436, 43.501391]]]}}, {"type": "Feature", "properties": {"name": "Lee", "id": "19111", "FIPS": "19111", "FIPS State": 19, "ST": "IA", "County": "Lee County,IA", "State": "Iowa"}, "geometry": {"type": "Polygon", "coordinates": [[[-91.603925, 40.812213], [-91.406755, 40.812213], [-91.111001, 40.697198], [-91.187678, 40.636951], [-91.417709, 40.379535], [-91.718941, 40.598613], [-91.718941, 40.812213], [-91.603925, 40.812213]]]}}, {"type": "Feature", "properties": {"name": "Newton", "id": "29145", "FIPS": "29145", "FIPS State": 29, "ST": "MO", "County": "Newton County,MO", "State": "Missouri"}, "geometry": {"type": "Polygon", "coordinates": [[[-94.616242, 37.055032], [-94.616242, 37.055032], [-94.057594, 37.049555], [-94.063071, 36.929063], [-94.068548, 36.748324], [-94.539565, 36.764754], [-94.616242, 36.764754], [-94.616242, 37.000263], [-94.616242, 37.055032]]]}}, {"type": "Feature", "properties": {"name": "Box Elder", "id": "49003", "FIPS": "49003", "FIPS State": 49, "ST": "UT", "County": "Box Elder County,UT", "State": "Utah"}, "geometry": {"type": "Polygon", "coordinates": [[[-112.164359, 41.995232], [-111.885035, 41.425631], [-112.492976, 41.075106], [-113.073531, 40.998429], [-114.04295, 40.998429], [-114.04295, 41.995232], [-113.002331, 42.000709], [-112.164359, 41.995232]]]}}, {"type": "Feature", "properties": {"name": "Orange", "id": "50017", "FIPS": "50017", "FIPS State": 50, "ST": "VT", "County": "Orange County,VT", "State": "Vermont"}, "geometry": {"type": "Polygon", "coordinates": [[[-72.434634, 44.153147], [-72.368911, 44.202439], [-72.040294, 44.153147], [-72.204602, 43.769761], [-72.790635, 43.961454], [-72.741343, 44.027177], [-72.434634, 44.153147]]]}}, {"type": "Feature", "properties": {"name": "Miller", "id": "05091", "FIPS": "05091", "FIPS State": 5, "ST": "AR", "County": "Miller County,AR", "State": "Arkansas"}, "geometry": {"type": "Polygon", "coordinates": [[[-93.827563, 33.610037], [-93.723501, 33.484067], [-93.805655, 33.018527], [-93.816609, 33.018527], [-94.041164, 33.018527], [-94.041164, 33.270466], [-94.041164, 33.54979], [-93.827563, 33.610037]]]}}, {"type": "Feature", "properties": {"name": "Clarendon", "id": "45027", "FIPS": "45027", "FIPS State": 45, "ST": "SC", "County": "Clarendon County,SC", "State": "South Carolina"}, "geometry": {"type": "Polygon", "coordinates": [[[-80.332382, 33.779822], [-79.976381, 33.94413], [-79.877796, 33.883884], [-80.10235, 33.495021], [-80.222843, 33.445728], [-80.49669, 33.560744], [-80.535029, 33.642898], [-80.332382, 33.779822]]]}}, {"type": "Feature", "properties": {"name": "Marion", "id": "47115", "FIPS": "47115", "FIPS State": 47, "ST": "TN", "County": "Marion County,TN", "State": "Tennessee"}, "geometry": {"type": "Polygon", "coordinates": [[[-85.601199, 35.307888], [-85.557383, 35.318842], [-85.387598, 35.149057], [-85.475229, 34.984749], [-85.606675, 34.984749], [-85.864092, 34.990226], [-85.875046, 35.225734], [-85.601199, 35.307888]]]}}, {"type": "Feature", "properties": {"name": "Atascosa", "id": "48013", "FIPS": "48013", "FIPS State": 48, "ST": "TX", "County": "Atascosa County,TX", "State": "Texas"}, "geometry": {"type": "Polygon", "coordinates": [[[-98.800625, 29.250392], [-98.406285, 29.113469], [-98.192684, 28.883437], [-98.099576, 28.784852], [-98.335085, 28.615067], [-98.581547, 28.642452], [-98.800625, 28.636975], [-98.800625, 28.647929], [-98.806102, 29.091561], [-98.806102, 29.250392], [-98.800625, 29.250392]]]}}, {"type": "Feature", "properties": {"name": "Warren", "id": "51187", "FIPS": "51187", "FIPS State": 51, "ST": "VA", "County": "Warren County,VA", "State": "Virginia"}, "geometry": {"type": "Polygon", "coordinates": [[[-78.15256, 39.037685], [-78.004682, 38.977438], [-78.130652, 38.862422], [-78.256622, 38.758361], [-78.284006, 38.758361], [-78.388068, 38.829561], [-78.311391, 39.0103], [-78.15256, 39.037685]]]}}, {"type": "Feature", "properties": {"name": "Clay", "id": "21051", "FIPS": "21051", "FIPS State": 21, "ST": "KY", "County": "Clay County,KY", "State": "Kentucky"}, "geometry": {"type": "Polygon", "coordinates": [[[-83.574731, 37.279587], [-83.525438, 37.257679], [-83.509007, 37.235771], [-83.509007, 36.940016], [-83.591161, 36.956447], [-83.788331, 37.033124], [-83.870485, 37.055032], [-83.941686, 37.252202], [-83.782854, 37.350787], [-83.574731, 37.279587]]]}}, {"type": "Feature", "properties": {"name": "Vernon", "id": "55123", "FIPS": "55123", "FIPS State": 55, "ST": "WI", "County": "Vernon County,WI", "State": "Wisconsin"}, "geometry": {"type": "Polygon", "coordinates": [[[-90.311367, 43.731422], [-90.311367, 43.638314], [-90.311367, 43.55616], [-90.667368, 43.424714], [-90.9686, 43.424714], [-91.204109, 43.424714], [-91.215062, 43.501391], [-91.258878, 43.725946], [-90.908354, 43.725946], [-90.311367, 43.731422]]]}}, {"type": "Feature", "properties": {"name": "Colleton", "id": "45029", "FIPS": "45029", "FIPS State": 45, "ST": "SC", "County": "Colleton County,SC", "State": "South Carolina"}, "geometry": {"type": "Polygon", "coordinates": [[[-80.792445, 33.182835], [-80.403582, 32.859696], [-80.250228, 32.531079], [-80.474782, 32.487264], [-80.825307, 32.706342], [-81.055338, 33.002096], [-81.082723, 33.024004], [-80.797922, 33.177358], [-80.792445, 33.182835]]]}}, {"type": "Feature", "properties": {"name": "Koochiching", "id": "27071", "FIPS": "27071", "FIPS State": 27, "ST": "MN", "County": "Koochiching County,MN", "State": "Minnesota"}, "geometry": {"type": "Polygon", "coordinates": [[[-93.088176, 48.627807], [-93.088176, 48.55113], [-93.082699, 47.893897], [-93.597531, 47.899374], [-94.419073, 47.844605], [-94.430026, 48.364914], [-94.430026, 48.699007], [-93.794701, 48.518268], [-93.088176, 48.627807]]]}}, {"type": "Feature", "properties": {"name": "Russell", "id": "21207", "FIPS": "21207", "FIPS State": 21, "ST": "KY", "County": "Russell County,KY", "State": "Kentucky"}, "geometry": {"type": "Polygon", "coordinates": [[[-85.042551, 37.186479], [-84.90015, 37.115279], [-84.834427, 36.994786], [-85.064458, 36.857862], [-85.217813, 36.852385], [-85.234244, 36.923586], [-85.042551, 37.186479]]]}}, {"type": "Feature", "properties": {"name": "Huron", "id": "26063", "FIPS": "26063", "FIPS State": 26, "ST": "MI", "County": "Huron County,MI", "State": "Michigan"}, "geometry": {"type": "Polygon", "coordinates": [[[-82.605312, 43.693084], [-82.69842, 43.687607], [-83.120145, 43.676653], [-83.465192, 43.725946], [-83.465192, 43.731422], [-82.917498, 44.070993], [-82.605312, 43.693084]]]}}, {"type": "Feature", "properties": {"name": "Garfield", "id": "40047", "FIPS": "40047", "FIPS State": 40, "ST": "OK", "County": "Garfield County,OK", "State": "Oklahoma"}, "geometry": {"type": "Polygon", "coordinates": [[[-97.984561, 36.594969], [-97.464251, 36.594969], [-97.464251, 36.594969], [-97.458774, 36.162291], [-97.677852, 36.162291], [-98.0941, 36.167768], [-98.105053, 36.162291], [-98.105053, 36.463523], [-98.105053, 36.594969], [-97.984561, 36.594969]]]}}, {"type": "Feature", "properties": {"name": "Howard", "id": "48227", "FIPS": "48227", "FIPS State": 48, "ST": "TX", "County": "Howard County,TX", "State": "Texas"}, "geometry": {"type": "Polygon", "coordinates": [[[-101.17214, 32.525602], [-101.183094, 32.087447], [-101.265248, 32.087447], [-101.692449, 32.087447], [-101.686972, 32.525602], [-101.17214, 32.525602]]]}}, {"type": "Feature", "properties": {"name": "Ford", "id": "20057", "FIPS": "20057", "FIPS State": 20, "ST": "KS", "County": "Ford County,KS", "State": "Kansas"}, "geometry": {"type": "Polygon", "coordinates": [[[-99.874105, 37.914912], [-99.567396, 37.914912], [-99.56192, 37.734173], [-99.556443, 37.465803], [-100.054844, 37.47128], [-100.109614, 37.476757], [-100.213675, 37.476757], [-100.224629, 37.914912], [-99.874105, 37.914912]]]}}, {"type": "Feature", "properties": {"name": "Orange", "id": "51137", "FIPS": "51137", "FIPS State": 51, "ST": "VA", "County": "Orange County,VA", "State": "Virginia"}, "geometry": {"type": "Polygon", "coordinates": [[[-77.895143, 38.391406], [-77.703451, 38.358544], [-77.95539, 38.117559], [-78.207329, 38.133989], [-78.371637, 38.183282], [-78.289483, 38.270913], [-78.092313, 38.309252], [-77.895143, 38.391406]]]}}, {"type": "Feature", "properties": {"name": "Benson", "id": "38005", "FIPS": "38005", "FIPS State": 38, "ST": "ND", "County": "Benson County,ND", "State": "North Dakota"}, "geometry": {"type": "Polygon", "coordinates": [[[-99.819336, 48.370391], [-99.490719, 48.370391], [-99.200441, 48.370391], [-98.992318, 47.992482], [-98.526778, 47.915805], [-98.526778, 47.844605], [-98.636317, 47.850082], [-99.299026, 47.844605], [-99.813859, 47.850082], [-99.819336, 48.370391]]]}}]}