{"type": "FeatureCollection", "crs": {"type": "name", "properties": {"name": "urn:ogc:def:crs:OGC:1.3:CRS84"}}, "features": [{"type": "Feature", "properties": {"name": "Hale", "id": "48189", "FIPS": "48189", "FIPS State": 48, "ST": "TX", "County": "Hale County,TX", "State": "Texas"}, "geometry": {"type": "Polygon", "coordinates": [[[-102.092266, 34.311085], [-101.999158, 34.311085], [-101.56648, 34.311085], [-101.561003, 33.829114], [-101.571957, 33.829114], [-102.086789, 33.823637], [-102.092266, 34.311085]]]}}, {"type": "Feature", "properties": {"name": "Buena Vista", "id": "19021", "FIPS": "19021", "FIPS State": 19, "ST": "IA", "County": "Buena Vista County,IA", "State": "Iowa"}, "geometry": {"type": "Polygon", "coordinates": [[[-95.251567, 42.909881], [-94.911997, 42.909881], [-94.911997, 42.559357], [-95.388491, 42.559357], [-95.388491, 42.909881], [-95.251567, 42.909881]]]}}, {"type": "Feature", "properties": {"name": "Hampshire", "id": "54027", "FIPS": "54027", "FIPS State": 54, "ST": "WV", "County": "Hampshire County,WV", "State": "West Virginia"}, "geometry": {"type": "Polygon", "coordinates": [[[-78.656438, 39.536086], [-78.470222, 39.514178], [-78.349729, 39.464886], [-78.508561, 39.086977], [-78.979578, 39.240331], [-78.656438, 39.536086]]]}}, {"type": "Feature", "properties": {"name": "Adams", "id": "39001", "FIPS": "39001", "FIPS State": 39, "ST": "OH", "County": "Adams County,OH", "State": "Ohio"}, "geometry": {"type": "Polygon", "coordinates": [[[-83.383038, 39.054115], [-83.273499, 39.015777], [-83.273499, 39.0103], [-83.268022, 38.61596], [-83.645931, 38.637868], [-83.706177, 38.637868], [-83.673316, 39.021254], [-83.383038, 39.054115]]]}}, {"type": "Feature", "properties": {"name": "Gonzales", "id": "48177", "FIPS": "48177", "FIPS State": 48, "ST": "TX", "County": "Gonzales County,TX", "State": "Texas"}, "geometry": {"type": "Polygon", "coordinates": [[[-97.316374, 29.787132], [-97.141112, 29.628301], [-97.239697, 29.381839], [-97.612129, 29.107992], [-97.727145, 29.223007], [-97.84216, 29.376362], [-97.634037, 29.650209], [-97.316374, 29.787132]]]}}, {"type": "Feature", "properties": {"name": "Bennett", "id": "46007", "FIPS": "46007", "FIPS State": 46, "ST": "SD", "County": "Bennett County,SD", "State": "South Dakota"}, "geometry": {"type": "Polygon", "coordinates": [[[-101.900573, 43.391852], [-101.226909, 43.391852], [-101.226909, 42.997512], [-102.081312, 42.997512], [-102.108697, 43.391852], [-101.900573, 43.391852]]]}}, {"type": "Feature", "properties": {"name": "Mineral", "id": "30061", "FIPS": "30061", "FIPS State": 30, "ST": "MT", "County": "Mineral County,MT", "State": "Montana"}, "geometry": {"type": "Polygon", "coordinates": [[[-115.499816, 47.488604], [-114.798768, 47.269526], [-114.672798, 46.738263], [-114.963076, 46.935433], [-115.658647, 47.466696], [-115.499816, 47.488604]]]}}, {"type": "Feature", "properties": {"name": "Gasconade", "id": "29073", "FIPS": "29073", "FIPS State": 29, "ST": "MO", "County": "Gasconade County,MO", "State": "Missouri"}, "geometry": {"type": "Polygon", "coordinates": [[[-91.417709, 38.709068], [-91.368417, 38.698114], [-91.368417, 38.210667], [-91.532725, 38.210667], [-91.532725, 38.15042], [-91.63131, 38.155897], [-91.642264, 38.287344], [-91.642264, 38.703591], [-91.417709, 38.709068]]]}}, {"type": "Feature", "properties": {"name": "Wyandot", "id": "39175", "FIPS": "39175", "FIPS State": 39, "ST": "OH", "County": "Wyandot County,OH", "State": "Ohio"}, "geometry": {"type": "Polygon", "coordinates": [[[-83.114668, 40.992952], [-83.109191, 40.702674], [-83.421376, 40.686244], [-83.514484, 40.81769], [-83.421376, 40.992952], [-83.114668, 40.992952]]]}}, {"type": "Feature", "properties": {"name": "Bosque", "id": "48035", "FIPS": "48035", "FIPS State": 48, "ST": "TX", "County": "Bosque County,TX", "State": "Texas"}, "geometry": {"type": "Polygon", "coordinates": [[[-97.62856, 32.20794], [-97.617606, 32.202463], [-97.475205, 32.175078], [-97.278035, 31.747877], [-97.606652, 31.589046], [-97.688806, 31.709538], [-97.765483, 31.6712], [-98.006468, 32.016247], [-97.864068, 32.087447], [-97.62856, 32.20794]]]}}, {"type": "Feature", "properties": {"name": "Rabun", "id": "13241", "FIPS": "13241", "FIPS State": 13, "ST": "GA", "County": "Rabun County,GA", "State": "Georgia"}, "geometry": {"type": "Polygon", "coordinates": [[[-83.109191, 35.00118], [-83.350176, 34.716379], [-83.651408, 34.820441], [-83.547346, 34.990226], [-83.481623, 34.995703], [-83.109191, 35.00118]]]}}, {"type": "Feature", "properties": {"name": "Jo Daviess", "id": "17085", "FIPS": "17085", "FIPS State": 17, "ST": "IL", "County": "Jo Daviess County,IL", "State": "Illinois"}, "geometry": {"type": "Polygon", "coordinates": [[[-90.639984, 42.510065], [-90.426383, 42.504588], [-89.927981, 42.504588], [-89.917028, 42.197879], [-90.316844, 42.192402], [-90.475675, 42.384095], [-90.639984, 42.510065]]]}}, {"type": "Feature", "properties": {"name": "Bourbon", "id": "20011", "FIPS": "20011", "FIPS State": 20, "ST": "KS", "County": "Bourbon County,KS", "State": "Kansas"}, "geometry": {"type": "Polygon", "coordinates": [[[-94.933905, 38.035405], [-94.616242, 38.035405], [-94.616242, 37.673926], [-94.884612, 37.673926], [-95.087259, 37.673926], [-95.087259, 37.734173], [-95.076305, 38.035405], [-94.933905, 38.035405]]]}}, {"type": "Feature", "properties": {"name": "Calhoun", "id": "54013", "FIPS": "54013", "FIPS State": 54, "ST": "WV", "County": "Calhoun County,WV", "State": "West Virginia"}, "geometry": {"type": "Polygon", "coordinates": [[[-81.115584, 39.037685], [-81.03343, 39.0103], [-80.984138, 38.720022], [-81.03343, 38.665253], [-81.055338, 38.643345], [-81.082723, 38.610483], [-81.279893, 38.917192], [-81.164877, 39.032208], [-81.115584, 39.037685]]]}}, {"type": "Feature", "properties": {"name": "Tift", "id": "13277", "FIPS": "13277", "FIPS State": 13, "ST": "GA", "County": "Tift County,GA", "State": "Georgia"}, "geometry": {"type": "Polygon", "coordinates": [[[-83.645931, 31.594523], [-83.498053, 31.594523], [-83.339222, 31.47403], [-83.43233, 31.34806], [-83.514484, 31.326153], [-83.651408, 31.331629], [-83.651408, 31.567138], [-83.645931, 31.594523]]]}}, {"type": "Feature", "properties": {"name": "Cherokee", "id": "20021", "FIPS": "20021", "FIPS State": 20, "ST": "KS", "County": "Cherokee County,KS", "State": "Kansas"}, "geometry": {"type": "Polygon", "coordinates": [[[-94.829843, 37.339833], [-94.616242, 37.339833], [-94.616242, 37.055032], [-94.616242, 37.055032], [-94.616242, 37.000263], [-94.994151, 37.000263], [-95.005105, 37.000263], [-95.070828, 37.000263], [-95.076305, 37.339833], [-94.829843, 37.339833]]]}}, {"type": "Feature", "properties": {"name": "Knox", "id": "31107", "FIPS": "31107", "FIPS State": 31, "ST": "NE", "County": "Knox County,NE", "State": "Nebraska"}, "geometry": {"type": "Polygon", "coordinates": [[[-98.3077, 42.882497], [-98.154346, 42.838681], [-97.634037, 42.849635], [-97.486159, 42.849635], [-97.486159, 42.438865], [-97.836683, 42.438865], [-98.302223, 42.438865], [-98.3077, 42.762004], [-98.3077, 42.882497]]]}}, {"type": "Feature", "properties": {"name": "Decatur", "id": "19053", "FIPS": "19053", "FIPS State": 19, "ST": "IA", "County": "Decatur County,IA", "State": "Iowa"}, "geometry": {"type": "Polygon", "coordinates": [[[-93.663255, 40.899844], [-93.559193, 40.899844], [-93.559193, 40.582182], [-93.772794, 40.576705], [-94.013779, 40.571228], [-94.013779, 40.894367], [-93.663255, 40.899844]]]}}, {"type": "Feature", "properties": {"name": "Montezuma", "id": "08083", "FIPS": "08083", "FIPS State": 8, "ST": "CO", "County": "Montezuma County,CO", "State": "Colorado"}, "geometry": {"type": "Polygon", "coordinates": [[[-107.9745, 37.641065], [-108.379794, 37.000263], [-109.042503, 37.000263], [-109.042503, 37.482234], [-107.9745, 37.641065]]]}}, {"type": "Feature", "properties": {"name": "Tunica", "id": "28143", "FIPS": "28143", "FIPS State": 28, "ST": "MS", "County": "Tunica County,MS", "State": "Mississippi"}, "geometry": {"type": "Polygon", "coordinates": [[[-90.267552, 34.858779], [-90.201828, 34.721856], [-90.196352, 34.55207], [-90.196352, 34.508255], [-90.398998, 34.426101], [-90.568783, 34.524686], [-90.585214, 34.639701], [-90.409952, 34.831394], [-90.30589, 34.858779], [-90.267552, 34.858779]]]}}, {"type": "Feature", "properties": {"name": "Buchanan", "id": "19019", "FIPS": "19019", "FIPS State": 19, "ST": "IA", "County": "Buchanan County,IA", "State": "Iowa"}, "geometry": {"type": "Polygon", "coordinates": [[[-91.905157, 42.641511], [-91.609402, 42.641511], [-91.598448, 42.296464], [-91.713464, 42.296464], [-91.82848, 42.296464], [-91.888726, 42.296464], [-92.063988, 42.296464], [-92.080419, 42.641511], [-91.905157, 42.641511]]]}}, {"type": "Feature", "properties": {"name": "Gallia", "id": "39053", "FIPS": "39053", "FIPS State": 39, "ST": "OH", "County": "Gallia County,OH", "State": "Ohio"}, "geometry": {"type": "Polygon", "coordinates": [[[-82.435527, 39.037685], [-82.320511, 39.026731], [-82.101434, 38.95553], [-82.216449, 38.594052], [-82.265742, 38.599529], [-82.28765, 38.583099], [-82.577927, 38.845992], [-82.435527, 39.037685]]]}}, {"type": "Feature", "properties": {"name": "Oscoda", "id": "26135", "FIPS": "26135", "FIPS State": 26, "ST": "MI", "County": "Oscoda County,MI", "State": "Michigan"}, "geometry": {"type": "Polygon", "coordinates": [[[-83.952639, 44.854195], [-83.886916, 44.854195], [-83.886916, 44.509148], [-83.925255, 44.509148], [-84.368887, 44.509148], [-84.374364, 44.854195], [-83.952639, 44.854195]]]}}, {"type": "Feature", "properties": {"name": "Burt", "id": "31021", "FIPS": "31021", "FIPS State": 31, "ST": "NE", "County": "Burt County,NE", "State": "Nebraska"}, "geometry": {"type": "Polygon", "coordinates": [[[-96.270278, 42.044525], [-96.138832, 41.863786], [-96.122401, 41.683047], [-96.407202, 41.683047], [-96.44554, 41.683047], [-96.555079, 41.743293], [-96.555079, 42.01714], [-96.270278, 42.044525]]]}}, {"type": "Feature", "properties": {"name": "Douglas", "id": "29067", "FIPS": "29067", "FIPS State": 29, "ST": "MO", "County": "Douglas County,MO", "State": "Missouri"}, "geometry": {"type": "Polygon", "coordinates": [[[-92.688359, 37.065986], [-92.250204, 37.060509], [-92.091373, 37.055032], [-92.113281, 36.792139], [-92.529528, 36.803093], [-92.765037, 36.80857], [-92.907437, 36.80857], [-92.90196, 37.071463], [-92.688359, 37.065986]]]}}, {"type": "Feature", "properties": {"name": "Sanpete", "id": "49039", "FIPS": "49039", "FIPS State": 49, "ST": "UT", "County": "Sanpete County,UT", "State": "Utah"}, "geometry": {"type": "Polygon", "coordinates": [[[-111.556419, 39.81541], [-111.24971, 39.81541], [-111.24971, 39.705871], [-111.299003, 39.032208], [-111.978143, 39.043162], [-112.016482, 39.043162], [-112.016482, 39.317009], [-111.64405, 39.81541], [-111.556419, 39.81541]]]}}, {"type": "Feature", "properties": {"name": "Bell", "id": "21013", "FIPS": "21013", "FIPS State": 21, "ST": "KY", "County": "Bell County,KY", "State": "Kentucky"}, "geometry": {"type": "Polygon", "coordinates": [[[-83.509007, 36.940016], [-83.492576, 36.896201], [-83.459715, 36.666169], [-83.673316, 36.600446], [-83.930732, 36.589492], [-83.875962, 36.688077], [-83.591161, 36.956447], [-83.509007, 36.940016]]]}}, {"type": "Feature", "properties": {"name": "Saline", "id": "29195", "FIPS": "29195", "FIPS State": 29, "ST": "MO", "County": "Saline County,MO", "State": "Missouri"}, "geometry": {"type": "Polygon", "coordinates": [[[-93.274392, 39.317009], [-93.104607, 39.382732], [-92.847191, 39.223901], [-92.934822, 39.065069], [-93.049837, 38.928146], [-93.498947, 38.944577], [-93.477039, 39.295101], [-93.274392, 39.317009]]]}}, {"type": "Feature", "properties": {"name": "Nicholas", "id": "54067", "FIPS": "54067", "FIPS State": 54, "ST": "WV", "County": "Nicholas County,WV", "State": "West Virginia"}, "geometry": {"type": "Polygon", "coordinates": [[[-80.677429, 38.533806], [-80.650044, 38.528329], [-80.436444, 38.265436], [-80.880076, 38.101128], [-81.192262, 38.232574], [-81.2306, 38.265436], [-81.2306, 38.265436], [-80.880076, 38.506421], [-80.677429, 38.533806]]]}}, {"type": "Feature", "properties": {"name": "Price", "id": "55099", "FIPS": "55099", "FIPS State": 55, "ST": "WI", "County": "Price County,WI", "State": "Wisconsin"}, "geometry": {"type": "Polygon", "coordinates": [[[-90.300413, 45.982445], [-90.042997, 45.982445], [-90.042997, 45.894814], [-90.042997, 45.555244], [-90.042997, 45.379982], [-90.168967, 45.379982], [-90.678322, 45.379982], [-90.678322, 45.637398], [-90.678322, 45.982445], [-90.300413, 45.982445]]]}}, {"type": "Feature", "properties": {"name": "Montgomery", "id": "21173", "FIPS": "21173", "FIPS State": 21, "ST": "KY", "County": "Montgomery County,KY", "State": "Kentucky"}, "geometry": {"type": "Polygon", "coordinates": [[[-84.040271, 38.144943], [-83.980024, 38.194236], [-83.760947, 37.997066], [-83.766424, 37.920389], [-83.96907, 37.931343], [-84.078609, 38.117559], [-84.040271, 38.144943]]]}}, {"type": "Feature", "properties": {"name": "Preston", "id": "54077", "FIPS": "54077", "FIPS State": 54, "ST": "WV", "County": "Preston County,WV", "State": "West Virginia"}, "geometry": {"type": "Polygon", "coordinates": [[[-79.609426, 39.722302], [-79.477979, 39.722302], [-79.488933, 39.20747], [-79.488933, 39.196516], [-79.812073, 39.229378], [-79.894227, 39.300578], [-79.894227, 39.437501], [-79.76278, 39.722302], [-79.609426, 39.722302]]]}}, {"type": "Feature", "properties": {"name": "Idaho", "id": "16049", "FIPS": "16049", "FIPS State": 16, "ST": "ID", "County": "Idaho County,ID", "State": "Idaho"}, "geometry": {"type": "Polygon", "coordinates": [[[-114.333228, 46.661586], [-114.557782, 45.566198], [-114.694706, 45.199243], [-115.828432, 45.193766], [-116.146095, 45.106135], [-116.688312, 45.270443], [-116.463758, 45.61549], [-116.792374, 45.856475], [-116.699266, 45.998876], [-116.168003, 46.371308], [-114.596121, 46.634201], [-114.333228, 46.661586]]]}}, {"type": "Feature", "properties": {"name": "Duplin", "id": "37061", "FIPS": "37061", "FIPS State": 37, "ST": "NC", "County": "Duplin County,NC", "State": "North Carolina"}, "geometry": {"type": "Polygon", "coordinates": [[[-78.043021, 35.192872], [-77.834897, 35.176442], [-77.730835, 35.006656], [-77.676066, 34.973795], [-77.681543, 34.721856], [-78.015636, 34.732809], [-78.114221, 34.721856], [-78.163514, 35.187396], [-78.043021, 35.192872]]]}}, {"type": "Feature", "properties": {"name": "Cass", "id": "19029", "FIPS": "19029", "FIPS State": 19, "ST": "IA", "County": "Cass County,IA", "State": "Iowa"}, "geometry": {"type": "Polygon", "coordinates": [[[-95.152983, 41.507785], [-95.043444, 41.502308], [-94.698396, 41.502308], [-94.698396, 41.157261], [-94.813412, 41.157261], [-94.928428, 41.157261], [-95.158459, 41.157261], [-95.152983, 41.507785]]]}}, {"type": "Feature", "properties": {"name": "Atascosa", "id": "48013", "FIPS": "48013", "FIPS State": 48, "ST": "TX", "County": "Atascosa County,TX", "State": "Texas"}, "geometry": {"type": "Polygon", "coordinates": [[[-98.800625, 29.250392], [-98.406285, 29.113469], [-98.192684, 28.883437], [-98.099576, 28.784852], [-98.335085, 28.615067], [-98.581547, 28.642452], [-98.800625, 28.636975], [-98.800625, 28.647929], [-98.806102, 29.091561], [-98.806102, 29.250392], [-98.800625, 29.250392]]]}}, {"type": "Feature", "properties": {"name": "Teton", "id": "30099", "FIPS": "30099", "FIPS State": 30, "ST": "MT", "County": "Teton County,MT", "State": "Montana"}, "geometry": {"type": "Polygon", "coordinates": [[[-112.898269, 48.134883], [-111.408542, 47.987005], [-111.408542, 47.696727], [-111.419495, 47.696727], [-112.049344, 47.515988], [-112.816115, 47.609096], [-112.9859, 47.954144], [-113.018762, 48.134883], [-112.898269, 48.134883]]]}}, {"type": "Feature", "properties": {"name": "Marshall", "id": "20117", "FIPS": "20117", "FIPS State": 20, "ST": "KS", "County": "Marshall County,KS", "State": "Kansas"}, "geometry": {"type": "Polygon", "coordinates": [[[-96.692003, 40.001626], [-96.461971, 40.001626], [-96.237417, 40.001626], [-96.237417, 39.568948], [-96.582464, 39.568948], [-96.582464, 39.568948], [-96.692003, 39.568948], [-96.807019, 39.568948], [-96.807019, 40.001626], [-96.692003, 40.001626]]]}}, {"type": "Feature", "properties": {"name": "Jefferson", "id": "20087", "FIPS": "20087", "FIPS State": 20, "ST": "KS", "County": "Jefferson County,KS", "State": "Kansas"}, "geometry": {"type": "Polygon", "coordinates": [[[-95.465168, 39.42107], [-95.180367, 39.42107], [-95.185844, 39.043162], [-95.49803, 39.054115], [-95.591138, 39.218424], [-95.56923, 39.42107], [-95.465168, 39.42107]]]}}, {"type": "Feature", "properties": {"name": "Jackson", "id": "54035", "FIPS": "54035", "FIPS State": 54, "ST": "WV", "County": "Jackson County,WV", "State": "West Virginia"}, "geometry": {"type": "Polygon", "coordinates": [[[-81.739956, 39.092454], [-81.581124, 39.026731], [-81.504447, 38.917192], [-81.520878, 38.610483], [-81.69614, 38.626914], [-81.772817, 38.681683], [-81.909741, 38.878853], [-81.745433, 39.097931], [-81.739956, 39.092454]]]}}, {"type": "Feature", "properties": {"name": "Cloud", "id": "20029", "FIPS": "20029", "FIPS State": 20, "ST": "KS", "County": "Cloud County,KS", "State": "Kansas"}, "geometry": {"type": "Polygon", "coordinates": [[[-97.69976, 39.656579], [-97.371143, 39.656579], [-97.371143, 39.568948], [-97.371143, 39.306055], [-97.590221, 39.306055], [-97.929791, 39.306055], [-97.929791, 39.568948], [-97.929791, 39.656579], [-97.69976, 39.656579]]]}}, {"type": "Feature", "properties": {"name": "Pike", "id": "17149", "FIPS": "17149", "FIPS State": 17, "ST": "IL", "County": "Pike County,IL", "State": "Illinois"}, "geometry": {"type": "Polygon", "coordinates": [[[-90.919308, 39.842795], [-90.57426, 39.837318], [-90.601645, 39.788025], [-90.579737, 39.519655], [-90.612599, 39.393686], [-90.935738, 39.399163], [-91.176724, 39.596333], [-91.30817, 39.683964], [-91.36294, 39.760641], [-90.919308, 39.842795]]]}}, {"type": "Feature", "properties": {"name": "Mineral", "id": "54057", "FIPS": "54057", "FIPS State": 54, "ST": "WV", "County": "Mineral County,WV", "State": "West Virginia"}, "geometry": {"type": "Polygon", "coordinates": [[[-78.738592, 39.623717], [-78.656438, 39.536086], [-78.979578, 39.240331], [-79.275332, 39.327962], [-79.067209, 39.47584], [-78.738592, 39.623717]]]}}, {"type": "Feature", "properties": {"name": "Baker", "id": "12003", "FIPS": "12003", "FIPS State": 12, "ST": "FL", "County": "Baker County,FL", "State": "Florida"}, "geometry": {"type": "Polygon", "coordinates": [[[-82.419096, 30.581289], [-82.216449, 30.570335], [-82.052141, 30.362211], [-82.046664, 30.27458], [-82.052141, 30.186949], [-82.052141, 30.143133], [-82.145249, 30.143133], [-82.298603, 30.143133], [-82.457435, 30.137656], [-82.457435, 30.586766], [-82.419096, 30.581289]]]}}, {"type": "Feature", "properties": {"name": "Amelia", "id": "51007", "FIPS": "51007", "FIPS State": 51, "ST": "VA", "County": "Amelia County,VA", "State": "Virginia"}, "geometry": {"type": "Polygon", "coordinates": [[[-77.988251, 37.48771], [-77.856805, 37.41651], [-77.648681, 37.263156], [-77.796559, 37.191956], [-78.229237, 37.296018], [-78.234714, 37.367218], [-78.130652, 37.454849], [-77.988251, 37.48771]]]}}, {"type": "Feature", "properties": {"name": "Lamar", "id": "28073", "FIPS": "28073", "FIPS State": 28, "ST": "MS", "County": "Lamar County,MS", "State": "Mississippi"}, "geometry": {"type": "Polygon", "coordinates": [[[-89.451488, 31.435691], [-89.347426, 31.00849], [-89.599365, 31.003013], [-89.654134, 31.003013], [-89.654134, 31.435691], [-89.588411, 31.435691], [-89.451488, 31.435691]]]}}, {"type": "Feature", "properties": {"name": "Arkansas", "id": "05001", "FIPS": "05001", "FIPS State": 5, "ST": "AR", "County": "Arkansas County,AR", "State": "Arkansas"}, "geometry": {"type": "Polygon", "coordinates": [[[-91.587494, 34.568501], [-91.379371, 34.563024], [-91.056231, 34.33847], [-91.116477, 34.119392], [-91.423186, 34.01533], [-91.445094, 34.081054], [-91.70251, 34.48087], [-91.680602, 34.48087], [-91.587494, 34.568501]]]}}, {"type": "Feature", "properties": {"name": "Newton", "id": "05101", "FIPS": "05101", "FIPS State": 5, "ST": "AR", "County": "Newton County,AR", "State": "Arkansas"}, "geometry": {"type": "Polygon", "coordinates": [[[-93.301777, 36.123952], [-92.945776, 36.112998], [-92.951253, 35.724136], [-93.016976, 35.724136], [-93.164853, 35.729613], [-93.520854, 35.762474], [-93.477039, 36.123952], [-93.301777, 36.123952]]]}}, {"type": "Feature", "properties": {"name": "Lemhi", "id": "16059", "FIPS": "16059", "FIPS State": 16, "ST": "ID", "County": "Lemhi County,ID", "State": "Idaho"}, "geometry": {"type": "Polygon", "coordinates": [[[-113.944365, 45.68669], [-113.456917, 44.865149], [-112.816115, 44.377701], [-112.996854, 44.235301], [-113.002331, 44.235301], [-113.319994, 44.235301], [-114.196304, 44.859672], [-114.563259, 44.574871], [-114.809722, 44.81038], [-114.694706, 45.199243], [-114.557782, 45.566198], [-113.944365, 45.68669]]]}}, {"type": "Feature", "properties": {"name": "Daviess", "id": "18027", "FIPS": "18027", "FIPS State": 18, "ST": "IN", "County": "Daviess County,IN", "State": "Indiana"}, "geometry": {"type": "Polygon", "coordinates": [[[-87.096403, 38.906238], [-86.90471, 38.906238], [-86.926618, 38.506421], [-87.074495, 38.517375], [-87.244281, 38.54476], [-87.096403, 38.906238]]]}}, {"type": "Feature", "properties": {"name": "Washington", "id": "18175", "FIPS": "18175", "FIPS State": 18, "ST": "IN", "County": "Washington County,IN", "State": "Indiana"}, "geometry": {"type": "Polygon", "coordinates": [[[-86.274862, 38.763838], [-85.885999, 38.736453], [-85.847661, 38.561191], [-85.995538, 38.41879], [-86.011969, 38.41879], [-86.033877, 38.41879], [-86.198185, 38.424267], [-86.252954, 38.424267], [-86.307724, 38.424267], [-86.307724, 38.68716], [-86.274862, 38.763838]]]}}, {"type": "Feature", "properties": {"name": "Newton", "id": "29145", "FIPS": "29145", "FIPS State": 29, "ST": "MO", "County": "Newton County,MO", "State": "Missouri"}, "geometry": {"type": "Polygon", "coordinates": [[[-94.616242, 37.055032], [-94.616242, 37.055032], [-94.057594, 37.049555], [-94.063071, 36.929063], [-94.068548, 36.748324], [-94.539565, 36.764754], [-94.616242, 36.764754], [-94.616242, 37.000263], [-94.616242, 37.055032]]]}}, {"type": "Feature", "properties": {"name": "Jefferson", "id": "13163", "FIPS": "13163", "FIPS State": 13, "ST": "GA", "County": "Jefferson County,GA", "State": "Georgia"}, "geometry": {"type": "Polygon", "coordinates": [[[-82.386235, 33.314282], [-82.353373, 33.314282], [-82.265742, 33.264989], [-82.315034, 32.837788], [-82.435527, 32.761111], [-82.523158, 32.821357], [-82.660082, 33.128066], [-82.43005, 33.275943], [-82.386235, 33.314282]]]}}, {"type": "Feature", "properties": {"name": "Spencer", "id": "21215", "FIPS": "21215", "FIPS State": 21, "ST": "KY", "County": "Spencer County,KY", "State": "Kentucky"}, "geometry": {"type": "Polygon", "coordinates": [[[-85.425936, 38.144943], [-85.102797, 38.035405], [-85.16852, 37.969681], [-85.49166, 37.991589], [-85.431413, 38.117559], [-85.425936, 38.144943]]]}}, {"type": "Feature", "properties": {"name": "Moultrie", "id": "17139", "FIPS": "17139", "FIPS State": 17, "ST": "IL", "County": "Moultrie County,IL", "State": "Illinois"}, "geometry": {"type": "Polygon", "coordinates": [[[-88.761393, 39.793502], [-88.744962, 39.793502], [-88.471115, 39.793502], [-88.471115, 39.651102], [-88.471115, 39.448455], [-88.810686, 39.651102], [-88.761393, 39.793502]]]}}, {"type": "Feature", "properties": {"name": "Monroe", "id": "01099", "FIPS": "01099", "FIPS State": 1, "ST": "AL", "County": "Monroe County,AL", "State": "Alabama"}, "geometry": {"type": "Polygon", "coordinates": [[[-87.501697, 31.830031], [-86.90471, 31.830031], [-86.90471, 31.753354], [-86.910187, 31.753354], [-87.42502, 31.260429], [-87.616713, 31.243998], [-87.76459, 31.298768], [-87.501697, 31.830031]]]}}, {"type": "Feature", "properties": {"name": "Teton", "id": "16081", "FIPS": "16081", "FIPS State": 16, "ST": "ID", "County": "Teton County,ID", "State": "Idaho"}, "geometry": {"type": "Polygon", "coordinates": [[[-111.047063, 43.983362], [-111.047063, 43.501391], [-111.397588, 43.621884], [-111.397588, 43.923115], [-111.047063, 43.983362]]]}}, {"type": "Feature", "properties": {"name": "Knott", "id": "21119", "FIPS": "21119", "FIPS State": 21, "ST": "KY", "County": "Knott County,KY", "State": "Kentucky"}, "geometry": {"type": "Polygon", "coordinates": [[[-82.944882, 37.498664], [-82.922975, 37.48771], [-82.709374, 37.285064], [-82.731282, 37.27411], [-82.999652, 37.197433], [-83.125621, 37.405556], [-82.950359, 37.504141], [-82.944882, 37.498664]]]}}, {"type": "Feature", "properties": {"name": "Jefferson", "id": "30043", "FIPS": "30043", "FIPS State": 30, "ST": "MT", "County": "Jefferson County,MT", "State": "Montana"}, "geometry": {"type": "Polygon", "coordinates": [[[-111.967189, 46.568478], [-111.78645, 46.568478], [-111.660481, 45.834568], [-111.802881, 45.796229], [-111.967189, 45.850998], [-112.191744, 45.746937], [-112.57513, 46.179615], [-112.558699, 46.267246], [-112.312237, 46.4206], [-111.967189, 46.568478]]]}}, {"type": "Feature", "properties": {"name": "Graham", "id": "04009", "FIPS": "04009", "FIPS State": 4, "ST": "AZ", "County": "Graham County,AZ", "State": "Arizona"}, "geometry": {"type": "Polygon", "coordinates": [[[-109.743552, 33.500498], [-109.497089, 33.653852], [-109.497089, 33.078773], [-109.113704, 32.427018], [-109.831183, 32.427018], [-110.450077, 32.427018], [-110.450077, 32.514649], [-110.450077, 33.193789], [-110.000968, 33.577175], [-109.891429, 33.566221], [-109.743552, 33.500498]]]}}, {"type": "Feature", "properties": {"name": "Ritchie", "id": "54085", "FIPS": "54085", "FIPS State": 54, "ST": "WV", "County": "Ritchie County,WV", "State": "West Virginia"}, "geometry": {"type": "Polygon", "coordinates": [[[-81.016999, 39.34987], [-81.006046, 39.34987], [-80.89103, 39.295101], [-80.814353, 39.108885], [-81.03343, 39.0103], [-81.115584, 39.037685], [-81.164877, 39.032208], [-81.296323, 39.185562], [-81.241554, 39.267716], [-81.016999, 39.34987]]]}}, {"type": "Feature", "properties": {"name": "Currituck", "id": "37053", "FIPS": "37053", "FIPS State": 37, "ST": "NC", "County": "Currituck County,NC", "State": "North Carolina"}, "geometry": {"type": "Polygon", "coordinates": [[[-75.901537, 36.551154], [-75.868676, 36.551154], [-75.775568, 36.233491], [-75.791998, 36.228014], [-75.885106, 36.162291], [-76.312308, 36.551154], [-76.120615, 36.551154], [-75.901537, 36.551154]]]}}, {"type": "Feature", "properties": {"name": "Escambia", "id": "01053", "FIPS": "01053", "FIPS State": 1, "ST": "AL", "County": "Escambia County,AL", "State": "Alabama"}, "geometry": {"type": "Polygon", "coordinates": [[[-86.948526, 31.260429], [-86.702064, 31.194706], [-86.685633, 30.992059], [-86.784218, 30.997536], [-87.162127, 30.997536], [-87.249758, 30.997536], [-87.600282, 30.997536], [-87.616713, 31.243998], [-87.42502, 31.260429], [-86.948526, 31.260429]]]}}, {"type": "Feature", "properties": {"name": "Macon", "id": "29121", "FIPS": "29121", "FIPS State": 29, "ST": "MO", "County": "Macon County,MO", "State": "Missouri"}, "geometry": {"type": "Polygon", "coordinates": [[[-92.677405, 40.039965], [-92.343312, 40.039965], [-92.288543, 39.952334], [-92.299497, 39.607286], [-92.299497, 39.607286], [-92.693836, 39.612763], [-92.858145, 39.700394], [-92.847191, 40.039965], [-92.677405, 40.039965]]]}}, {"type": "Feature", "properties": {"name": "Leelanau", "id": "26089", "FIPS": "26089", "FIPS State": 26, "ST": "MI", "County": "Leelanau County,MI", "State": "Michigan"}, "geometry": {"type": "Polygon", "coordinates": [[[-85.639537, 44.777518], [-85.814799, 44.772041], [-86.039354, 44.777518], [-86.072215, 44.777518], [-85.617629, 45.188289], [-85.639537, 44.777518]]]}}, {"type": "Feature", "properties": {"name": "Westmoreland", "id": "51193", "FIPS": "51193", "FIPS State": 51, "ST": "VA", "County": "Westmoreland County,VA", "State": "Virginia"}, "geometry": {"type": "Polygon", "coordinates": [[[-76.520431, 38.035405], [-76.635447, 37.964204], [-76.914771, 38.095651], [-76.936679, 38.07922], [-77.062649, 38.161374], [-76.996925, 38.27639], [-76.520431, 38.035405]]]}}, {"type": "Feature", "properties": {"name": "Fillmore", "id": "31059", "FIPS": "31059", "FIPS State": 31, "ST": "NE", "County": "Fillmore County,NE", "State": "Nebraska"}, "geometry": {"type": "Polygon", "coordinates": [[[-97.798345, 40.697198], [-97.365666, 40.697198], [-97.365666, 40.35215], [-97.50259, 40.35215], [-97.820252, 40.35215], [-97.825729, 40.35215], [-97.825729, 40.697198], [-97.798345, 40.697198]]]}}, {"type": "Feature", "properties": {"name": "Wabash", "id": "18169", "FIPS": "18169", "FIPS State": 18, "ST": "IN", "County": "Wabash County,IN", "State": "Indiana"}, "geometry": {"type": "Polygon", "coordinates": [[[-85.683353, 41.047722], [-85.645014, 41.003906], [-85.639537, 40.653382], [-85.864092, 40.653382], [-85.946246, 40.998429], [-85.946246, 41.042245], [-85.683353, 41.047722]]]}}, {"type": "Feature", "properties": {"name": "Henderson", "id": "47077", "FIPS": "47077", "FIPS State": 47, "ST": "TN", "County": "Henderson County,TN", "State": "Tennessee"}, "geometry": {"type": "Polygon", "coordinates": [[[-88.514931, 35.822721], [-88.180837, 35.817244], [-88.241084, 35.422904], [-88.361576, 35.417427], [-88.613516, 35.587212], [-88.608039, 35.789859], [-88.514931, 35.822721]]]}}, {"type": "Feature", "properties": {"name": "Alger", "id": "26003", "FIPS": "26003", "FIPS State": 26, "ST": "MI", "County": "Alger County,MI", "State": "Michigan"}, "geometry": {"type": "Polygon", "coordinates": [[[-85.864092, 46.68897], [-85.864092, 46.502754], [-86.001015, 46.502754], [-86.614433, 46.157707], [-87.118311, 46.157707], [-87.118311, 46.497277], [-86.696587, 46.437031], [-85.864092, 46.68897]]]}}, {"type": "Feature", "properties": {"name": "Buckingham", "id": "51029", "FIPS": "51029", "FIPS State": 51, "ST": "VA", "County": "Buckingham County,VA", "State": "Virginia"}, "geometry": {"type": "Polygon", "coordinates": [[[-78.49213, 37.794419], [-78.240191, 37.690357], [-78.464745, 37.339833], [-78.596192, 37.400079], [-78.826223, 37.553434], [-78.645484, 37.734173], [-78.49213, 37.794419]]]}}, {"type": "Feature", "properties": {"name": "Leflore", "id": "28083", "FIPS": "28083", "FIPS State": 28, "ST": "MS", "County": "Leflore County,MS", "State": "Mississippi"}, "geometry": {"type": "Polygon", "coordinates": [[[-90.453768, 33.812683], [-90.136105, 33.719575], [-90.130628, 33.67576], [-90.174444, 33.330713], [-90.333275, 33.303328], [-90.453768, 33.330713], [-90.453768, 33.812683]]]}}, {"type": "Feature", "properties": {"name": "Jefferson Davis", "id": "22053", "FIPS": "22053", "FIPS State": 22, "ST": "LA", "County": "Jefferson Davis County,LA", "State": "Louisiana"}, "geometry": {"type": "Polygon", "coordinates": [[[-92.770513, 30.488181], [-92.628113, 30.488181], [-92.63359, 30.482704], [-92.628113, 30.093841], [-92.737652, 30.039072], [-92.995068, 30.039072], [-93.131992, 30.40055], [-93.131992, 30.422457], [-92.770513, 30.488181]]]}}, {"type": "Feature", "properties": {"name": "Clarke", "id": "51043", "FIPS": "51043", "FIPS State": 51, "ST": "VA", "County": "Clarke County,VA", "State": "Virginia"}, "geometry": {"type": "Polygon", "coordinates": [[[-78.032067, 39.262239], [-78.032067, 39.262239], [-77.82942, 39.130793], [-77.960867, 39.015777], [-78.004682, 38.977438], [-78.15256, 39.037685], [-78.032067, 39.262239]]]}}, {"type": "Feature", "properties": {"name": "Woodruff", "id": "05147", "FIPS": "05147", "FIPS State": 5, "ST": "AR", "County": "Woodruff County,AR", "State": "Arkansas"}, "geometry": {"type": "Polygon", "coordinates": [[[-91.346509, 35.439335], [-91.0398, 35.351704], [-91.045277, 35.149057], [-91.149339, 35.00118], [-91.275309, 34.984749], [-91.368417, 34.913548], [-91.467002, 35.088811], [-91.346509, 35.439335]]]}}, {"type": "Feature", "properties": {"name": "Bath", "id": "51017", "FIPS": "51017", "FIPS State": 51, "ST": "VA", "County": "Bath County,VA", "State": "Virginia"}, "geometry": {"type": "Polygon", "coordinates": [[[-79.795642, 38.265436], [-79.510841, 38.177805], [-79.483456, 38.084697], [-79.653241, 37.871096], [-79.998289, 37.958727], [-80.058535, 37.95325], [-79.95995, 38.062789], [-79.795642, 38.265436]]]}}, {"type": "Feature", "properties": {"name": "Morgan", "id": "49029", "FIPS": "49029", "FIPS State": 49, "ST": "UT", "County": "Morgan County,UT", "State": "Utah"}, "geometry": {"type": "Polygon", "coordinates": [[[-111.419495, 41.359907], [-111.266141, 41.146307], [-111.638573, 40.801259], [-111.737158, 40.861506], [-111.857651, 41.14083], [-111.419495, 41.359907]]]}}, {"type": "Feature", "properties": {"name": "Grainger", "id": "47057", "FIPS": "47057", "FIPS State": 47, "ST": "TN", "County": "Grainger County,TN", "State": "Tennessee"}, "geometry": {"type": "Polygon", "coordinates": [[[-83.278976, 36.392322], [-83.257068, 36.288261], [-83.465192, 36.173245], [-83.602115, 36.151337], [-83.667839, 36.080137], [-83.733562, 36.162291], [-83.667839, 36.34303], [-83.388515, 36.41423], [-83.278976, 36.392322]]]}}, {"type": "Feature", "properties": {"name": "Jasper", "id": "28061", "FIPS": "28061", "FIPS State": 28, "ST": "MS", "County": "Jasper County,MS", "State": "Mississippi"}, "geometry": {"type": "Polygon", "coordinates": [[[-89.018809, 32.224371], [-88.914747, 32.224371], [-88.909271, 31.824554], [-88.942132, 31.824554], [-89.314564, 31.802646], [-89.320041, 32.224371], [-89.018809, 32.224371]]]}}, {"type": "Feature", "properties": {"name": "Avoyelles", "id": "22009", "FIPS": "22009", "FIPS State": 22, "ST": "LA", "County": "Avoyelles County,LA", "State": "Louisiana"}, "geometry": {"type": "Polygon", "coordinates": [[[-92.085896, 31.337106], [-92.009219, 31.326153], [-91.833957, 31.265906], [-91.724418, 31.046829], [-91.751803, 31.019444], [-91.762756, 31.00849], [-91.817526, 30.849659], [-92.085896, 30.849659], [-92.211866, 30.849659], [-92.283066, 30.964674], [-92.085896, 31.337106]]]}}, {"type": "Feature", "properties": {"name": "Maverick", "id": "48323", "FIPS": "48323", "FIPS State": 48, "ST": "TX", "County": "Maverick County,TX", "State": "Texas"}, "geometry": {"type": "Polygon", "coordinates": [[[-100.109614, 29.086084], [-100.115091, 28.647929], [-100.115091, 28.19882], [-100.213675, 28.19882], [-100.668261, 29.086084], [-100.109614, 29.086084]]]}}, {"type": "Feature", "properties": {"name": "Clay", "id": "17025", "FIPS": "17025", "FIPS State": 17, "ST": "IL", "County": "Clay County,IL", "State": "Illinois"}, "geometry": {"type": "Polygon", "coordinates": [[[-88.613516, 38.917192], [-88.361576, 38.911715], [-88.257515, 38.845992], [-88.252038, 38.599529], [-88.586131, 38.605006], [-88.701147, 38.605006], [-88.69567, 38.824084], [-88.69567, 38.917192], [-88.613516, 38.917192]]]}}, {"type": "Feature", "properties": {"name": "Adams", "id": "53001", "FIPS": "53001", "FIPS State": 53, "ST": "WA", "County": "Adams County,WA", "State": "Washington"}, "geometry": {"type": "Polygon", "coordinates": [[[-118.950288, 47.264049], [-117.958962, 47.258572], [-118.210901, 46.738263], [-119.213182, 46.738263], [-119.372013, 46.738263], [-118.977673, 47.264049], [-118.950288, 47.264049]]]}}, {"type": "Feature", "properties": {"name": "Custer", "id": "46033", "FIPS": "46033", "FIPS State": 46, "ST": "SD", "County": "Custer County,SD", "State": "South Dakota"}, "geometry": {"type": "Polygon", "coordinates": [[[-103.417686, 43.857392], [-102.809745, 43.687607], [-103.001438, 43.479483], [-103.937995, 43.479483], [-104.053011, 43.479483], [-104.053011, 43.501391], [-104.053011, 43.851915], [-103.417686, 43.857392]]]}}, {"type": "Feature", "properties": {"name": "Traill", "id": "38097", "FIPS": "38097", "FIPS State": 38, "ST": "ND", "County": "Traill County,ND", "State": "North Dakota"}, "geometry": {"type": "Polygon", "coordinates": [[[-97.475205, 47.669343], [-96.889173, 47.67482], [-96.850834, 47.499557], [-96.834403, 47.236664], [-97.453297, 47.236664], [-97.475205, 47.669343]]]}}, {"type": "Feature", "properties": {"name": "Webster", "id": "22119", "FIPS": "22119", "FIPS State": 22, "ST": "LA", "County": "Webster County,LA", "State": "Louisiana"}, "geometry": {"type": "Polygon", "coordinates": [[[-93.49347, 33.018527], [-93.487993, 33.018527], [-93.236053, 33.018527], [-93.181284, 32.585849], [-93.372977, 32.410587], [-93.520854, 33.018527], [-93.49347, 33.018527]]]}}, {"type": "Feature", "properties": {"name": "Griggs", "id": "38039", "FIPS": "38039", "FIPS State": 38, "ST": "ND", "County": "Griggs County,ND", "State": "North Dakota"}, "geometry": {"type": "Polygon", "coordinates": [[[-98.11053, 47.67482], [-97.984561, 47.67482], [-97.962653, 47.242141], [-98.088623, 47.242141], [-98.466531, 47.242141], [-98.499393, 47.324295], [-98.499393, 47.587189], [-98.499393, 47.67482], [-98.11053, 47.67482]]]}}, {"type": "Feature", "properties": {"name": "Custer", "id": "40039", "FIPS": "40039", "FIPS State": 40, "ST": "OK", "County": "Custer County,OK", "State": "Oklahoma"}, "geometry": {"type": "Polygon", "coordinates": [[[-98.817056, 35.811767], [-98.63084, 35.811767], [-98.625363, 35.548874], [-98.625363, 35.466719], [-99.16758, 35.466719], [-99.36475, 35.466719], [-99.36475, 35.510535], [-99.375704, 35.811767], [-98.817056, 35.811767]]]}}, {"type": "Feature", "properties": {"name": "Bandera", "id": "48019", "FIPS": "48019", "FIPS State": 48, "ST": "TX", "County": "Bandera County,TX", "State": "Texas"}, "geometry": {"type": "Polygon", "coordinates": [[[-99.600258, 29.907625], [-98.915641, 29.781655], [-98.778717, 29.721409], [-98.806102, 29.688547], [-99.414042, 29.628301], [-99.605735, 29.628301], [-99.600258, 29.907625]]]}}, {"type": "Feature", "properties": {"name": "Covington", "id": "28031", "FIPS": "28031", "FIPS State": 28, "ST": "MS", "County": "Covington County,MS", "State": "Mississippi"}, "geometry": {"type": "Polygon", "coordinates": [[[-89.402195, 31.797169], [-89.396718, 31.435691], [-89.42958, 31.435691], [-89.451488, 31.435691], [-89.588411, 31.435691], [-89.752719, 31.775262], [-89.654134, 31.780739], [-89.402195, 31.797169]]]}}, {"type": "Feature", "properties": {"name": "Jasper", "id": "48241", "FIPS": "48241", "FIPS State": 48, "ST": "TX", "County": "Jasper County,TX", "State": "Texas"}, "geometry": {"type": "Polygon", "coordinates": [[[-93.997348, 31.139937], [-93.909717, 31.156367], [-93.898763, 30.241718], [-94.117841, 30.241718], [-94.074025, 30.526519], [-94.29858, 31.035875], [-94.457411, 31.035875], [-94.128795, 31.101598], [-94.041164, 31.13446], [-93.997348, 31.139937]]]}}, {"type": "Feature", "properties": {"name": "Yancey", "id": "37199", "FIPS": "37199", "FIPS State": 37, "ST": "NC", "County": "Yancey County,NC", "State": "North Carolina"}, "geometry": {"type": "Polygon", "coordinates": [[[-82.419096, 36.07466], [-82.134295, 35.822721], [-82.276696, 35.702228], [-82.408142, 35.817244], [-82.506727, 35.976075], [-82.419096, 36.07466]]]}}, {"type": "Feature", "properties": {"name": "Morgan", "id": "21175", "FIPS": "21175", "FIPS State": 21, "ST": "KY", "County": "Morgan County,KY", "State": "Kentucky"}, "geometry": {"type": "Polygon", "coordinates": [[[-83.355653, 38.068266], [-83.262545, 38.117559], [-83.02156, 38.00802], [-82.988698, 37.964204], [-83.005129, 37.860142], [-83.262545, 37.712265], [-83.492576, 37.860142], [-83.43233, 38.035405], [-83.355653, 38.068266]]]}}, {"type": "Feature", "properties": {"name": "Charlevoix", "id": "26029", "FIPS": "26029", "FIPS State": 26, "ST": "MI", "County": "Charlevoix County,MI", "State": "Michigan"}, "geometry": {"type": "Polygon", "coordinates": [[[-85.09732, 45.363551], [-84.730365, 45.286874], [-84.735842, 45.204719], [-84.856335, 45.117088], [-85.321875, 45.204719], [-85.387598, 45.210196], [-85.09732, 45.369028], [-85.09732, 45.363551]]]}}, {"type": "Feature", "properties": {"name": "Norman", "id": "27107", "FIPS": "27107", "FIPS State": 27, "ST": "MN", "County": "Norman County,MN", "State": "Minnesota"}, "geometry": {"type": "Polygon", "coordinates": [[[-96.23194, 47.499557], [-96.067632, 47.499557], [-96.067632, 47.149033], [-96.193601, 47.149033], [-96.582464, 47.149033], [-96.828926, 47.149033], [-96.834403, 47.236664], [-96.850834, 47.499557], [-96.23194, 47.499557]]]}}, {"type": "Feature", "properties": {"name": "Lincoln", "id": "46083", "FIPS": "46083", "FIPS State": 46, "ST": "SD", "County": "Lincoln County,SD", "State": "South Dakota"}, "geometry": {"type": "Polygon", "coordinates": [[[-96.779634, 43.501391], [-96.598895, 43.501391], [-96.555079, 43.260406], [-96.456494, 43.085144], [-96.626279, 43.085144], [-96.807019, 43.085144], [-96.922034, 43.085144], [-96.922034, 43.501391], [-96.779634, 43.501391]]]}}, {"type": "Feature", "properties": {"name": "Taos", "id": "35055", "FIPS": "35055", "FIPS State": 35, "ST": "NM", "County": "Taos County,NM", "State": "New Mexico"}, "geometry": {"type": "Polygon", "coordinates": [[[-105.219599, 36.994786], [-105.340092, 36.260876], [-105.531785, 36.014414], [-105.958986, 36.353984], [-106.008278, 36.994786], [-105.718001, 36.994786], [-105.219599, 36.994786]]]}}, {"type": "Feature", "properties": {"name": "Iosco", "id": "26069", "FIPS": "26069", "FIPS State": 26, "ST": "MI", "County": "Iosco County,MI", "State": "Michigan"}, "geometry": {"type": "Polygon", "coordinates": [[[-83.563777, 44.164101], [-83.569254, 44.164101], [-83.886916, 44.164101], [-83.886916, 44.509148], [-83.317314, 44.509148], [-83.563777, 44.164101]]]}}, {"type": "Feature", "properties": {"name": "Gulf", "id": "12045", "FIPS": "12045", "FIPS State": 12, "ST": "FL", "County": "Gulf County,FL", "State": "Florida"}, "geometry": {"type": "Polygon", "coordinates": [[[-85.22329, 30.20338], [-85.113751, 30.197903], [-85.02612, 29.973348], [-85.217813, 29.694024], [-85.387598, 29.924056], [-85.387598, 30.20338], [-85.22329, 30.20338]]]}}, {"type": "Feature", "properties": {"name": "Polk", "id": "13233", "FIPS": "13233", "FIPS State": 13, "ST": "GA", "County": "Polk County,GA", "State": "Georgia"}, "geometry": {"type": "Polygon", "coordinates": [[[-85.42046, 34.081054], [-85.048028, 34.097484], [-84.922058, 34.081054], [-85.048028, 33.905791], [-85.310921, 33.900315], [-85.387598, 33.900315], [-85.398552, 33.966038], [-85.42046, 34.081054]]]}}, {"type": "Feature", "properties": {"name": "Aransas", "id": "48007", "FIPS": "48007", "FIPS State": 48, "ST": "TX", "County": "Aransas County,TX", "State": "Texas"}, "geometry": {"type": "MultiPolygon", "coordinates": [[[[-96.801542, 28.275497], [-96.812495, 28.21525], [-97.135635, 27.903065], [-97.261605, 28.078327], [-96.790588, 28.319312], [-96.801542, 28.275497]]], [[[-96.828926, 28.111189], [-96.856311, 28.061896], [-97.048004, 27.837342], [-97.053481, 27.842818], [-96.828926, 28.111189]]]]}}, {"type": "Feature", "properties": {"name": "Warren", "id": "28149", "FIPS": "28149", "FIPS State": 28, "ST": "MS", "County": "Warren County,MS", "State": "Mississippi"}, "geometry": {"type": "Polygon", "coordinates": [[[-91.045277, 32.574895], [-90.722138, 32.61871], [-90.552353, 32.509172], [-90.727615, 32.224371], [-91.028846, 32.114832], [-91.028846, 32.120309], [-91.050754, 32.125786], [-91.121954, 32.213417], [-91.067185, 32.563941], [-91.045277, 32.574895]]]}}, {"type": "Feature", "properties": {"name": "Milam", "id": "48331", "FIPS": "48331", "FIPS State": 48, "ST": "TX", "County": "Milam County,TX", "State": "Texas"}, "geometry": {"type": "Polygon", "coordinates": [[[-96.828926, 31.107075], [-96.620803, 30.729166], [-96.96585, 30.559381], [-97.157543, 30.455319], [-97.316374, 30.751074], [-97.069912, 30.986582], [-96.828926, 31.107075]]]}}, {"type": "Feature", "properties": {"name": "Miller", "id": "05091", "FIPS": "05091", "FIPS State": 5, "ST": "AR", "County": "Miller County,AR", "State": "Arkansas"}, "geometry": {"type": "Polygon", "coordinates": [[[-93.827563, 33.610037], [-93.723501, 33.484067], [-93.805655, 33.018527], [-93.816609, 33.018527], [-94.041164, 33.018527], [-94.041164, 33.270466], [-94.041164, 33.54979], [-93.827563, 33.610037]]]}}, {"type": "Feature", "properties": {"name": "Kossuth", "id": "19109", "FIPS": "19109", "FIPS State": 19, "ST": "IA", "County": "Kossuth County,IA", "State": "Iowa"}, "geometry": {"type": "Polygon", "coordinates": [[[-94.249287, 43.501391], [-93.969963, 43.501391], [-93.969963, 43.254929], [-93.969963, 42.909881], [-94.090456, 42.909881], [-94.44098, 42.909881], [-94.44098, 43.254929], [-94.44098, 43.501391], [-94.249287, 43.501391]]]}}, {"type": "Feature", "properties": {"name": "Adams", "id": "18001", "FIPS": "18001", "FIPS State": 18, "ST": "IN", "County": "Adams County,IN", "State": "Indiana"}, "geometry": {"type": "Polygon", "coordinates": [[[-84.878242, 40.921752], [-84.801565, 40.921752], [-84.801565, 40.730059], [-84.801565, 40.571228], [-85.069935, 40.565751], [-85.075412, 40.916275], [-84.878242, 40.921752]]]}}, {"type": "Feature", "properties": {"name": "Iroquois", "id": "17075", "FIPS": "17075", "FIPS State": 17, "ST": "IL", "County": "Iroquois County,IL", "State": "Illinois"}, "geometry": {"type": "Polygon", "coordinates": [[[-87.523605, 41.009383], [-87.523605, 40.735536], [-87.529082, 40.489074], [-87.841267, 40.489074], [-87.934375, 40.483597], [-88.131545, 40.998429], [-88.131545, 40.998429], [-87.523605, 41.009383]]]}}, {"type": "Feature", "properties": {"name": "Washburn", "id": "55129", "FIPS": "55129", "FIPS State": 55, "ST": "WI", "County": "Washburn County,WI", "State": "Wisconsin"}, "geometry": {"type": "Polygon", "coordinates": [[[-92.020173, 46.157707], [-91.549156, 46.157707], [-91.538202, 45.637398], [-92.031127, 45.637398], [-92.047557, 46.157707], [-92.020173, 46.157707]]]}}, {"type": "Feature", "properties": {"name": "Van Wert", "id": "39161", "FIPS": "39161", "FIPS State": 39, "ST": "OH", "County": "Van Wert County,OH", "State": "Ohio"}, "geometry": {"type": "Polygon", "coordinates": [[[-84.456518, 40.987475], [-84.401749, 40.992952], [-84.341502, 40.861506], [-84.396272, 40.686244], [-84.456518, 40.686244], [-84.774181, 40.730059], [-84.801565, 40.730059], [-84.801565, 40.921752], [-84.801565, 40.987475], [-84.456518, 40.987475]]]}}, {"type": "Feature", "properties": {"name": "Butte", "id": "46019", "FIPS": "46019", "FIPS State": 46, "ST": "SD", "County": "Butte County,SD", "State": "South Dakota"}, "geometry": {"type": "Polygon", "coordinates": [[[-104.042057, 45.210196], [-102.957623, 45.210196], [-102.957623, 45.040411], [-102.963099, 44.602256], [-103.565563, 44.602256], [-103.812025, 44.602256], [-104.058488, 44.569394], [-104.058488, 44.996596], [-104.042057, 45.210196]]]}}, {"type": "Feature", "properties": {"name": "Livingston", "id": "29117", "FIPS": "29117", "FIPS State": 29, "ST": "MO", "County": "Livingston County,MO", "State": "Missouri"}, "geometry": {"type": "Polygon", "coordinates": [[[-93.362023, 39.968764], [-93.268915, 39.705871], [-93.279869, 39.61824], [-93.422269, 39.612763], [-93.756363, 39.612763], [-93.756363, 39.782548], [-93.76184, 39.957811], [-93.362023, 39.968764]]]}}, {"type": "Feature", "properties": {"name": "Madison", "id": "19121", "FIPS": "19121", "FIPS State": 19, "ST": "IA", "County": "Madison County,IA", "State": "Iowa"}, "geometry": {"type": "Polygon", "coordinates": [[[-93.822086, 41.507785], [-93.789224, 41.513262], [-93.789224, 41.162737], [-94.013779, 41.157261], [-94.24381, 41.157261], [-94.24381, 41.502308], [-93.822086, 41.507785]]]}}, {"type": "Feature", "properties": {"name": "Hubbard", "id": "27057", "FIPS": "27057", "FIPS State": 27, "ST": "MN", "County": "Hubbard County,MN", "State": "Minnesota"}, "geometry": {"type": "Polygon", "coordinates": [[[-95.185844, 47.411926], [-94.671012, 47.411926], [-94.786028, 46.803986], [-95.037967, 46.803986], [-95.163936, 46.803986], [-95.169413, 47.15451], [-95.185844, 47.411926]]]}}, {"type": "Feature", "properties": {"name": "Dimmit", "id": "48127", "FIPS": "48127", "FIPS State": 48, "ST": "TX", "County": "Dimmit County,TX", "State": "Texas"}, "geometry": {"type": "Polygon", "coordinates": [[[-99.780997, 28.642452], [-99.408565, 28.642452], [-99.397611, 28.642452], [-99.392134, 28.204297], [-100.115091, 28.19882], [-100.115091, 28.647929], [-99.780997, 28.642452]]]}}, {"type": "Feature", "properties": {"name": "Smith", "id": "47159", "FIPS": "47159", "FIPS State": 47, "ST": "TN", "County": "Smith County,TN", "State": "Tennessee"}, "geometry": {"type": "Polygon", "coordinates": [[[-85.979107, 36.425184], [-85.825753, 36.41423], [-85.781938, 36.238968], [-85.809322, 36.129429], [-86.061262, 36.085614], [-86.137939, 36.293737], [-85.979107, 36.425184]]]}}, {"type": "Feature", "properties": {"name": "Chester", "id": "45023", "FIPS": "45023", "FIPS State": 45, "ST": "SC", "County": "Chester County,SC", "State": "South Carolina"}, "geometry": {"type": "Polygon", "coordinates": [[[-81.28537, 34.820441], [-80.896507, 34.820441], [-80.880076, 34.541117], [-81.416816, 34.573978], [-81.422293, 34.573978], [-81.477062, 34.820441], [-81.28537, 34.820441]]]}}, {"type": "Feature", "properties": {"name": "Morrison", "id": "27097", "FIPS": "27097", "FIPS State": 27, "ST": "MN", "County": "Morrison County,MN", "State": "Minnesota"}, "geometry": {"type": "Polygon", "coordinates": [[[-94.654581, 46.3494], [-94.342395, 46.2782], [-93.811132, 46.157707], [-93.76184, 45.823614], [-94.008302, 45.823614], [-94.271195, 45.774321], [-94.451934, 45.774321], [-94.643627, 45.774321], [-94.654581, 46.3494]]]}}, {"type": "Feature", "properties": {"name": "Richland", "id": "17159", "FIPS": "17159", "FIPS State": 17, "ST": "IL", "County": "Richland County,IL", "State": "Illinois"}, "geometry": {"type": "Polygon", "coordinates": [[[-87.90699, 38.851469], [-87.912467, 38.572145], [-87.956283, 38.572145], [-88.005575, 38.572145], [-88.147976, 38.566668], [-88.252038, 38.599529], [-88.257515, 38.845992], [-87.945329, 38.851469], [-87.90699, 38.851469]]]}}, {"type": "Feature", "properties": {"name": "Screven", "id": "13251", "FIPS": "13251", "FIPS State": 13, "ST": "GA", "County": "Screven County,GA", "State": "Georgia"}, "geometry": {"type": "Polygon", "coordinates": [[[-81.542786, 33.045912], [-81.411339, 32.74468], [-81.389431, 32.596803], [-81.548263, 32.487264], [-81.827587, 32.651572], [-81.838541, 32.651572], [-81.76734, 32.908988], [-81.542786, 33.045912]]]}}, {"type": "Feature", "properties": {"name": "Covington", "id": "01039", "FIPS": "01039", "FIPS State": 1, "ST": "AL", "County": "Covington County,AL", "State": "Alabama"}, "geometry": {"type": "Polygon", "coordinates": [[[-86.400832, 31.47403], [-86.192708, 31.441168], [-86.192708, 31.194706], [-86.187231, 30.992059], [-86.389878, 30.992059], [-86.685633, 30.992059], [-86.702064, 31.194706], [-86.702064, 31.523322], [-86.499417, 31.523322], [-86.400832, 31.47403]]]}}, {"type": "Feature", "properties": {"name": "Henry", "id": "39069", "FIPS": "39069", "FIPS State": 39, "ST": "OH", "County": "Henry County,OH", "State": "Ohio"}, "geometry": {"type": "Polygon", "coordinates": [[[-83.886916, 41.485877], [-83.881439, 41.485877], [-83.881439, 41.414677], [-83.881439, 41.168214], [-84.029317, 41.168214], [-84.226487, 41.168214], [-84.270302, 41.425631], [-84.341502, 41.425631], [-84.341502, 41.485877], [-83.886916, 41.485877]]]}}, {"type": "Feature", "properties": {"name": "Lawrence", "id": "05075", "FIPS": "05075", "FIPS State": 5, "ST": "AR", "County": "Lawrence County,AR", "State": "Arkansas"}, "geometry": {"type": "Polygon", "coordinates": [[[-91.242447, 36.255399], [-90.809769, 36.151337], [-90.853584, 35.970598], [-91.034323, 35.882967], [-91.198632, 35.888444], [-91.357463, 35.888444], [-91.258878, 36.255399], [-91.242447, 36.255399]]]}}, {"type": "Feature", "properties": {"name": "Johnson", "id": "21115", "FIPS": "21115", "FIPS State": 21, "ST": "KY", "County": "Johnson County,KY", "State": "Kentucky"}, "geometry": {"type": "Polygon", "coordinates": [[[-82.851774, 37.975158], [-82.610789, 37.876573], [-82.638174, 37.717742], [-82.786051, 37.745127], [-82.939406, 37.717742], [-83.005129, 37.860142], [-82.988698, 37.964204], [-82.851774, 37.975158]]]}}, {"type": "Feature", "properties": {"name": "Burke", "id": "13033", "FIPS": "13033", "FIPS State": 13, "ST": "GA", "County": "Burke County,GA", "State": "Georgia"}, "geometry": {"type": "Polygon", "coordinates": [[[-82.189065, 33.292374], [-81.849494, 33.248559], [-81.756386, 33.199266], [-81.613986, 33.095204], [-81.542786, 33.045912], [-81.76734, 32.908988], [-81.860448, 32.952804], [-82.145249, 32.810403], [-82.315034, 32.837788], [-82.265742, 33.264989], [-82.189065, 33.292374]]]}}, {"type": "Feature", "properties": {"name": "Chaffee", "id": "08015", "FIPS": "08015", "FIPS State": 8, "ST": "CO", "County": "Chaffee County,CO", "State": "Colorado"}, "geometry": {"type": "Polygon", "coordinates": [[[-106.375233, 39.054115], [-106.189017, 39.054115], [-105.96994, 38.692637], [-106.008278, 38.446175], [-106.249264, 38.424267], [-106.599788, 38.999346], [-106.57788, 39.059592], [-106.375233, 39.054115]]]}}, {"type": "Feature", "properties": {"name": "Brewster", "id": "48043", "FIPS": "48043", "FIPS State": 48, "ST": "TX", "County": "Brewster County,TX", "State": "Texas"}, "geometry": {"type": "Polygon", "coordinates": [[[-103.346485, 30.603196], [-102.56876, 30.050025], [-102.322297, 29.88024], [-102.678299, 29.73784], [-102.919284, 29.190146], [-103.280762, 28.982022], [-103.790117, 29.261346], [-103.801071, 30.411504], [-103.439593, 30.663443], [-103.346485, 30.603196]]]}}, {"type": "Feature", "properties": {"name": "Mason", "id": "26105", "FIPS": "26105", "FIPS State": 26, "ST": "MI", "County": "Mason County,MI", "State": "Michigan"}, "geometry": {"type": "Polygon", "coordinates": [[[-86.384401, 44.180532], [-86.044831, 44.169578], [-86.039354, 43.813577], [-86.433693, 43.819054], [-86.384401, 44.180532]]]}}, {"type": "Feature", "properties": {"name": "Nottoway", "id": "51135", "FIPS": "51135", "FIPS State": 51, "ST": "VA", "County": "Nottoway County,VA", "State": "Virginia"}, "geometry": {"type": "Polygon", "coordinates": [[[-78.229237, 37.296018], [-77.796559, 37.191956], [-77.889666, 36.989309], [-78.004682, 37.022171], [-78.240191, 37.120755], [-78.229237, 37.296018]]]}}, {"type": "Feature", "properties": {"name": "Upshur", "id": "54097", "FIPS": "54097", "FIPS State": 54, "ST": "WV", "County": "Upshur County,WV", "State": "West Virginia"}, "geometry": {"type": "Polygon", "coordinates": [[[-80.22832, 39.114362], [-80.08592, 38.944577], [-80.277612, 38.692637], [-80.392628, 38.725499], [-80.29952, 39.103408], [-80.22832, 39.114362]]]}}, {"type": "Feature", "properties": {"name": "Pemiscot", "id": "29155", "FIPS": "29155", "FIPS State": 29, "ST": "MO", "County": "Pemiscot County,MO", "State": "Missouri"}, "geometry": {"type": "Polygon", "coordinates": [[[-89.714381, 36.425184], [-89.544596, 36.337553], [-89.62675, 36.184199], [-89.730812, 35.997983], [-89.960843, 35.997983], [-89.960843, 36.386845], [-89.714381, 36.425184]]]}}, {"type": "Feature", "properties": {"name": "Smyth", "id": "51173", "FIPS": "51173", "FIPS State": 51, "ST": "VA", "County": "Smyth County,VA", "State": "Virginia"}, "geometry": {"type": "Polygon", "coordinates": [[[-81.477062, 36.989309], [-81.438724, 37.011217], [-81.378478, 36.95097], [-81.263462, 36.764754], [-81.608509, 36.638785], [-81.838541, 36.929063], [-81.778294, 36.956447], [-81.477062, 36.989309]]]}}, {"type": "Feature", "properties": {"name": "Taylor", "id": "21217", "FIPS": "21217", "FIPS State": 21, "ST": "KY", "County": "Taylor County,KY", "State": "Kentucky"}, "geometry": {"type": "Polygon", "coordinates": [[[-85.584768, 37.47128], [-85.464275, 37.465803], [-85.075412, 37.411033], [-85.163043, 37.312448], [-85.354736, 37.191956], [-85.584768, 37.47128]]]}}, {"type": "Feature", "properties": {"name": "Grant", "id": "20067", "FIPS": "20067", "FIPS State": 20, "ST": "KS", "County": "Grant County,KS", "State": "Kansas"}, "geometry": {"type": "Polygon", "coordinates": [[[-101.17214, 37.734173], [-101.089986, 37.734173], [-101.089986, 37.389126], [-101.528141, 37.389126], [-101.528141, 37.734173], [-101.17214, 37.734173]]]}}, {"type": "Feature", "properties": {"name": "Stevens", "id": "53065", "FIPS": "53065", "FIPS State": 53, "ST": "WA", "County": "Stevens County,WA", "State": "Washington"}, "geometry": {"type": "Polygon", "coordinates": [[[-117.427699, 49.000239], [-117.438653, 48.047251], [-117.537238, 48.047251], [-117.822039, 47.822697], [-118.342348, 47.893897], [-118.139701, 48.266329], [-118.194471, 49.000239], [-117.427699, 49.000239]]]}}, {"type": "Feature", "properties": {"name": "Gillespie", "id": "48171", "FIPS": "48171", "FIPS State": 48, "ST": "TX", "County": "Gillespie County,TX", "State": "Texas"}, "geometry": {"type": "Polygon", "coordinates": [[[-99.304503, 30.499135], [-98.964933, 30.499135], [-98.592501, 30.499135], [-98.587024, 30.137656], [-98.921118, 30.137656], [-99.304503, 30.285534], [-99.304503, 30.499135]]]}}, {"type": "Feature", "properties": {"name": "Yellow Medicine", "id": "27173", "FIPS": "27173", "FIPS State": 27, "ST": "MN", "County": "Yellow Medicine County,MN", "State": "Minnesota"}, "geometry": {"type": "Polygon", "coordinates": [[[-95.733538, 44.930872], [-95.481599, 44.75561], [-95.361106, 44.700841], [-95.596615, 44.54201], [-95.936185, 44.629641], [-96.095016, 44.629641], [-96.44554, 44.629641], [-96.451017, 44.629641], [-96.451017, 44.804903], [-95.739015, 44.936349], [-95.733538, 44.930872]]]}}, {"type": "Feature", "properties": {"name": "Ottawa", "id": "40115", "FIPS": "40115", "FIPS State": 40, "ST": "OK", "County": "Ottawa County,OK", "State": "Oklahoma"}, "geometry": {"type": "Polygon", "coordinates": [[[-94.994151, 37.000263], [-94.616242, 37.000263], [-94.616242, 36.764754], [-94.616242, 36.666169], [-94.890089, 36.671646], [-94.999628, 36.671646], [-95.005105, 37.000263], [-94.994151, 37.000263]]]}}, {"type": "Feature", "properties": {"name": "Mitchell", "id": "20123", "FIPS": "20123", "FIPS State": 20, "ST": "KS", "County": "Mitchell County,KS", "State": "Kansas"}, "geometry": {"type": "Polygon", "coordinates": [[[-98.488439, 39.568948], [-97.929791, 39.568948], [-97.929791, 39.306055], [-97.929791, 39.218424], [-98.477485, 39.218424], [-98.488439, 39.218424], [-98.488439, 39.568948]]]}}, {"type": "Feature", "properties": {"name": "Johnson", "id": "56019", "FIPS": "56019", "FIPS State": 56, "ST": "WY", "County": "Johnson County,WY", "State": "Wyoming"}, "geometry": {"type": "Polygon", "coordinates": [[[-106.008278, 44.563917], [-106.019232, 43.495914], [-106.079479, 43.495914], [-107.109143, 43.501391], [-107.147482, 44.164101], [-107.372036, 44.55844], [-106.008278, 44.563917]]]}}, {"type": "Feature", "properties": {"name": "Lee", "id": "13177", "FIPS": "13177", "FIPS State": 13, "ST": "GA", "County": "Lee County,GA", "State": "Georgia"}, "geometry": {"type": "Polygon", "coordinates": [[[-84.259348, 31.917662], [-83.925255, 31.912185], [-83.941686, 31.846462], [-84.018363, 31.649292], [-84.297687, 31.621907], [-84.336025, 31.873847], [-84.259348, 31.917662]]]}}, {"type": "Feature", "properties": {"name": "York", "id": "31185", "FIPS": "31185", "FIPS State": 31, "ST": "NE", "County": "York County,NE", "State": "Nebraska"}, "geometry": {"type": "Polygon", "coordinates": [[[-97.365666, 41.047722], [-97.365666, 40.697198], [-97.798345, 40.697198], [-97.825729, 40.697198], [-97.825729, 40.697198], [-97.825729, 41.047722], [-97.365666, 41.047722]]]}}, {"type": "Feature", "properties": {"name": "Aitkin", "id": "27001", "FIPS": "27001", "FIPS State": 27, "ST": "MN", "County": "Aitkin County,MN", "State": "Minnesota"}, "geometry": {"type": "Polygon", "coordinates": [[[-93.712547, 47.028541], [-93.055314, 47.028541], [-93.060791, 46.765647], [-93.055314, 46.4206], [-93.055314, 46.157707], [-93.307254, 46.157707], [-93.433223, 46.15223], [-93.553716, 46.245338], [-93.794701, 46.245338], [-93.778271, 46.803986], [-93.772794, 47.028541], [-93.712547, 47.028541]]]}}, {"type": "Feature", "properties": {"name": "Washakie", "id": "56043", "FIPS": "56043", "FIPS State": 56, "ST": "WY", "County": "Washakie County,WY", "State": "Wyoming"}, "geometry": {"type": "Polygon", "coordinates": [[[-107.147482, 44.164101], [-107.109143, 43.501391], [-107.536345, 43.501391], [-107.596591, 43.501391], [-108.527671, 44.081947], [-108.549579, 44.081947], [-108.549579, 44.169578], [-107.147482, 44.164101]]]}}, {"type": "Feature", "properties": {"name": "Gray", "id": "20069", "FIPS": "20069", "FIPS State": 20, "ST": "KS", "County": "Gray County,KS", "State": "Kansas"}, "geometry": {"type": "Polygon", "coordinates": [[[-100.224629, 38.002543], [-100.224629, 37.914912], [-100.213675, 37.476757], [-100.651831, 37.476757], [-100.651831, 37.734173], [-100.224629, 38.002543]]]}}, {"type": "Feature", "properties": {"name": "Page", "id": "51139", "FIPS": "51139", "FIPS State": 51, "ST": "VA", "County": "Page County,VA", "State": "Virginia"}, "geometry": {"type": "Polygon", "coordinates": [[[-78.388068, 38.829561], [-78.284006, 38.758361], [-78.338776, 38.626914], [-78.448314, 38.500944], [-78.453791, 38.47356], [-78.459268, 38.468083], [-78.486653, 38.41879], [-78.640007, 38.605006], [-78.388068, 38.829561]]]}}, {"type": "Feature", "properties": {"name": "Avery", "id": "37011", "FIPS": "37011", "FIPS State": 37, "ST": "NC", "County": "Avery County,NC", "State": "North Carolina"}, "geometry": {"type": "Polygon", "coordinates": [[[-81.931648, 36.266353], [-81.920695, 36.288261], [-81.811156, 36.112998], [-81.805679, 35.959644], [-81.898787, 35.997983], [-81.942602, 35.959644], [-81.948079, 35.954167], [-81.980941, 35.910352], [-82.079526, 36.107521], [-81.931648, 36.266353]]]}}, {"type": "Feature", "properties": {"name": "Deer Lodge", "id": "30023", "FIPS": "30023", "FIPS State": 30, "ST": "MT", "County": "Deer Lodge County,MT", "State": "Montana"}, "geometry": {"type": "Polygon", "coordinates": [[[-112.887315, 46.267246], [-112.558699, 46.267246], [-112.57513, 46.179615], [-113.084485, 45.861952], [-113.517164, 45.938629], [-113.517164, 45.938629], [-113.035193, 46.267246], [-112.887315, 46.267246]]]}}, {"type": "Feature", "properties": {"name": "Perry", "id": "05105", "FIPS": "05105", "FIPS State": 5, "ST": "AR", "County": "Perry County,AR", "State": "Arkansas"}, "geometry": {"type": "Polygon", "coordinates": [[[-93.038884, 35.077857], [-92.556913, 35.110718], [-92.545959, 34.951887], [-92.737652, 34.853302], [-92.967683, 34.858779], [-93.077222, 34.771148], [-93.285346, 34.771148], [-93.038884, 35.077857]]]}}, {"type": "Feature", "properties": {"name": "Van Buren", "id": "05141", "FIPS": "05141", "FIPS State": 5, "ST": "AR", "County": "Van Buren County,AR", "State": "Arkansas"}, "geometry": {"type": "Polygon", "coordinates": [[[-92.611682, 35.789859], [-92.414512, 35.789859], [-92.23925, 35.713182], [-92.250204, 35.362658], [-92.480236, 35.368135], [-92.480236, 35.368135], [-92.852668, 35.461243], [-92.808852, 35.724136], [-92.611682, 35.789859]]]}}, {"type": "Feature", "properties": {"name": "Roberts", "id": "46109", "FIPS": "46109", "FIPS State": 46, "ST": "SD", "County": "Roberts County,SD", "State": "South Dakota"}, "geometry": {"type": "Polygon", "coordinates": [[[-96.735818, 45.933153], [-96.560556, 45.933153], [-96.834403, 45.588105], [-96.472925, 45.325212], [-96.681049, 45.325212], [-97.228743, 45.297827], [-97.228743, 45.560721], [-97.228743, 45.933153], [-96.735818, 45.933153]]]}}, {"type": "Feature", "properties": {"name": "Mills", "id": "19129", "FIPS": "19129", "FIPS State": 19, "ST": "IA", "County": "Mills County,IA", "State": "Iowa"}, "geometry": {"type": "Polygon", "coordinates": [[[-95.673292, 41.157261], [-95.383014, 41.157261], [-95.383014, 40.899844], [-95.519938, 40.899844], [-95.815692, 40.899844], [-95.881416, 41.053199], [-95.881416, 41.157261], [-95.673292, 41.157261]]]}}, {"type": "Feature", "properties": {"name": "Otoe", "id": "31131", "FIPS": "31131", "FIPS State": 31, "ST": "NE", "County": "Otoe County,NE", "State": "Nebraska"}, "geometry": {"type": "Polygon", "coordinates": [[[-95.892369, 40.784829], [-95.832123, 40.784829], [-95.7664, 40.587659], [-95.71163, 40.521935], [-96.023816, 40.521935], [-96.067632, 40.521935], [-96.461971, 40.521935], [-96.461971, 40.784829], [-95.892369, 40.784829]]]}}, {"type": "Feature", "properties": {"name": "Freeborn", "id": "27047", "FIPS": "27047", "FIPS State": 27, "ST": "MN", "County": "Freeborn County,MN", "State": "Minnesota"}, "geometry": {"type": "Polygon", "coordinates": [[[-93.164853, 43.846438], [-93.049837, 43.846438], [-93.049837, 43.501391], [-93.498947, 43.501391], [-93.646824, 43.501391], [-93.646824, 43.846438], [-93.405839, 43.846438], [-93.164853, 43.846438]]]}}, {"type": "Feature", "properties": {"name": "San Miguel", "id": "08113", "FIPS": "08113", "FIPS State": 8, "ST": "CO", "County": "San Miguel County,CO", "State": "Colorado"}, "geometry": {"type": "Polygon", "coordinates": [[[-109.042503, 38.15042], [-107.963546, 38.15042], [-107.738991, 37.903958], [-107.859484, 37.777988], [-109.042503, 37.88205], [-109.042503, 38.15042]]]}}, {"type": "Feature", "properties": {"name": "Brown", "id": "18013", "FIPS": "18013", "FIPS State": 18, "ST": "IN", "County": "Brown County,IN", "State": "Indiana"}, "geometry": {"type": "Polygon", "coordinates": [[[-86.252954, 39.344393], [-86.083169, 39.344393], [-86.077692, 39.048638], [-86.318678, 39.048638], [-86.378924, 39.338916], [-86.252954, 39.344393]]]}}, {"type": "Feature", "properties": {"name": "Greene", "id": "51079", "FIPS": "51079", "FIPS State": 51, "ST": "VA", "County": "Greene County,VA", "State": "Virginia"}, "geometry": {"type": "Polygon", "coordinates": [[[-78.459268, 38.468083], [-78.453791, 38.47356], [-78.289483, 38.270913], [-78.371637, 38.183282], [-78.661915, 38.27639], [-78.486653, 38.41879], [-78.459268, 38.468083]]]}}, {"type": "Feature", "properties": {"name": "Santa Cruz", "id": "04023", "FIPS": "04023", "FIPS State": 4, "ST": "AZ", "County": "Santa Cruz County,AZ", "State": "Arizona"}, "geometry": {"type": "Polygon", "coordinates": [[[-110.789647, 31.731446], [-110.450077, 31.731446], [-110.461031, 31.331629], [-111.364726, 31.424737], [-110.789647, 31.731446]]]}}, {"type": "Feature", "properties": {"name": "Simpson", "id": "21213", "FIPS": "21213", "FIPS State": 21, "ST": "KY", "County": "Simpson County,KY", "State": "Kentucky"}, "geometry": {"type": "Polygon", "coordinates": [[[-86.608956, 36.885247], [-86.406309, 36.775708], [-86.411786, 36.649739], [-86.56514, 36.633308], [-86.76231, 36.649739], [-86.608956, 36.885247]]]}}, {"type": "Feature", "properties": {"name": "Hardee", "id": "12049", "FIPS": "12049", "FIPS State": 12, "ST": "FL", "County": "Hardee County,FL", "State": "Florida"}, "geometry": {"type": "Polygon", "coordinates": [[[-82.052141, 27.645649], [-81.564693, 27.645649], [-81.564693, 27.33894], [-81.581124, 27.33894], [-82.057618, 27.33894], [-82.052141, 27.645649]]]}}, {"type": "Feature", "properties": {"name": "Giles", "id": "47055", "FIPS": "47055", "FIPS State": 47, "ST": "TN", "County": "Giles County,TN", "State": "Tennessee"}, "geometry": {"type": "Polygon", "coordinates": [[[-87.129265, 35.455766], [-86.95948, 35.417427], [-86.828033, 35.264073], [-86.838987, 34.990226], [-87.211419, 35.00118], [-87.222373, 35.00118], [-87.205942, 35.433858], [-87.129265, 35.455766]]]}}, {"type": "Feature", "properties": {"name": "Hardeman", "id": "47069", "FIPS": "47069", "FIPS State": 47, "ST": "TN", "County": "Hardeman County,TN", "State": "Tennessee"}, "geometry": {"type": "Polygon", "coordinates": [[[-89.150256, 35.433858], [-89.079056, 35.433858], [-88.843547, 35.428381], [-88.783301, 35.247642], [-88.788778, 34.995703], [-88.821639, 34.995703], [-89.018809, 34.995703], [-89.199548, 34.995703], [-89.183118, 35.395519], [-89.150256, 35.433858]]]}}, {"type": "Feature", "properties": {"name": "Uvalde", "id": "48463", "FIPS": "48463", "FIPS State": 48, "ST": "TX", "County": "Uvalde County,TX", "State": "Texas"}, "geometry": {"type": "Polygon", "coordinates": [[[-99.605735, 29.628301], [-99.414042, 29.628301], [-99.414042, 29.091561], [-100.109614, 29.086084], [-100.109614, 29.622824], [-100.016506, 29.622824], [-99.605735, 29.628301]]]}}, {"type": "Feature", "properties": {"name": "King William", "id": "51101", "FIPS": "51101", "FIPS State": 51, "ST": "VA", "County": "King William County,VA", "State": "Virginia"}, "geometry": {"type": "Polygon", "coordinates": [[[-77.177664, 37.893004], [-76.794278, 37.515095], [-77.122895, 37.624634], [-77.347449, 37.788942], [-77.183141, 37.893004], [-77.177664, 37.893004]]]}}, {"type": "Feature", "properties": {"name": "Davison", "id": "46035", "FIPS": "46035", "FIPS State": 46, "ST": "SD", "County": "Davison County,SD", "State": "South Dakota"}, "geometry": {"type": "Polygon", "coordinates": [[[-98.203638, 43.851915], [-97.96813, 43.851915], [-97.962653, 43.501391], [-98.116007, 43.495914], [-98.318654, 43.501391], [-98.324131, 43.851915], [-98.203638, 43.851915]]]}}, {"type": "Feature", "properties": {"name": "Rio Grande", "id": "08105", "FIPS": "08105", "FIPS State": 8, "ST": "CO", "County": "Rio Grande County,CO", "State": "Colorado"}, "geometry": {"type": "Polygon", "coordinates": [[[-106.692896, 37.832758], [-106.04114, 37.750604], [-106.04114, 37.400079], [-106.523111, 37.400079], [-106.676465, 37.405556], [-106.709327, 37.405556], [-106.692896, 37.832758]]]}}, {"type": "Feature", "properties": {"name": "Itawamba", "id": "28057", "FIPS": "28057", "FIPS State": 28, "ST": "MS", "County": "Itawamba County,MS", "State": "Mississippi"}, "geometry": {"type": "Polygon", "coordinates": [[[-88.493023, 34.464439], [-88.328715, 34.464439], [-88.15893, 34.464439], [-88.175361, 34.322039], [-88.202745, 34.08653], [-88.542316, 34.08653], [-88.542316, 34.464439], [-88.493023, 34.464439]]]}}, {"type": "Feature", "properties": {"name": "Kingfisher", "id": "40073", "FIPS": "40073", "FIPS State": 40, "ST": "OK", "County": "Kingfisher County,OK", "State": "Oklahoma"}, "geometry": {"type": "Polygon", "coordinates": [[[-98.0941, 36.167768], [-97.677852, 36.162291], [-97.672375, 35.724136], [-97.973607, 35.724136], [-98.209115, 35.724136], [-98.209115, 36.162291], [-98.105053, 36.162291], [-98.0941, 36.167768]]]}}, {"type": "Feature", "properties": {"name": "Navarro", "id": "48349", "FIPS": "48349", "FIPS State": 48, "ST": "TX", "County": "Navarro County,TX", "State": "Texas"}, "geometry": {"type": "Polygon", "coordinates": [[[-96.385294, 32.328433], [-96.056678, 32.01077], [-96.494833, 31.797169], [-96.719387, 31.8136], [-96.89465, 32.076493], [-96.385294, 32.328433]]]}}, {"type": "Feature", "properties": {"name": "Mackinac", "id": "26097", "FIPS": "26097", "FIPS State": 26, "ST": "MI", "County": "Mackinac County,MI", "State": "Michigan"}, "geometry": {"type": "Polygon", "coordinates": [[[-85.36569, 46.245338], [-85.23972, 46.245338], [-84.116948, 45.976968], [-84.70298, 45.850998], [-85.513567, 46.097461], [-85.864092, 45.966014], [-85.864092, 46.245338], [-85.36569, 46.245338]]]}}, {"type": "Feature", "properties": {"name": "Cassia", "id": "16031", "FIPS": "16031", "FIPS State": 16, "ST": "ID", "County": "Cassia County,ID", "State": "Idaho"}, "geometry": {"type": "Polygon", "coordinates": [[[-113.473348, 42.668896], [-113.23784, 42.625081], [-113.002331, 42.329326], [-113.002331, 42.000709], [-114.04295, 41.995232], [-114.283935, 41.995232], [-113.999134, 42.526496], [-113.933411, 42.537449], [-113.473348, 42.668896]]]}}, {"type": "Feature", "properties": {"name": "Pawnee", "id": "40117", "FIPS": "40117", "FIPS State": 40, "ST": "OK", "County": "Pawnee County,OK", "State": "Oklahoma"}, "geometry": {"type": "Polygon", "coordinates": [[[-96.724864, 36.529246], [-96.270278, 36.162291], [-96.297663, 36.162291], [-96.620803, 36.162291], [-96.927511, 36.244445], [-97.009665, 36.507338], [-96.724864, 36.529246]]]}}, {"type": "Feature", "properties": {"name": "Worth", "id": "19195", "FIPS": "19195", "FIPS State": 19, "ST": "IA", "County": "Worth County,IA", "State": "Iowa"}, "geometry": {"type": "Polygon", "coordinates": [[[-93.022453, 43.501391], [-93.022453, 43.254929], [-93.055314, 43.254929], [-93.498947, 43.254929], [-93.498947, 43.501391], [-93.049837, 43.501391], [-93.022453, 43.501391]]]}}, {"type": "Feature", "properties": {"name": "Hamilton", "id": "31081", "FIPS": "31081", "FIPS State": 31, "ST": "NE", "County": "Hamilton County,NE", "State": "Nebraska"}, "geometry": {"type": "Polygon", "coordinates": [[[-97.825729, 41.047722], [-97.825729, 40.697198], [-98.280315, 40.697198], [-98.280315, 40.697198], [-98.280315, 40.87246], [-97.825729, 41.173691], [-97.825729, 41.047722]]]}}, {"type": "Feature", "properties": {"name": "Norton", "id": "20137", "FIPS": "20137", "FIPS State": 20, "ST": "KS", "County": "Norton County,KS", "State": "Kansas"}, "geometry": {"type": "Polygon", "coordinates": [[[-99.627643, 40.001626], [-99.627643, 39.568948], [-100.164383, 39.568948], [-100.180814, 39.568948], [-100.175337, 40.001626], [-99.627643, 40.001626], [-99.627643, 40.001626]]]}}, {"type": "Feature", "properties": {"name": "Hot Spring", "id": "05059", "FIPS": "05059", "FIPS State": 5, "ST": "AR", "County": "Hot Spring County,AR", "State": "Arkansas"}, "geometry": {"type": "Polygon", "coordinates": [[[-92.792421, 34.502778], [-92.666452, 34.415147], [-92.677405, 34.152254], [-92.885529, 34.157731], [-93.405839, 34.33847], [-93.405839, 34.398716], [-92.792421, 34.502778]]]}}, {"type": "Feature", "properties": {"name": "Limestone", "id": "48293", "FIPS": "48293", "FIPS State": 48, "ST": "TX", "County": "Limestone County,TX", "State": "Texas"}, "geometry": {"type": "Polygon", "coordinates": [[[-96.719387, 31.8136], [-96.494833, 31.797169], [-96.237417, 31.413784], [-96.319571, 31.359014], [-96.598895, 31.222091], [-96.801542, 31.523322], [-96.932988, 31.709538], [-96.719387, 31.8136]]]}}, {"type": "Feature", "properties": {"name": "Dakota", "id": "31043", "FIPS": "31043", "FIPS State": 31, "ST": "NE", "County": "Dakota County,NE", "State": "Nebraska"}, "geometry": {"type": "Polygon", "coordinates": [[[-96.724864, 42.395049], [-96.631756, 42.526496], [-96.44554, 42.488157], [-96.357909, 42.274556], [-96.724864, 42.280033], [-96.724864, 42.395049]]]}}, {"type": "Feature", "properties": {"name": "Hancock", "id": "17067", "FIPS": "17067", "FIPS State": 17, "ST": "IL", "County": "Hancock County,IL", "State": "Illinois"}, "geometry": {"type": "Polygon", "coordinates": [[[-91.187678, 40.636951], [-90.902877, 40.636951], [-90.908354, 40.286427], [-90.913831, 40.193319], [-91.204109, 40.198796], [-91.50534, 40.198796], [-91.499863, 40.248088], [-91.417709, 40.379535], [-91.187678, 40.636951]]]}}, {"type": "Feature", "properties": {"name": "Johnson", "id": "05071", "FIPS": "05071", "FIPS State": 5, "ST": "AR", "County": "Johnson County,AR", "State": "Arkansas"}, "geometry": {"type": "Polygon", "coordinates": [[[-93.696116, 35.767951], [-93.520854, 35.762474], [-93.164853, 35.729613], [-93.2963, 35.329796], [-93.422269, 35.329796], [-93.712547, 35.373611], [-93.696116, 35.767951]]]}}, {"type": "Feature", "properties": {"name": "Hockley", "id": "48219", "FIPS": "48219", "FIPS State": 48, "ST": "TX", "County": "Hockley County,TX", "State": "Texas"}, "geometry": {"type": "Polygon", "coordinates": [[[-102.618052, 33.823637], [-102.086789, 33.823637], [-102.075835, 33.390959], [-102.366113, 33.390959], [-102.596144, 33.390959], [-102.618052, 33.823637]]]}}, {"type": "Feature", "properties": {"name": "Henry", "id": "18065", "FIPS": "18065", "FIPS State": 18, "ST": "IN", "County": "Henry County,IN", "State": "Indiana"}, "geometry": {"type": "Polygon", "coordinates": [[[-85.327352, 40.078303], [-85.212336, 40.078303], [-85.201382, 40.007103], [-85.22329, 39.788025], [-85.299967, 39.788025], [-85.321875, 39.788025], [-85.595722, 39.788025], [-85.573814, 39.946857], [-85.573814, 40.078303], [-85.327352, 40.078303]]]}}, {"type": "Feature", "properties": {"name": "Sevier", "id": "49041", "FIPS": "49041", "FIPS State": 49, "ST": "UT", "County": "Sevier County,UT", "State": "Utah"}, "geometry": {"type": "Polygon", "coordinates": [[[-111.978143, 39.043162], [-111.299003, 39.032208], [-111.30448, 38.511898], [-111.764543, 38.500944], [-111.857651, 38.500944], [-112.52036, 38.511898], [-112.514883, 38.572145], [-112.016482, 39.043162], [-111.978143, 39.043162]]]}}, {"type": "Feature", "properties": {"name": "Lincoln", "id": "28085", "FIPS": "28085", "FIPS State": 28, "ST": "MS", "County": "Lincoln County,MS", "State": "Mississippi"}, "geometry": {"type": "Polygon", "coordinates": [[[-90.311367, 31.698584], [-90.245644, 31.715015], [-90.245644, 31.34806], [-90.262075, 31.34806], [-90.355183, 31.34806], [-90.546876, 31.34806], [-90.634507, 31.34806], [-90.738569, 31.610953], [-90.738569, 31.698584], [-90.311367, 31.698584]]]}}, {"type": "Feature", "properties": {"name": "Saguache", "id": "08109", "FIPS": "08109", "FIPS State": 8, "ST": "CO", "County": "Saguache County,CO", "State": "Colorado"}, "geometry": {"type": "Polygon", "coordinates": [[[-106.008278, 38.446175], [-105.794678, 38.265436], [-105.471538, 37.898481], [-105.455107, 37.750604], [-105.707047, 37.750604], [-106.04114, 37.750604], [-106.692896, 37.832758], [-106.999605, 37.958727], [-106.999605, 38.144943], [-106.999605, 38.424267], [-106.249264, 38.424267], [-106.008278, 38.446175]]]}}]}