{"type": "FeatureCollection", "crs": {"type": "name", "properties": {"name": "urn:ogc:def:crs:OGC:1.3:CRS84"}}, "features": [{"type": "Feature", "properties": {"name": "Wagoner", "id": "40145", "FIPS": "40145", "FIPS State": 40, "ST": "OK", "County": "Wagoner County,OK", "State": "Oklahoma"}, "geometry": {"type": "Polygon", "coordinates": [[[-95.618522, 36.162291], [-95.437783, 36.07466], [-95.207752, 36.07466], [-95.267998, 35.811767], [-95.656861, 35.855582], [-95.7664, 35.855582], [-95.821169, 35.855582], [-95.760923, 36.162291], [-95.618522, 36.162291]]]}}, {"type": "Feature", "properties": {"name": "Cache", "id": "49005", "FIPS": "49005", "FIPS State": 49, "ST": "UT", "County": "Cache County,UT", "State": "Utah"}, "geometry": {"type": "Polygon", "coordinates": [[[-111.507126, 42.000709], [-111.512603, 41.425631], [-111.655004, 41.4092], [-111.885035, 41.425631], [-112.164359, 41.995232], [-112.10959, 41.995232], [-111.507126, 42.000709]]]}}, {"type": "Feature", "properties": {"name": "Sandoval", "id": "35043", "FIPS": "35043", "FIPS State": 35, "ST": "NM", "County": "Sandoval County,NM", "State": "New Mexico"}, "geometry": {"type": "Polygon", "coordinates": [[[-107.623976, 36.222537], [-106.884589, 36.21706], [-106.249264, 35.965121], [-106.249264, 35.756997], [-106.243787, 35.21478], [-107.196774, 35.220257], [-107.31179, 35.307888], [-107.306313, 35.997983], [-107.623976, 35.997983], [-107.623976, 36.222537]]]}}, {"type": "Feature", "properties": {"name": "Hancock", "id": "18059", "FIPS": "18059", "FIPS State": 18, "ST": "IN", "County": "Hancock County,IN", "State": "Indiana"}, "geometry": {"type": "Polygon", "coordinates": [[[-85.617629, 39.946857], [-85.573814, 39.946857], [-85.595722, 39.788025], [-85.63406, 39.700394], [-85.951723, 39.694917], [-85.935292, 39.924949], [-85.864092, 39.94138], [-85.617629, 39.946857]]]}}, {"type": "Feature", "properties": {"name": "Lincoln", "id": "41041", "FIPS": "41041", "FIPS State": 41, "ST": "OR", "County": "Lincoln County,OR", "State": "Oregon"}, "geometry": {"type": "Polygon", "coordinates": [[[-124.000027, 45.045888], [-123.72618, 45.045888], [-123.600211, 44.722749], [-123.775473, 44.284593], [-124.010981, 44.279117], [-124.115043, 44.27364], [-124.005504, 45.045888], [-124.000027, 45.045888]]]}}, {"type": "Feature", "properties": {"name": "Sauk", "id": "55111", "FIPS": "55111", "FIPS State": 55, "ST": "WI", "County": "Sauk County,WI", "State": "Wisconsin"}, "geometry": {"type": "Polygon", "coordinates": [[[-90.294936, 43.643791], [-89.785581, 43.638314], [-89.719858, 43.293267], [-89.84035, 43.205636], [-90.196352, 43.161821], [-90.190875, 43.55616], [-90.311367, 43.55616], [-90.311367, 43.638314], [-90.294936, 43.643791]]]}}, {"type": "Feature", "properties": {"name": "Windsor", "id": "50027", "FIPS": "50027", "FIPS State": 50, "ST": "VT", "County": "Windsor County,VT", "State": "Vermont"}, "geometry": {"type": "Polygon", "coordinates": [[[-72.790635, 43.961454], [-72.204602, 43.769761], [-72.330572, 43.599976], [-72.434634, 43.233021], [-72.81802, 43.254929], [-72.867312, 43.298744], [-72.96042, 43.82453], [-72.790635, 43.961454]]]}}, {"type": "Feature", "properties": {"name": "Douglas", "id": "13097", "FIPS": "13097", "FIPS State": 13, "ST": "GA", "County": "Douglas County,GA", "State": "Georgia"}, "geometry": {"type": "Polygon", "coordinates": [[[-84.724888, 33.807207], [-84.577011, 33.741483], [-84.807042, 33.571698], [-84.90015, 33.779822], [-84.724888, 33.807207]]]}}, {"type": "Feature", "properties": {"name": "Lee", "id": "28081", "FIPS": "28081", "FIPS State": 28, "ST": "MS", "County": "Lee County,MS", "State": "Mississippi"}, "geometry": {"type": "Polygon", "coordinates": [[[-88.635423, 34.508255], [-88.542316, 34.464439], [-88.542316, 34.08653], [-88.706624, 34.092007], [-88.717578, 34.075577], [-88.827116, 34.075577], [-88.827116, 34.365854], [-88.734008, 34.508255], [-88.635423, 34.508255]]]}}, {"type": "Feature", "properties": {"name": "Douglas", "id": "53017", "FIPS": "53017", "FIPS State": 53, "ST": "WA", "County": "Douglas County,WA", "State": "Washington"}, "geometry": {"type": "Polygon", "coordinates": [[[-119.021489, 48.069159], [-118.98315, 47.95962], [-119.213182, 47.861036], [-120.007338, 47.220233], [-120.094969, 47.264049], [-120.319524, 47.455742], [-119.870414, 47.95962], [-119.021489, 48.069159]]]}}, {"type": "Feature", "properties": {"name": "Bradford", "id": "42015", "FIPS": "42015", "FIPS State": 42, "ST": "PA", "County": "Bradford County,PA", "State": "Pennsylvania"}, "geometry": {"type": "Polygon", "coordinates": [[[-76.920248, 42.000709], [-76.55877, 42.000709], [-76.147999, 42.000709], [-76.115138, 41.650185], [-76.2192, 41.540646], [-76.816186, 41.589939], [-76.876433, 41.595416], [-76.925725, 42.000709], [-76.920248, 42.000709]]]}}, {"type": "Feature", "properties": {"name": "Kendall", "id": "48259", "FIPS": "48259", "FIPS State": 48, "ST": "TX", "County": "Kendall County,TX", "State": "Texas"}, "geometry": {"type": "Polygon", "coordinates": [[[-98.921118, 30.137656], [-98.587024, 30.137656], [-98.411762, 29.93501], [-98.64727, 29.743317], [-98.778717, 29.721409], [-98.915641, 29.781655], [-98.921118, 30.137656]]]}}, {"type": "Feature", "properties": {"name": "Marion", "id": "39101", "FIPS": "39101", "FIPS State": 39, "ST": "OH", "County": "Marion County,OH", "State": "Ohio"}, "geometry": {"type": "Polygon", "coordinates": [[[-82.977744, 40.702674], [-82.857251, 40.702674], [-83.02156, 40.434304], [-83.246114, 40.445258], [-83.273499, 40.505505], [-83.415899, 40.505505], [-83.421376, 40.686244], [-83.109191, 40.702674], [-82.977744, 40.702674]]]}}, {"type": "Feature", "properties": {"name": "Grundy", "id": "17063", "FIPS": "17063", "FIPS State": 17, "ST": "IL", "County": "Grundy County,IL", "State": "Illinois"}, "geometry": {"type": "Polygon", "coordinates": [[[-88.279422, 41.463969], [-88.252038, 41.463969], [-88.246561, 41.201076], [-88.252038, 41.113445], [-88.410869, 41.107968], [-88.586131, 41.107968], [-88.597085, 41.458492], [-88.279422, 41.463969]]]}}, {"type": "Feature", "properties": {"name": "Orleans", "id": "36073", "FIPS": "36073", "FIPS State": 36, "ST": "NY", "County": "Orleans County,NY", "State": "New York"}, "geometry": {"type": "Polygon", "coordinates": [[[-77.993728, 43.364467], [-77.999205, 43.134436], [-78.464745, 43.128959], [-78.464745, 43.369944], [-77.993728, 43.364467]]]}}, {"type": "Feature", "properties": {"name": "Catoosa", "id": "13047", "FIPS": "13047", "FIPS State": 13, "ST": "GA", "County": "Catoosa County,GA", "State": "Georgia"}, "geometry": {"type": "Polygon", "coordinates": [[[-85.267105, 34.984749], [-84.982304, 34.990226], [-85.146612, 34.765671], [-85.267105, 34.984749]]]}}, {"type": "Feature", "properties": {"name": "Lauderdale", "id": "28075", "FIPS": "28075", "FIPS State": 28, "ST": "MS", "County": "Lauderdale County,MS", "State": "Mississippi"}, "geometry": {"type": "Polygon", "coordinates": [[[-88.651854, 32.574895], [-88.388961, 32.580372], [-88.421823, 32.306525], [-88.432777, 32.229848], [-88.914747, 32.224371], [-88.914747, 32.574895], [-88.651854, 32.574895]]]}}, {"type": "Feature", "properties": {"name": "Jasper", "id": "29097", "FIPS": "29097", "FIPS State": 29, "ST": "MO", "County": "Jasper County,MO", "State": "Missouri"}, "geometry": {"type": "Polygon", "coordinates": [[[-94.577904, 37.361741], [-94.079502, 37.350787], [-94.052118, 37.290541], [-94.057594, 37.049555], [-94.616242, 37.055032], [-94.616242, 37.339833], [-94.616242, 37.361741], [-94.577904, 37.361741]]]}}, {"type": "Feature", "properties": {"name": "Hardin", "id": "21093", "FIPS": "21093", "FIPS State": 21, "ST": "KY", "County": "Hardin County,KY", "State": "Kentucky"}, "geometry": {"type": "Polygon", "coordinates": [[[-85.946246, 38.00802], [-85.940769, 37.997066], [-85.738122, 37.81085], [-85.677876, 37.734173], [-85.891476, 37.438418], [-86.017446, 37.449372], [-86.044831, 37.449372], [-86.274862, 37.591772], [-86.148893, 37.799896], [-86.001015, 37.997066], [-85.946246, 38.00802]]]}}, {"type": "Feature", "properties": {"name": "Lewis", "id": "53041", "FIPS": "53041", "FIPS State": 53, "ST": "WA", "County": "Lewis County,WA", "State": "Washington"}, "geometry": {"type": "Polygon", "coordinates": [[[-123.183963, 46.793032], [-123.162056, 46.793032], [-122.203591, 46.760171], [-121.45325, 46.782078], [-121.52445, 46.387739], [-122.24193, 46.387739], [-123.216825, 46.387739], [-123.359225, 46.382262], [-123.370179, 46.793032], [-123.183963, 46.793032]]]}}, {"type": "Feature", "properties": {"name": "Shenandoah", "id": "51171", "FIPS": "51171", "FIPS State": 51, "ST": "VA", "County": "Shenandoah County,VA", "State": "Virginia"}, "geometry": {"type": "Polygon", "coordinates": [[[-78.338776, 39.103408], [-78.311391, 39.0103], [-78.388068, 38.829561], [-78.640007, 38.605006], [-78.870039, 38.763838], [-78.541422, 39.054115], [-78.338776, 39.103408]]]}}, {"type": "Feature", "properties": {"name": "Clark", "id": "18019", "FIPS": "18019", "FIPS State": 18, "ST": "IN", "County": "Clark County,IN", "State": "Indiana"}, "geometry": {"type": "Polygon", "coordinates": [[[-85.590245, 38.605006], [-85.568337, 38.605006], [-85.425936, 38.588575], [-85.431413, 38.522852], [-85.639537, 38.380452], [-85.792891, 38.287344], [-85.995538, 38.41879], [-85.847661, 38.561191], [-85.590245, 38.605006]]]}}, {"type": "Feature", "properties": {"name": "Bay", "id": "26017", "FIPS": "26017", "FIPS State": 26, "ST": "MI", "County": "Bay County,MI", "State": "Michigan"}, "geometry": {"type": "Polygon", "coordinates": [[[-84.105994, 43.999793], [-83.908824, 43.912162], [-83.7007, 43.594499], [-83.7007, 43.479483], [-84.138855, 43.567114], [-84.16624, 43.567114], [-84.16624, 43.82453], [-84.16624, 43.994316], [-84.105994, 43.999793]]]}}, {"type": "Feature", "properties": {"name": "Taylor", "id": "48441", "FIPS": "48441", "FIPS State": 48, "ST": "TX", "County": "Taylor County,TX", "State": "Texas"}, "geometry": {"type": "Polygon", "coordinates": [[[-100.136998, 32.520126], [-99.627643, 32.514649], [-99.63312, 32.08197], [-99.715274, 32.08197], [-100.054844, 32.08197], [-100.153429, 32.08197], [-100.147952, 32.520126], [-100.136998, 32.520126]]]}}, {"type": "Feature", "properties": {"name": "Parker", "id": "48367", "FIPS": "48367", "FIPS State": 48, "ST": "TX", "County": "Parker County,TX", "State": "Texas"}, "geometry": {"type": "Polygon", "coordinates": [[[-98.055761, 33.002096], [-97.924314, 33.002096], [-97.546405, 32.996619], [-97.551882, 32.552987], [-97.617606, 32.552987], [-98.066715, 32.558464], [-98.055761, 33.002096], [-98.055761, 33.002096]]]}}, {"type": "Feature", "properties": {"name": "Yellowstone", "id": "30111", "FIPS": "30111", "FIPS State": 30, "ST": "MT", "County": "Yellowstone County,MT", "State": "Montana"}, "geometry": {"type": "Polygon", "coordinates": [[[-107.782807, 46.497277], [-107.738991, 46.480847], [-107.50896, 46.042691], [-108.0457, 45.900291], [-108.067608, 45.516905], [-108.642687, 45.462136], [-108.806995, 45.626444], [-108.845333, 45.610013], [-108.922011, 46.130322], [-108.77961, 46.130322], [-107.782807, 46.497277]]]}}, {"type": "Feature", "properties": {"name": "Caldwell", "id": "37027", "FIPS": "37027", "FIPS State": 37, "ST": "NC", "County": "Caldwell County,NC", "State": "North Carolina"}, "geometry": {"type": "Polygon", "coordinates": [[[-81.685186, 36.123952], [-81.542786, 36.118475], [-81.329185, 35.997983], [-81.334662, 35.795336], [-81.362047, 35.767951], [-81.805679, 35.959644], [-81.811156, 36.112998], [-81.685186, 36.123952]]]}}, {"type": "Feature", "properties": {"name": "Grand Traverse", "id": "26055", "FIPS": "26055", "FIPS State": 26, "ST": "MI", "County": "Grand Traverse County,MI", "State": "Michigan"}, "geometry": {"type": "Polygon", "coordinates": [[[-85.42046, 44.859672], [-85.332828, 44.81038], [-85.332828, 44.514625], [-85.694307, 44.514625], [-85.814799, 44.514625], [-85.814799, 44.772041], [-85.639537, 44.777518], [-85.442367, 44.859672], [-85.42046, 44.859672]]]}}, {"type": "Feature", "properties": {"name": "Elko", "id": "32007", "FIPS": "32007", "FIPS State": 32, "ST": "NV", "County": "Elko County,NV", "State": "Nevada"}, "geometry": {"type": "Polygon", "coordinates": [[[-115.039753, 41.995232], [-114.283935, 41.995232], [-114.04295, 41.995232], [-114.04295, 40.998429], [-114.048427, 40.116642], [-115.833909, 40.127596], [-116.157049, 40.998429], [-116.58425, 40.998429], [-117.016928, 40.998429], [-117.016928, 42.000709], [-115.039753, 41.995232]]]}}, {"type": "Feature", "properties": {"name": "Aroostook", "id": "23003", "FIPS": "23003", "FIPS State": 23, "ST": "ME", "County": "Aroostook County,ME", "State": "Maine"}, "geometry": {"type": "Polygon", "coordinates": [[[-67.806619, 45.681213], [-68.047605, 45.637398], [-68.43099, 45.577151], [-68.513145, 46.382262], [-68.819853, 46.393216], [-68.819853, 46.573955], [-69.723548, 46.573955], [-70.02478, 46.573955], [-69.225147, 47.461219], [-68.902007, 47.176418], [-68.233821, 47.357157], [-67.790188, 47.066879], [-67.806619, 45.681213]]]}}, {"type": "Feature", "properties": {"name": "Huntingdon", "id": "42061", "FIPS": "42061", "FIPS State": 42, "ST": "PA", "County": "Huntingdon County,PA", "State": "Pennsylvania"}, "geometry": {"type": "Polygon", "coordinates": [[[-78.114221, 40.741013], [-77.681543, 40.730059], [-77.752743, 40.379535], [-77.703451, 40.264519], [-77.862282, 40.061872], [-78.136129, 40.165934], [-78.256622, 40.297381], [-78.114221, 40.741013]]]}}, {"type": "Feature", "properties": {"name": "Madison", "id": "36053", "FIPS": "36053", "FIPS State": 36, "ST": "NY", "County": "Madison County,NY", "State": "New York"}, "geometry": {"type": "Polygon", "coordinates": [[[-75.978214, 43.167298], [-75.994645, 43.183728], [-75.885106, 43.156344], [-75.249781, 42.871543], [-75.293597, 42.745573], [-75.310028, 42.745573], [-75.890583, 42.723665], [-75.89606, 42.789389], [-75.978214, 43.167298]]]}}, {"type": "Feature", "properties": {"name": "Cape May", "id": "34009", "FIPS": "34009", "FIPS State": 34, "ST": "NJ", "County": "Cape May County,NJ", "State": "New Jersey"}, "geometry": {"type": "Polygon", "coordinates": [[[-74.860918, 39.322485], [-74.548733, 39.295101], [-74.915688, 39.180085], [-74.860918, 39.322485]]]}}, {"type": "Feature", "properties": {"name": "Otter Tail", "id": "27111", "FIPS": "27111", "FIPS State": 27, "ST": "MN", "County": "Otter Tail County,MN", "State": "Minnesota"}, "geometry": {"type": "Polygon", "coordinates": [[[-96.17717, 46.716355], [-95.163936, 46.716355], [-95.152983, 46.371308], [-95.147506, 46.108415], [-95.393968, 46.108415], [-95.771877, 46.108415], [-96.264801, 46.108415], [-96.281232, 46.628724], [-96.17717, 46.716355]]]}}, {"type": "Feature", "properties": {"name": "Cleveland", "id": "37045", "FIPS": "37045", "FIPS State": 37, "ST": "NC", "County": "Cleveland County,NC", "State": "North Carolina"}, "geometry": {"type": "Polygon", "coordinates": [[[-81.586601, 35.565304], [-81.537309, 35.565304], [-81.455155, 35.417427], [-81.329185, 35.165488], [-81.367524, 35.165488], [-81.76734, 35.181919], [-81.690663, 35.581735], [-81.586601, 35.565304]]]}}, {"type": "Feature", "properties": {"name": "Ohio", "id": "54069", "FIPS": "54069", "FIPS State": 54, "ST": "WV", "County": "Ohio County,WV", "State": "West Virginia"}, "geometry": {"type": "Polygon", "coordinates": [[[-80.682906, 40.187842], [-80.518598, 40.160457], [-80.518598, 40.018057], [-80.726722, 40.034488], [-80.732199, 40.034488], [-80.704814, 40.15498], [-80.682906, 40.187842]]]}}, {"type": "Feature", "properties": {"name": "Sheridan", "id": "56033", "FIPS": "56033", "FIPS State": 56, "ST": "WY", "County": "Sheridan County,WY", "State": "Wyoming"}, "geometry": {"type": "Polygon", "coordinates": [[[-107.914254, 45.002073], [-106.265695, 44.991119], [-106.024709, 44.991119], [-106.008278, 44.563917], [-107.372036, 44.55844], [-107.914254, 45.002073]]]}}, {"type": "Feature", "properties": {"name": "Warren", "id": "51187", "FIPS": "51187", "FIPS State": 51, "ST": "VA", "County": "Warren County,VA", "State": "Virginia"}, "geometry": {"type": "Polygon", "coordinates": [[[-78.15256, 39.037685], [-78.004682, 38.977438], [-78.130652, 38.862422], [-78.256622, 38.758361], [-78.284006, 38.758361], [-78.388068, 38.829561], [-78.311391, 39.0103], [-78.15256, 39.037685]]]}}, {"type": "Feature", "properties": {"name": "Pike", "id": "42103", "FIPS": "42103", "FIPS State": 42, "ST": "PA", "County": "Pike County,PA", "State": "Pennsylvania"}, "geometry": {"type": "Polygon", "coordinates": [[[-75.069042, 41.600893], [-74.756857, 41.425631], [-74.69661, 41.359907], [-74.992365, 41.091537], [-75.271689, 41.244892], [-75.35932, 41.239415], [-75.069042, 41.600893]]]}}, {"type": "Feature", "properties": {"name": "Jefferson", "id": "42065", "FIPS": "42065", "FIPS State": 42, "ST": "PA", "County": "Jefferson County,PA", "State": "Pennsylvania"}, "geometry": {"type": "Polygon", "coordinates": [[[-78.95767, 41.370861], [-78.711208, 41.201076], [-78.804316, 40.905321], [-79.215086, 40.910798], [-79.215086, 41.053199], [-79.209609, 41.332523], [-79.094593, 41.343476], [-78.95767, 41.370861]]]}}, {"type": "Feature", "properties": {"name": "Richland", "id": "39139", "FIPS": "39139", "FIPS State": 39, "ST": "OH", "County": "Richland County,OH", "State": "Ohio"}, "geometry": {"type": "Polygon", "coordinates": [[[-82.687466, 40.992952], [-82.435527, 40.992952], [-82.336942, 40.554797], [-82.621743, 40.54932], [-82.725805, 40.713628], [-82.725805, 40.998429], [-82.687466, 40.992952]]]}}, {"type": "Feature", "properties": {"name": "Waupaca", "id": "55135", "FIPS": "55135", "FIPS State": 55, "ST": "WI", "County": "Waupaca County,WI", "State": "Wisconsin"}, "geometry": {"type": "Polygon", "coordinates": [[[-89.221456, 44.678933], [-88.608039, 44.591302], [-88.739485, 44.240778], [-88.887363, 44.240778], [-89.226933, 44.246255], [-89.221456, 44.678933]]]}}, {"type": "Feature", "properties": {"name": "San Patricio", "id": "48409", "FIPS": "48409", "FIPS State": 48, "ST": "TX", "County": "San Patricio County,TX", "State": "Texas"}, "geometry": {"type": "Polygon", "coordinates": [[[-97.820252, 28.176912], [-97.540929, 28.165958], [-97.261605, 28.078327], [-97.135635, 27.903065], [-97.365666, 27.848295], [-97.803822, 27.979742], [-97.798345, 27.996173], [-97.880499, 28.056419], [-97.820252, 28.176912]]]}}, {"type": "Feature", "properties": {"name": "Pike", "id": "21195", "FIPS": "21195", "FIPS State": 21, "ST": "KY", "County": "Pike County,KY", "State": "Kentucky"}, "geometry": {"type": "Polygon", "coordinates": [[[-82.145249, 37.569865], [-81.969987, 37.537003], [-82.315034, 37.296018], [-82.55602, 37.20291], [-82.566974, 37.197433], [-82.731282, 37.27411], [-82.709374, 37.285064], [-82.561497, 37.68488], [-82.331465, 37.73965], [-82.145249, 37.569865]]]}}, {"type": "Feature", "properties": {"name": "Nye", "id": "32023", "FIPS": "32023", "FIPS State": 32, "ST": "NV", "County": "Nye County,NV", "State": "Nevada"}, "geometry": {"type": "Polygon", "coordinates": [[[-116.233726, 39.163654], [-115.90511, 39.163654], [-115.001414, 38.676207], [-115.001414, 38.051835], [-115.894156, 38.051835], [-115.894156, 36.841432], [-115.899633, 36.00346], [-117.164806, 36.972878], [-117.164806, 38.002543], [-117.690592, 38.47356], [-118.194471, 38.917192], [-117.865854, 39.076023], [-117.772746, 39.092454], [-116.600681, 39.163654], [-116.233726, 39.163654]]]}}, {"type": "Feature", "properties": {"name": "Huron", "id": "39077", "FIPS": "39077", "FIPS State": 39, "ST": "OH", "County": "Huron County,OH", "State": "Ohio"}, "geometry": {"type": "Polygon", "coordinates": [[[-82.840821, 41.288707], [-82.342419, 41.28323], [-82.336942, 41.064153], [-82.375281, 41.064153], [-82.435527, 40.992952], [-82.687466, 40.992952], [-82.725805, 40.998429], [-82.829867, 40.998429], [-82.840821, 41.255845], [-82.840821, 41.288707]]]}}, {"type": "Feature", "properties": {"name": "Nash", "id": "37127", "FIPS": "37127", "FIPS State": 37, "ST": "NC", "County": "Nash County,NC", "State": "North Carolina"}, "geometry": {"type": "Polygon", "coordinates": [[[-78.053975, 36.134906], [-78.004682, 36.200629], [-77.697974, 36.151337], [-77.82942, 35.866536], [-78.190898, 35.729613], [-78.256622, 35.817244], [-78.053975, 36.134906]]]}}, {"type": "Feature", "properties": {"name": "La Salle", "id": "17099", "FIPS": "17099", "FIPS State": 17, "ST": "IL", "County": "La Salle County,IL", "State": "Illinois"}, "geometry": {"type": "Polygon", "coordinates": [[[-88.618993, 41.633754], [-88.602562, 41.633754], [-88.597085, 41.458492], [-88.586131, 41.107968], [-88.931178, 40.927229], [-89.046194, 40.927229], [-89.16121, 41.102491], [-89.16121, 41.310615], [-89.166687, 41.584462], [-88.936655, 41.628277], [-88.618993, 41.633754]]]}}, {"type": "Feature", "properties": {"name": "Allegany", "id": "24001", "FIPS": "24001", "FIPS State": 24, "ST": "MD", "County": "Allegany County,MD", "State": "Maryland"}, "geometry": {"type": "Polygon", "coordinates": [[[-78.809792, 39.722302], [-78.382591, 39.722302], [-78.344253, 39.722302], [-78.333299, 39.634671], [-78.470222, 39.514178], [-78.656438, 39.536086], [-78.738592, 39.623717], [-79.067209, 39.47584], [-78.930285, 39.722302], [-78.809792, 39.722302]]]}}, {"type": "Feature", "properties": {"name": "Kenai Peninsula", "id": "02122", "FIPS": "02122", "FIPS State": 2, "ST": "AK", "County": "Kenai Peninsula County,AK", "State": "Alaska"}, "geometry": {"type": "MultiPolygon", "coordinates": [[[[-153.427628, 61.427417], [-153.000427, 61.427417], [-151.335437, 61.42194], [-150.973959, 61.191908], [-152.080301, 60.693507], [-152.567748, 60.069136], [-153.214027, 59.636457], [-153.608367, 59.620026], [-154.260123, 59.143533], [-153.312612, 58.847778], [-153.329043, 58.853255], [-154.303938, 58.645131], [-154.638032, 58.645131], [-154.747571, 59.253071], [-153.652183, 59.784335], [-153.438582, 60.907107], [-153.427628, 61.427417]]], [[[-149.730693, 60.994739], [-148.744844, 60.731845], [-148.586013, 59.959597], [-149.358261, 60.101997], [-149.741647, 59.729565], [-151.592853, 59.159963], [-151.888608, 59.422857], [-151.160175, 59.592642], [-151.8667, 59.778858], [-151.423068, 60.211536], [-151.406637, 60.720892], [-150.404357, 61.038554], [-149.73617, 60.994739], [-149.730693, 60.994739]]]]}}, {"type": "Feature", "properties": {"name": "Monroe", "id": "55081", "FIPS": "55081", "FIPS State": 55, "ST": "WI", "County": "Monroe County,WI", "State": "Wisconsin"}, "geometry": {"type": "Polygon", "coordinates": [[[-90.492106, 44.158624], [-90.311367, 44.153147], [-90.311367, 43.731422], [-90.908354, 43.725946], [-90.974077, 44.070993], [-90.492106, 44.158624]]]}}, {"type": "Feature", "properties": {"name": "Moore", "id": "37125", "FIPS": "37125", "FIPS State": 37, "ST": "NC", "County": "Moore County,NC", "State": "North Carolina"}, "geometry": {"type": "Polygon", "coordinates": [[[-79.35201, 35.516012], [-79.182224, 35.307888], [-79.094593, 35.192872], [-79.10007, 35.176442], [-79.127455, 35.165488], [-79.461548, 35.044995], [-79.614903, 35.165488], [-79.768257, 35.510535], [-79.554656, 35.516012], [-79.35201, 35.516012]]]}}, {"type": "Feature", "properties": {"name": "Saginaw", "id": "26145", "FIPS": "26145", "FIPS State": 26, "ST": "MI", "County": "Saginaw County,MI", "State": "Michigan"}, "geometry": {"type": "Polygon", "coordinates": [[[-84.138855, 43.567114], [-83.7007, 43.479483], [-83.695223, 43.222067], [-83.930732, 43.134436], [-83.941686, 43.134436], [-84.368887, 43.128959], [-84.368887, 43.468529], [-84.16624, 43.567114], [-84.138855, 43.567114]]]}}, {"type": "Feature", "properties": {"name": "Uintah", "id": "49047", "FIPS": "49047", "FIPS State": 49, "ST": "UT", "County": "Uintah County,UT", "State": "Utah"}, "geometry": {"type": "Polygon", "coordinates": [[[-109.283489, 40.856029], [-109.04798, 40.653382], [-109.053457, 40.220704], [-109.053457, 39.662056], [-109.053457, 39.497748], [-110.022876, 39.459409], [-110.022876, 39.470363], [-109.968106, 39.804456], [-109.97906, 40.812213], [-109.283489, 40.856029]]]}}, {"type": "Feature", "properties": {"name": "Columbia", "id": "55021", "FIPS": "55021", "FIPS State": 55, "ST": "WI", "County": "Columbia County,WI", "State": "Wisconsin"}, "geometry": {"type": "Polygon", "coordinates": [[[-89.243364, 43.643791], [-89.007855, 43.632838], [-89.007855, 43.282313], [-89.413149, 43.293267], [-89.719858, 43.293267], [-89.785581, 43.638314], [-89.599365, 43.643791], [-89.243364, 43.643791]]]}}, {"type": "Feature", "properties": {"name": "King George", "id": "51099", "FIPS": "51099", "FIPS State": 51, "ST": "VA", "County": "King George County,VA", "State": "Virginia"}, "geometry": {"type": "Polygon", "coordinates": [[[-76.996925, 38.27639], [-77.062649, 38.161374], [-77.117418, 38.15042], [-77.325542, 38.243528], [-77.287203, 38.34759], [-76.996925, 38.27639]]]}}, {"type": "Feature", "properties": {"name": "Worcester", "id": "24047", "FIPS": "24047", "FIPS State": 24, "ST": "MD", "County": "Worcester County,MD", "State": "Maryland"}, "geometry": {"type": "Polygon", "coordinates": [[[-75.342889, 38.451652], [-75.047134, 38.451652], [-75.244304, 38.029928], [-75.397659, 38.013497], [-75.622213, 37.991589], [-75.611259, 38.27639], [-75.342889, 38.451652]]]}}, {"type": "Feature", "properties": {"name": "Limestone", "id": "01083", "FIPS": "01083", "FIPS State": 1, "ST": "AL", "County": "Limestone County,AL", "State": "Alabama"}, "geometry": {"type": "Polygon", "coordinates": [[[-87.211419, 35.00118], [-86.838987, 34.990226], [-86.784218, 34.990226], [-86.789695, 34.55207], [-87.03068, 34.650655], [-87.107357, 34.683517], [-87.260711, 34.760194], [-87.211419, 35.00118]]]}}, {"type": "Feature", "properties": {"name": "Sullivan", "id": "47163", "FIPS": "47163", "FIPS State": 47, "ST": "TN", "County": "Sullivan County,TN", "State": "Tennessee"}, "geometry": {"type": "Polygon", "coordinates": [[[-81.827587, 36.616877], [-81.986418, 36.507338], [-82.298603, 36.397799], [-82.473866, 36.441615], [-82.681989, 36.430661], [-82.610789, 36.594969], [-82.293127, 36.594969], [-82.243834, 36.594969], [-82.145249, 36.594969], [-81.827587, 36.616877]]]}}, {"type": "Feature", "properties": {"name": "Rockdale", "id": "13247", "FIPS": "13247", "FIPS State": 13, "ST": "GA", "County": "Rockdale County,GA", "State": "Georgia"}, "geometry": {"type": "Polygon", "coordinates": [[[-83.980024, 33.785299], [-83.914301, 33.74696], [-84.045747, 33.527883], [-84.182671, 33.648375], [-84.02384, 33.752437], [-83.980024, 33.785299]]]}}, {"type": "Feature", "properties": {"name": "Washington", "id": "40147", "FIPS": "40147", "FIPS State": 40, "ST": "OK", "County": "Washington County,OK", "State": "Oklahoma"}, "geometry": {"type": "Polygon", "coordinates": [[[-95.9088, 37.000263], [-95.788308, 37.000263], [-95.810215, 36.594969], [-95.810215, 36.425184], [-95.919754, 36.425184], [-96.001908, 36.425184], [-96.001908, 37.000263], [-95.96357, 37.000263], [-95.9088, 37.000263]]]}}, {"type": "Feature", "properties": {"name": "Dodge", "id": "55027", "FIPS": "55027", "FIPS State": 55, "ST": "WI", "County": "Dodge County,WI", "State": "Wisconsin"}, "geometry": {"type": "Polygon", "coordinates": [[[-88.887363, 43.632838], [-88.399915, 43.545207], [-88.416346, 43.194682], [-88.536839, 43.194682], [-88.991425, 43.200159], [-89.007855, 43.200159], [-89.007855, 43.282313], [-89.007855, 43.632838], [-88.887363, 43.632838]]]}}, {"type": "Feature", "properties": {"name": "Bonner", "id": "16017", "FIPS": "16017", "FIPS State": 16, "ST": "ID", "County": "Bonner County,ID", "State": "Idaho"}, "geometry": {"type": "Polygon", "coordinates": [[[-116.836189, 48.846885], [-116.786897, 48.501838], [-116.04751, 48.501838], [-116.04751, 48.217037], [-116.04751, 47.976051], [-116.310403, 48.030821], [-116.321357, 47.88842], [-116.567819, 47.992482], [-117.044313, 47.976051], [-117.044313, 48.047251], [-117.033359, 48.846885], [-116.836189, 48.846885]]]}}, {"type": "Feature", "properties": {"name": "Elk", "id": "42047", "FIPS": "42047", "FIPS State": 42, "ST": "PA", "County": "Elk County,PA", "State": "Pennsylvania"}, "geometry": {"type": "Polygon", "coordinates": [[[-78.95767, 41.6228], [-78.42093, 41.600893], [-78.234714, 41.228461], [-78.711208, 41.201076], [-78.95767, 41.370861], [-79.094593, 41.343476], [-78.95767, 41.6228]]]}}, {"type": "Feature", "properties": {"name": "Boone", "id": "18011", "FIPS": "18011", "FIPS State": 18, "ST": "IN", "County": "Boone County,IN", "State": "Indiana"}, "geometry": {"type": "Polygon", "coordinates": [[[-86.242001, 40.182365], [-86.242001, 39.924949], [-86.324155, 39.924949], [-86.433693, 39.924949], [-86.696587, 39.924949], [-86.696587, 40.176888], [-86.242001, 40.182365]]]}}, {"type": "Feature", "properties": {"name": "Cumberland", "id": "47035", "FIPS": "47035", "FIPS State": 47, "ST": "TN", "County": "Cumberland County,TN", "State": "Tennessee"}, "geometry": {"type": "Polygon", "coordinates": [[[-84.987781, 36.162291], [-84.905627, 36.156814], [-84.681073, 35.910352], [-84.779657, 35.822721], [-84.916581, 35.762474], [-85.256151, 35.767951], [-85.256151, 35.767951], [-85.272582, 35.789859], [-85.267105, 35.795336], [-85.261628, 35.981552], [-85.102797, 36.140383], [-84.987781, 36.162291]]]}}, {"type": "Feature", "properties": {"name": "Lenawee", "id": "26091", "FIPS": "26091", "FIPS State": 26, "ST": "MI", "County": "Lenawee County,MI", "State": "Michigan"}, "geometry": {"type": "Polygon", "coordinates": [[[-83.7719, 42.082863], [-83.760947, 41.721385], [-83.881439, 41.721385], [-83.89787, 41.721385], [-84.357933, 41.704955], [-84.36341, 42.07191], [-84.133379, 42.07191], [-83.7719, 42.082863]]]}}, {"type": "Feature", "properties": {"name": "Erie", "id": "39043", "FIPS": "39043", "FIPS State": 39, "ST": "OH", "County": "Erie County,OH", "State": "Ohio"}, "geometry": {"type": "Polygon", "coordinates": [[[-82.775097, 41.4804], [-82.692943, 41.491354], [-82.347896, 41.431108], [-82.342419, 41.28323], [-82.840821, 41.288707], [-82.955836, 41.458492], [-82.775097, 41.4804]]]}}, {"type": "Feature", "properties": {"name": "Jefferson", "id": "55055", "FIPS": "55055", "FIPS State": 55, "ST": "WI", "County": "Jefferson County,WI", "State": "Wisconsin"}, "geometry": {"type": "Polygon", "coordinates": [[[-88.991425, 43.200159], [-88.536839, 43.194682], [-88.542316, 42.844158], [-88.547792, 42.844158], [-88.777824, 42.844158], [-89.013332, 42.849635], [-89.007855, 43.200159], [-88.991425, 43.200159]]]}}, {"type": "Feature", "properties": {"name": "Onslow", "id": "37133", "FIPS": "37133", "FIPS State": 37, "ST": "NC", "County": "Onslow County,NC", "State": "North Carolina"}, "geometry": {"type": "Polygon", "coordinates": [[[-77.676066, 34.973795], [-77.16671, 34.787579], [-77.111941, 34.639701], [-77.517235, 34.442532], [-77.681543, 34.721856], [-77.676066, 34.973795]]]}}, {"type": "Feature", "properties": {"name": "Botetourt", "id": "51023", "FIPS": "51023", "FIPS State": 51, "ST": "VA", "County": "Botetourt County,VA", "State": "Virginia"}, "geometry": {"type": "Polygon", "coordinates": [[[-79.790165, 37.794419], [-79.675149, 37.761557], [-79.499887, 37.531526], [-79.844934, 37.306971], [-80.074966, 37.421987], [-80.020196, 37.646542], [-79.790165, 37.794419]]]}}, {"type": "Feature", "properties": {"name": "Marion", "id": "19125", "FIPS": "19125", "FIPS State": 19, "ST": "IA", "County": "Marion County,IA", "State": "Iowa"}, "geometry": {"type": "Polygon", "coordinates": [[[-92.869098, 41.507785], [-92.869098, 41.162737], [-93.09913, 41.162737], [-93.329161, 41.162737], [-93.329161, 41.491354], [-93.329161, 41.507785], [-92.869098, 41.507785]]]}}, {"type": "Feature", "properties": {"name": "Eagle", "id": "08037", "FIPS": "08037", "FIPS State": 8, "ST": "CO", "County": "Eagle County,CO", "State": "Colorado"}, "geometry": {"type": "Polygon", "coordinates": [[[-106.627173, 39.924949], [-106.43548, 39.924949], [-106.205448, 39.377255], [-106.424526, 39.360824], [-107.04342, 39.366301], [-107.11462, 39.366301], [-107.032466, 39.919472], [-106.627173, 39.924949]]]}}, {"type": "Feature", "properties": {"name": "Harrison", "id": "54033", "FIPS": "54033", "FIPS State": 54, "ST": "WV", "County": "Harrison County,WV", "State": "West Virginia"}, "geometry": {"type": "Polygon", "coordinates": [[[-80.49669, 39.470363], [-80.195458, 39.393686], [-80.168074, 39.240331], [-80.22832, 39.114362], [-80.29952, 39.103408], [-80.452875, 39.141746], [-80.595275, 39.169131], [-80.545983, 39.426547], [-80.49669, 39.470363]]]}}, {"type": "Feature", "properties": {"name": "Jasper", "id": "19099", "FIPS": "19099", "FIPS State": 19, "ST": "IA", "County": "Jasper County,IA", "State": "Iowa"}, "geometry": {"type": "Polygon", "coordinates": [[[-93.268915, 41.863786], [-93.230576, 41.863786], [-92.765037, 41.863786], [-92.754083, 41.507785], [-92.869098, 41.507785], [-93.329161, 41.507785], [-93.345592, 41.863786], [-93.268915, 41.863786]]]}}, {"type": "Feature", "properties": {"name": "Sevier", "id": "47155", "FIPS": "47155", "FIPS State": 47, "ST": "TN", "County": "Sevier County,TN", "State": "Tennessee"}, "geometry": {"type": "Polygon", "coordinates": [[[-83.678792, 36.030844], [-83.673316, 36.036321], [-83.311837, 35.893921], [-83.257068, 35.713182], [-83.257068, 35.696751], [-83.662362, 35.570781], [-83.793808, 35.888444], [-83.678792, 36.030844]]]}}, {"type": "Feature", "properties": {"name": "Sullivan", "id": "33019", "FIPS": "33019", "FIPS State": 33, "ST": "NH", "County": "Sullivan County,NH", "State": "New Hampshire"}, "geometry": {"type": "Polygon", "coordinates": [[[-72.330572, 43.599976], [-71.936232, 43.528776], [-72.007433, 43.189205], [-72.040294, 43.128959], [-72.199125, 43.178252], [-72.451065, 43.161821], [-72.434634, 43.233021], [-72.330572, 43.599976]]]}}, {"type": "Feature", "properties": {"name": "Lawrence", "id": "42073", "FIPS": "42073", "FIPS State": 42, "ST": "PA", "County": "Lawrence County,PA", "State": "Pennsylvania"}, "geometry": {"type": "Polygon", "coordinates": [[[-80.518598, 41.124399], [-80.096873, 41.069629], [-80.15712, 40.856029], [-80.255705, 40.856029], [-80.518598, 40.850552], [-80.518598, 40.899844], [-80.518598, 41.124399]]]}}, {"type": "Feature", "properties": {"name": "Ozaukee", "id": "55089", "FIPS": "55089", "FIPS State": 55, "ST": "WI", "County": "Ozaukee County,WI", "State": "Wisconsin"}, "geometry": {"type": "Polygon", "coordinates": [[[-87.923421, 43.545207], [-87.791975, 43.545207], [-87.89056, 43.194682], [-87.972714, 43.194682], [-88.065822, 43.194682], [-88.038437, 43.53973], [-87.923421, 43.545207]]]}}, {"type": "Feature", "properties": {"name": "Wicomico", "id": "24045", "FIPS": "24045", "FIPS State": 24, "ST": "MD", "County": "Wicomico County,MD", "State": "Maryland"}, "geometry": {"type": "Polygon", "coordinates": [[[-75.813906, 38.489991], [-75.69889, 38.561191], [-75.342889, 38.451652], [-75.611259, 38.27639], [-75.62769, 38.281867], [-75.863199, 38.238051], [-75.923445, 38.265436], [-75.813906, 38.489991]]]}}, {"type": "Feature", "properties": {"name": "Coos", "id": "41011", "FIPS": "41011", "FIPS State": 41, "ST": "OR", "County": "Coos County,OR", "State": "Oregon"}, "geometry": {"type": "Polygon", "coordinates": [[[-124.147905, 43.61093], [-123.874058, 43.61093], [-123.813811, 42.789389], [-124.295782, 42.953697], [-124.481998, 42.953697], [-124.219105, 43.61093], [-124.147905, 43.61093]]]}}, {"type": "Feature", "properties": {"name": "Chippewa", "id": "55017", "FIPS": "55017", "FIPS State": 55, "ST": "WI", "County": "Chippewa County,WI", "State": "Wisconsin"}, "geometry": {"type": "Polygon", "coordinates": [[[-91.089093, 45.29235], [-90.924785, 45.29235], [-90.924785, 45.029457], [-90.924785, 44.859672], [-91.499863, 44.859672], [-91.653218, 44.854195], [-91.664172, 45.210196], [-91.543679, 45.29235], [-91.089093, 45.29235]]]}}, {"type": "Feature", "properties": {"name": "Walker", "id": "13295", "FIPS": "13295", "FIPS State": 13, "ST": "GA", "County": "Walker County,GA", "State": "Georgia"}, "geometry": {"type": "Polygon", "coordinates": [[[-85.272582, 34.984749], [-85.267105, 34.984749], [-85.146612, 34.765671], [-85.048028, 34.623271], [-85.069935, 34.584932], [-85.09732, 34.584932], [-85.108274, 34.584932], [-85.529998, 34.590409], [-85.535475, 34.623271], [-85.36569, 34.984749], [-85.272582, 34.984749]]]}}, {"type": "Feature", "properties": {"name": "Berkeley", "id": "54003", "FIPS": "54003", "FIPS State": 54, "ST": "WV", "County": "Berkeley County,WV", "State": "West Virginia"}, "geometry": {"type": "Polygon", "coordinates": [[[-78.021113, 39.61824], [-77.823943, 39.492271], [-77.823943, 39.492271], [-78.032067, 39.262239], [-78.229237, 39.393686], [-78.021113, 39.61824]]]}}, {"type": "Feature", "properties": {"name": "Paulding", "id": "13223", "FIPS": "13223", "FIPS State": 13, "ST": "GA", "County": "Paulding County,GA", "State": "Georgia"}, "geometry": {"type": "Polygon", "coordinates": [[[-84.922058, 34.081054], [-84.735842, 34.081054], [-84.724888, 33.807207], [-84.90015, 33.779822], [-85.037074, 33.812683], [-85.048028, 33.905791], [-84.922058, 34.081054]]]}}, {"type": "Feature", "properties": {"name": "Amador", "id": "06005", "FIPS": "06005", "FIPS State": 6, "ST": "CA", "County": "Amador County,CA", "State": "California"}, "geometry": {"type": "Polygon", "coordinates": [[[-120.073061, 38.698114], [-120.073061, 38.511898], [-120.993187, 38.227097], [-121.026049, 38.298298], [-121.026049, 38.506421], [-120.073061, 38.703591], [-120.073061, 38.698114]]]}}, {"type": "Feature", "properties": {"name": "Juneau", "id": "02110", "FIPS": "02110", "FIPS State": 2, "ST": "AK", "County": "Juneau County,AK", "State": "Alaska"}, "geometry": {"type": "Polygon", "coordinates": [[[-135.178463, 58.973748], [-134.329537, 58.962794], [-133.382026, 58.426053], [-133.173903, 58.152206], [-133.529904, 57.911221], [-133.601104, 57.861929], [-135.074401, 58.502731], [-135.178463, 58.973748]]]}}, {"type": "Feature", "properties": {"name": "Frederick", "id": "51069", "FIPS": "51069", "FIPS State": 51, "ST": "VA", "County": "Frederick County,VA", "State": "Virginia"}, "geometry": {"type": "Polygon", "coordinates": [[[-78.349729, 39.464886], [-78.229237, 39.393686], [-78.032067, 39.262239], [-78.032067, 39.262239], [-78.15256, 39.037685], [-78.311391, 39.0103], [-78.338776, 39.103408], [-78.541422, 39.054115], [-78.508561, 39.086977], [-78.349729, 39.464886]]]}}, {"type": "Feature", "properties": {"name": "San Juan", "id": "35045", "FIPS": "35045", "FIPS State": 35, "ST": "NM", "County": "San Juan County,NM", "State": "New Mexico"}, "geometry": {"type": "Polygon", "coordinates": [[[-107.421329, 37.000263], [-107.623976, 36.222537], [-107.623976, 35.997983], [-108.883672, 36.00346], [-109.04798, 36.00346], [-109.042503, 37.000263], [-108.379794, 37.000263], [-107.481575, 37.000263], [-107.421329, 37.000263]]]}}, {"type": "Feature", "properties": {"name": "Watauga", "id": "37189", "FIPS": "37189", "FIPS State": 37, "ST": "NC", "County": "Watauga County,NC", "State": "North Carolina"}, "geometry": {"type": "Polygon", "coordinates": [[[-81.734479, 36.392322], [-81.477062, 36.238968], [-81.542786, 36.118475], [-81.685186, 36.123952], [-81.811156, 36.112998], [-81.920695, 36.288261], [-81.734479, 36.392322]]]}}, {"type": "Feature", "properties": {"name": "Oneida", "id": "55085", "FIPS": "55085", "FIPS State": 55, "ST": "WI", "County": "Oneida County,WI", "State": "Wisconsin"}, "geometry": {"type": "Polygon", "coordinates": [[[-89.298133, 45.872906], [-89.046194, 45.894814], [-89.046194, 45.462136], [-89.237887, 45.467613], [-89.424103, 45.467613], [-90.042997, 45.555244], [-90.042997, 45.894814], [-89.298133, 45.872906]]]}}, {"type": "Feature", "properties": {"name": "Goochland", "id": "51075", "FIPS": "51075", "FIPS State": 51, "ST": "VA", "County": "Goochland County,VA", "State": "Virginia"}, "geometry": {"type": "Polygon", "coordinates": [[[-78.064929, 37.903958], [-77.796559, 37.728696], [-77.63225, 37.706788], [-77.654158, 37.564388], [-78.015636, 37.641065], [-78.070406, 37.657496], [-78.158037, 37.750604], [-78.064929, 37.903958]]]}}, {"type": "Feature", "properties": {"name": "Waldo", "id": "23027", "FIPS": "23027", "FIPS State": 23, "ST": "ME", "County": "Waldo County,ME", "State": "Maine"}, "geometry": {"type": "Polygon", "coordinates": [[[-69.471609, 44.695364], [-69.268962, 44.722749], [-68.814376, 44.68441], [-68.797945, 44.470809], [-69.027977, 44.251732], [-69.411363, 44.328409], [-69.504471, 44.34484], [-69.471609, 44.695364]]]}}, {"type": "Feature", "properties": {"name": "Douglas", "id": "55031", "FIPS": "55031", "FIPS State": 55, "ST": "WI", "County": "Douglas County,WI", "State": "Wisconsin"}, "geometry": {"type": "Polygon", "coordinates": [[[-91.549156, 46.754694], [-91.549156, 46.157707], [-92.020173, 46.157707], [-92.047557, 46.157707], [-92.29402, 46.157707], [-92.29402, 46.415123], [-92.29402, 46.661586], [-92.014696, 46.705401], [-91.549156, 46.754694]]]}}, {"type": "Feature", "properties": {"name": "Sheboygan", "id": "55117", "FIPS": "55117", "FIPS State": 55, "ST": "WI", "County": "Sheboygan County,WI", "State": "Wisconsin"}, "geometry": {"type": "Polygon", "coordinates": [[[-87.770067, 43.890254], [-87.731728, 43.890254], [-87.791975, 43.545207], [-87.923421, 43.545207], [-88.038437, 43.53973], [-88.15893, 43.545207], [-88.164407, 43.890254], [-88.043914, 43.890254], [-87.770067, 43.890254]]]}}, {"type": "Feature", "properties": {"name": "Lonoke", "id": "05085", "FIPS": "05085", "FIPS State": 5, "ST": "AR", "County": "Lonoke County,AR", "State": "Arkansas"}, "geometry": {"type": "Polygon", "coordinates": [[[-91.801095, 35.028564], [-91.680602, 34.48087], [-91.70251, 34.48087], [-92.031127, 34.491824], [-92.118758, 35.012133], [-92.118758, 35.066903], [-91.801095, 35.028564]]]}}, {"type": "Feature", "properties": {"name": "Carter", "id": "40019", "FIPS": "40019", "FIPS State": 40, "ST": "OK", "County": "Carter County,OK", "State": "Oklahoma"}, "geometry": {"type": "Polygon", "coordinates": [[[-97.562836, 34.508255], [-97.354713, 34.508255], [-96.932988, 34.332993], [-96.932988, 34.174162], [-96.971327, 34.0701], [-97.562836, 34.0701], [-97.562836, 34.289177], [-97.562836, 34.508255]]]}}, {"type": "Feature", "properties": {"name": "Faulkner", "id": "05045", "FIPS": "05045", "FIPS State": 5, "ST": "AR", "County": "Faulkner County,AR", "State": "Arkansas"}, "geometry": {"type": "Polygon", "coordinates": [[[-92.480236, 35.368135], [-92.250204, 35.362658], [-92.113281, 35.362658], [-92.118758, 35.066903], [-92.118758, 35.012133], [-92.228296, 34.957364], [-92.545959, 34.951887], [-92.556913, 35.110718], [-92.480236, 35.368135], [-92.480236, 35.368135]]]}}, {"type": "Feature", "properties": {"name": "Clayton", "id": "13063", "FIPS": "13063", "FIPS State": 13, "ST": "GA", "County": "Clayton County,GA", "State": "Georgia"}, "geometry": {"type": "Polygon", "coordinates": [[[-84.352456, 33.648375], [-84.281256, 33.648375], [-84.352456, 33.35262], [-84.368887, 33.35262], [-84.385318, 33.35262], [-84.451041, 33.54979], [-84.456518, 33.54979], [-84.352456, 33.648375]]]}}, {"type": "Feature", "properties": {"name": "Cole", "id": "29051", "FIPS": "29051", "FIPS State": 29, "ST": "MO", "County": "Cole County,MO", "State": "Missouri"}, "geometry": {"type": "Polygon", "coordinates": [[[-92.392605, 38.736453], [-92.222819, 38.643345], [-92.009219, 38.572145], [-92.195435, 38.336636], [-92.496666, 38.429744], [-92.392605, 38.736453]]]}}, {"type": "Feature", "properties": {"name": "Sagadahoc", "id": "23023", "FIPS": "23023", "FIPS State": 23, "ST": "ME", "County": "Sagadahoc County,ME", "State": "Maine"}, "geometry": {"type": "Polygon", "coordinates": [[[-69.75641, 44.136716], [-69.696164, 43.82453], [-69.887857, 43.775238], [-70.035734, 43.977885], [-70.002872, 44.125762], [-69.75641, 44.136716]]]}}, {"type": "Feature", "properties": {"name": "Lafourche", "id": "22057", "FIPS": "22057", "FIPS State": 22, "ST": "LA", "County": "Lafourche County,LA", "State": "Louisiana"}, "geometry": {"type": "Polygon", "coordinates": [[[-90.727615, 29.913102], [-90.656414, 29.891194], [-90.541399, 29.891194], [-90.229213, 29.694024], [-90.032043, 29.431131], [-90.064905, 29.212054], [-90.086813, 29.162761], [-90.409952, 29.195623], [-90.815246, 29.776178], [-91.006939, 29.715932], [-90.886446, 29.907625], [-90.727615, 29.913102]]]}}, {"type": "Feature", "properties": {"name": "Highlands", "id": "12055", "FIPS": "12055", "FIPS State": 12, "ST": "FL", "County": "Highlands County,FL", "State": "Florida"}, "geometry": {"type": "Polygon", "coordinates": [[[-81.49897, 27.645649], [-81.142969, 27.645649], [-80.945799, 27.21297], [-81.564693, 27.032231], [-81.564693, 27.33894], [-81.564693, 27.645649], [-81.49897, 27.645649]]]}}, {"type": "Feature", "properties": {"name": "Armstrong", "id": "42005", "FIPS": "42005", "FIPS State": 42, "ST": "PA", "County": "Armstrong County,PA", "State": "Pennsylvania"}, "geometry": {"type": "Polygon", "coordinates": [[[-79.603949, 41.020337], [-79.215086, 41.053199], [-79.215086, 40.910798], [-79.450595, 40.527412], [-79.538226, 40.54932], [-79.69158, 40.669813], [-79.69158, 40.669813], [-79.69158, 41.168214], [-79.603949, 41.020337]]]}}, {"type": "Feature", "properties": {"name": "Somerset", "id": "23025", "FIPS": "23025", "FIPS State": 23, "ST": "ME", "County": "Somerset County,ME", "State": "Maine"}, "geometry": {"type": "Polygon", "coordinates": [[[-69.723548, 46.573955], [-69.822133, 45.74146], [-69.619487, 45.013027], [-69.356593, 45.073273], [-69.268962, 44.722749], [-69.471609, 44.695364], [-69.581148, 44.706318], [-69.931672, 44.61321], [-70.41912, 45.144473], [-70.550566, 45.670259], [-70.02478, 46.573955], [-69.723548, 46.573955]]]}}, {"type": "Feature", "properties": {"name": "Lee", "id": "37105", "FIPS": "37105", "FIPS State": 37, "ST": "NC", "County": "Lee County,NC", "State": "North Carolina"}, "geometry": {"type": "Polygon", "coordinates": [[[-79.242471, 35.570781], [-78.968624, 35.521489], [-79.182224, 35.307888], [-79.35201, 35.516012], [-79.242471, 35.570781]]]}}, {"type": "Feature", "properties": {"name": "Cerro Gordo", "id": "19033", "FIPS": "19033", "FIPS State": 19, "ST": "IA", "County": "Cerro Gordo County,IA", "State": "Iowa"}, "geometry": {"type": "Polygon", "coordinates": [[[-93.055314, 43.254929], [-93.022453, 43.254929], [-93.022453, 43.211113], [-93.022453, 42.909881], [-93.487993, 42.909881], [-93.498947, 42.909881], [-93.498947, 43.254929], [-93.055314, 43.254929]]]}}, {"type": "Feature", "properties": {"name": "Mendocino", "id": "06045", "FIPS": "06045", "FIPS State": 6, "ST": "CA", "County": "Mendocino County,CA", "State": "California"}, "geometry": {"type": "Polygon", "coordinates": [[[-124.021935, 40.001626], [-123.545441, 40.001626], [-122.932024, 39.979718], [-122.937501, 39.798979], [-122.882732, 39.579902], [-123.090855, 39.070546], [-122.822485, 38.851469], [-123.074425, 38.851469], [-123.534488, 38.769315], [-123.737134, 38.95553], [-124.021935, 40.001626]]]}}, {"type": "Feature", "properties": {"name": "Rankin", "id": "28121", "FIPS": "28121", "FIPS State": 28, "ST": "MS", "County": "Rankin County,MS", "State": "Mississippi"}, "geometry": {"type": "Polygon", "coordinates": [[[-90.03752, 32.448925], [-89.785581, 32.585849], [-89.730812, 32.224371], [-89.730812, 32.049109], [-90.190875, 32.049109], [-90.229213, 32.049109], [-90.064905, 32.399633], [-90.03752, 32.448925]]]}}, {"type": "Feature", "properties": {"name": "Walker", "id": "48471", "FIPS": "48471", "FIPS State": 48, "ST": "TX", "County": "Walker County,TX", "State": "Texas"}, "geometry": {"type": "Polygon", "coordinates": [[[-95.432306, 31.057782], [-95.328245, 30.860613], [-95.361106, 30.504611], [-95.832123, 30.630581], [-95.864985, 30.86609], [-95.618522, 30.931813], [-95.432306, 31.057782]]]}}, {"type": "Feature", "properties": {"name": "Coweta", "id": "13077", "FIPS": "13077", "FIPS State": 13, "ST": "GA", "County": "Coweta County,GA", "State": "Georgia"}, "geometry": {"type": "Polygon", "coordinates": [[[-84.681073, 33.511452], [-84.609872, 33.500498], [-84.494857, 33.259513], [-84.500334, 33.221174], [-84.861812, 33.193789], [-84.938489, 33.226651], [-85.015166, 33.423821], [-84.850858, 33.511452], [-84.681073, 33.511452]]]}}, {"type": "Feature", "properties": {"name": "Bennington", "id": "50003", "FIPS": "50003", "FIPS State": 50, "ST": "VT", "County": "Bennington County,VT", "State": "Vermont"}, "geometry": {"type": "Polygon", "coordinates": [[[-73.256175, 43.315175], [-72.867312, 43.298744], [-72.81802, 43.254929], [-72.927559, 42.740096], [-73.020667, 42.740096], [-73.267129, 42.745573], [-73.272606, 42.942743], [-73.256175, 43.315175]]]}}, {"type": "Feature", "properties": {"name": "Clarke", "id": "13059", "FIPS": "13059", "FIPS State": 13, "ST": "GA", "County": "Clarke County,GA", "State": "Georgia"}, "geometry": {"type": "Polygon", "coordinates": [[[-83.36113, 34.042715], [-83.257068, 33.998899], [-83.273499, 33.845545], [-83.530915, 33.960561], [-83.536392, 33.966038], [-83.36113, 34.042715]]]}}, {"type": "Feature", "properties": {"name": "Franklin", "id": "53021", "FIPS": "53021", "FIPS State": 53, "ST": "WA", "County": "Franklin County,WA", "State": "Washington"}, "geometry": {"type": "Polygon", "coordinates": [[[-119.213182, 46.738263], [-118.210901, 46.738263], [-118.216378, 46.590385], [-118.227332, 46.595862], [-118.698349, 46.371308], [-119.043396, 46.190569], [-119.454167, 46.678016], [-119.372013, 46.738263], [-119.213182, 46.738263]]]}}, {"type": "Feature", "properties": {"name": "Hancock", "id": "23009", "FIPS": "23009", "FIPS State": 23, "ST": "ME", "County": "Hancock County,ME", "State": "Maine"}, "geometry": {"type": "Polygon", "coordinates": [[[-68.058559, 45.254012], [-67.954497, 44.41604], [-68.797945, 44.470809], [-68.814376, 44.68441], [-68.058559, 45.254012]]]}}, {"type": "Feature", "properties": {"name": "Silver Bow", "id": "30093", "FIPS": "30093", "FIPS State": 30, "ST": "MT", "County": "Silver Bow County,MT", "State": "Montana"}, "geometry": {"type": "Polygon", "coordinates": [[[-112.57513, 46.179615], [-112.191744, 45.746937], [-112.684669, 45.626444], [-113.084485, 45.861952], [-112.57513, 46.179615]]]}}, {"type": "Feature", "properties": {"name": "Blount", "id": "47009", "FIPS": "47009", "FIPS State": 47, "ST": "TN", "County": "Blount County,TN", "State": "Tennessee"}, "geometry": {"type": "Polygon", "coordinates": [[[-83.793808, 35.888444], [-83.662362, 35.570781], [-83.952639, 35.461243], [-83.963593, 35.461243], [-84.188148, 35.60912], [-84.16624, 35.80629], [-83.793808, 35.888444]]]}}, {"type": "Feature", "properties": {"name": "Douglas", "id": "32005", "FIPS": "32005", "FIPS State": 32, "ST": "NV", "County": "Douglas County,NV", "State": "Nevada"}, "geometry": {"type": "Polygon", "coordinates": [[[-119.760876, 39.114362], [-119.552752, 39.086977], [-119.328197, 38.533806], [-119.585614, 38.714545], [-119.903276, 38.933623], [-120.001861, 39.065069], [-120.001861, 39.114362], [-119.760876, 39.114362]]]}}, {"type": "Feature", "properties": {"name": "Sherburne", "id": "27141", "FIPS": "27141", "FIPS State": 27, "ST": "MN", "County": "Sherburne County,MN", "State": "Minnesota"}, "geometry": {"type": "Polygon", "coordinates": [[[-93.652301, 45.560721], [-93.5099, 45.560721], [-93.5099, 45.412843], [-93.5099, 45.243058], [-93.520854, 45.248535], [-94.046641, 45.423797], [-94.150702, 45.560721], [-93.76184, 45.560721], [-93.652301, 45.560721]]]}}, {"type": "Feature", "properties": {"name": "Hall", "id": "13139", "FIPS": "13139", "FIPS State": 13, "ST": "GA", "County": "Hall County,GA", "State": "Georgia"}, "geometry": {"type": "Polygon", "coordinates": [[[-83.788331, 34.513732], [-83.667839, 34.502778], [-83.613069, 34.431578], [-83.618546, 34.294654], [-83.815716, 34.124869], [-83.990978, 34.1413], [-84.062178, 34.168685], [-83.958116, 34.332993], [-83.980024, 34.420624], [-83.843101, 34.502778], [-83.788331, 34.513732]]]}}, {"type": "Feature", "properties": {"name": "Columbia", "id": "36021", "FIPS": "36021", "FIPS State": 36, "ST": "NY", "County": "Columbia County,NY", "State": "New York"}, "geometry": {"type": "Polygon", "coordinates": [[[-73.398575, 42.504588], [-73.35476, 42.510065], [-73.49716, 42.050002], [-73.929839, 42.077386], [-73.913408, 42.126679], [-73.781961, 42.466249], [-73.398575, 42.504588]]]}}, {"type": "Feature", "properties": {"name": "Kendall", "id": "17093", "FIPS": "17093", "FIPS State": 17, "ST": "IL", "County": "Kendall County,IL", "State": "Illinois"}, "geometry": {"type": "Polygon", "coordinates": [[[-88.262992, 41.726862], [-88.262992, 41.726862], [-88.252038, 41.463969], [-88.279422, 41.463969], [-88.597085, 41.458492], [-88.602562, 41.633754], [-88.602562, 41.721385], [-88.262992, 41.726862]]]}}, {"type": "Feature", "properties": {"name": "Clay", "id": "27027", "FIPS": "27027", "FIPS State": 27, "ST": "MN", "County": "Clay County,MN", "State": "Minnesota"}, "geometry": {"type": "Polygon", "coordinates": [[[-96.582464, 47.149033], [-96.193601, 47.149033], [-96.17717, 46.716355], [-96.281232, 46.628724], [-96.790588, 46.628724], [-96.790588, 46.628724], [-96.828926, 47.149033], [-96.582464, 47.149033]]]}}, {"type": "Feature", "properties": {"name": "Rockingham", "id": "51165", "FIPS": "51165", "FIPS State": 51, "ST": "VA", "County": "Rockingham County,VA", "State": "Virginia"}, "geometry": {"type": "Polygon", "coordinates": [[[-78.990532, 38.845992], [-78.870039, 38.763838], [-78.640007, 38.605006], [-78.486653, 38.41879], [-78.661915, 38.27639], [-78.749546, 38.20519], [-79.22604, 38.479037], [-79.056255, 38.763838], [-78.990532, 38.845992]]]}}, {"type": "Feature", "properties": {"name": "Wright", "id": "27171", "FIPS": "27171", "FIPS State": 27, "ST": "MN", "County": "Wright County,MN", "State": "Minnesota"}, "geometry": {"type": "Polygon", "coordinates": [[[-94.052118, 45.423797], [-94.046641, 45.423797], [-93.520854, 45.248535], [-93.767317, 44.980165], [-94.013779, 44.980165], [-94.254764, 44.980165], [-94.260241, 45.281397], [-94.052118, 45.423797]]]}}, {"type": "Feature", "properties": {"name": "Saline", "id": "20169", "FIPS": "20169", "FIPS State": 20, "ST": "KS", "County": "Saline County,KS", "State": "Kansas"}, "geometry": {"type": "Polygon", "coordinates": [[[-97.486159, 38.95553], [-97.371143, 38.95553], [-97.371143, 38.610483], [-97.924314, 38.610483], [-97.929791, 38.873376], [-97.929791, 38.95553], [-97.486159, 38.95553]]]}}, {"type": "Feature", "properties": {"name": "Schuylkill", "id": "42107", "FIPS": "42107", "FIPS State": 42, "ST": "PA", "County": "Schuylkill County,PA", "State": "Pennsylvania"}, "geometry": {"type": "Polygon", "coordinates": [[[-76.208246, 40.949137], [-75.994645, 40.910798], [-75.759137, 40.735536], [-75.890583, 40.67529], [-76.438277, 40.494551], [-76.536862, 40.554797], [-76.70117, 40.658859], [-76.378031, 40.773875], [-76.208246, 40.949137]]]}}, {"type": "Feature", "properties": {"name": "Trumbull", "id": "39155", "FIPS": "39155", "FIPS State": 39, "ST": "OH", "County": "Trumbull County,OH", "State": "Ohio"}, "geometry": {"type": "Polygon", "coordinates": [[[-81.000569, 41.502308], [-80.518598, 41.502308], [-80.518598, 41.491354], [-80.518598, 41.135353], [-80.786968, 41.135353], [-81.000569, 41.135353], [-81.000569, 41.348953], [-81.000569, 41.502308]]]}}, {"type": "Feature", "properties": {"name": "Berrien", "id": "26021", "FIPS": "26021", "FIPS State": 26, "ST": "MI", "County": "Berrien County,MI", "State": "Michigan"}, "geometry": {"type": "Polygon", "coordinates": [[[-86.302247, 42.241695], [-86.22557, 42.07191], [-86.22557, 41.759724], [-86.521325, 41.759724], [-86.822556, 41.759724], [-86.362493, 42.241695], [-86.302247, 42.241695]]]}}, {"type": "Feature", "properties": {"name": "Vanderburgh", "id": "18163", "FIPS": "18163", "FIPS State": 18, "ST": "IN", "County": "Vanderburgh County,IN", "State": "Indiana"}, "geometry": {"type": "Polygon", "coordinates": [[[-87.687913, 38.166851], [-87.468835, 38.166851], [-87.452404, 37.942297], [-87.698867, 37.898481], [-87.687913, 38.166851]]]}}, {"type": "Feature", "properties": {"name": "Northumberland", "id": "42097", "FIPS": "42097", "FIPS State": 42, "ST": "PA", "County": "Northumberland County,PA", "State": "Pennsylvania"}, "geometry": {"type": "Polygon", "coordinates": [[[-76.799755, 41.173691], [-76.734032, 41.173691], [-76.525908, 40.883413], [-76.378031, 40.773875], [-76.70117, 40.658859], [-76.947633, 40.625997], [-76.936679, 40.636951], [-76.799755, 40.883413], [-76.89834, 41.14083], [-76.799755, 41.173691]]]}}, {"type": "Feature", "properties": {"name": "Boone", "id": "21015", "FIPS": "21015", "FIPS State": 21, "ST": "KY", "County": "Boone County,KY", "State": "Kentucky"}, "geometry": {"type": "Polygon", "coordinates": [[[-84.620826, 39.076023], [-84.615349, 38.802176], [-84.659165, 38.774791], [-84.779657, 38.856946], [-84.796088, 38.856946], [-84.872765, 38.900761], [-84.878242, 39.032208], [-84.817996, 39.103408], [-84.620826, 39.076023]]]}}, {"type": "Feature", "properties": {"name": "Davidson", "id": "37057", "FIPS": "37057", "FIPS State": 37, "ST": "NC", "County": "Davidson County,NC", "State": "North Carolina"}, "geometry": {"type": "Polygon", "coordinates": [[[-80.211889, 36.008937], [-80.042104, 36.008937], [-80.047581, 35.921306], [-80.064012, 35.505058], [-80.184505, 35.505058], [-80.458352, 35.740566], [-80.398105, 35.970598], [-80.211889, 36.008937]]]}}, {"type": "Feature", "properties": {"name": "Terrebonne", "id": "22109", "FIPS": "22109", "FIPS State": 22, "ST": "LA", "County": "Terrebonne County,LA", "State": "Louisiana"}, "geometry": {"type": "Polygon", "coordinates": [[[-90.815246, 29.776178], [-90.409952, 29.195623], [-90.837154, 29.036791], [-91.275309, 29.474947], [-91.083616, 29.628301], [-91.006939, 29.715932], [-90.815246, 29.776178]]]}}, {"type": "Feature", "properties": {"name": "Buffalo", "id": "31019", "FIPS": "31019", "FIPS State": 31, "ST": "NE", "County": "Buffalo County,NE", "State": "Nebraska"}, "geometry": {"type": "Polygon", "coordinates": [[[-99.052564, 41.047722], [-98.745855, 41.047722], [-98.723948, 41.047722], [-98.723948, 40.697198], [-98.723948, 40.691721], [-98.953979, 40.653382], [-99.178534, 40.658859], [-99.419519, 40.669813], [-99.424996, 41.047722], [-99.205918, 41.047722], [-99.052564, 41.047722]]]}}, {"type": "Feature", "properties": {"name": "Lincoln", "id": "37109", "FIPS": "37109", "FIPS State": 37, "ST": "NC", "County": "Lincoln County,NC", "State": "North Carolina"}, "geometry": {"type": "Polygon", "coordinates": [[[-81.488016, 35.570781], [-80.96223, 35.548874], [-80.945799, 35.488627], [-80.956753, 35.400996], [-81.455155, 35.417427], [-81.537309, 35.565304], [-81.531832, 35.570781], [-81.488016, 35.570781]]]}}, {"type": "Feature", "properties": {"name": "Henry", "id": "13151", "FIPS": "13151", "FIPS State": 13, "ST": "GA", "County": "Henry County,GA", "State": "Georgia"}, "geometry": {"type": "Polygon", "coordinates": [[[-84.226487, 33.637421], [-84.182671, 33.648375], [-84.045747, 33.527883], [-83.925255, 33.451205], [-84.100517, 33.297851], [-84.352456, 33.35262], [-84.281256, 33.648375], [-84.226487, 33.637421]]]}}, {"type": "Feature", "properties": {"name": "Ross", "id": "39141", "FIPS": "39141", "FIPS State": 39, "ST": "OH", "County": "Ross County,OH", "State": "Ohio"}, "geometry": {"type": "Polygon", "coordinates": [[[-83.268022, 39.514178], [-82.742236, 39.470363], [-82.747713, 39.366301], [-82.764143, 39.20747], [-82.786051, 39.169131], [-83.355653, 39.196516], [-83.372084, 39.377255], [-83.268022, 39.514178]]]}}, {"type": "Feature", "properties": {"name": "Marion", "id": "54049", "FIPS": "54049", "FIPS State": 54, "ST": "WV", "County": "Marion County,WV", "State": "West Virginia"}, "geometry": {"type": "Polygon", "coordinates": [[[-80.398105, 39.634671], [-79.938042, 39.453932], [-80.195458, 39.393686], [-80.49669, 39.470363], [-80.398105, 39.634671]]]}}, {"type": "Feature", "properties": {"name": "Mason", "id": "53045", "FIPS": "53045", "FIPS State": 53, "ST": "WA", "County": "Mason County,WA", "State": "Washington"}, "geometry": {"type": "Polygon", "coordinates": [[[-123.507103, 47.515988], [-122.948455, 47.603619], [-122.800578, 47.406449], [-122.822485, 47.192849], [-122.904639, 47.15451], [-123.200394, 47.08331], [-123.507103, 47.515988]]]}}, {"type": "Feature", "properties": {"name": "Putnam", "id": "54079", "FIPS": "54079", "FIPS State": 54, "ST": "WV", "County": "Putnam County,WV", "State": "West Virginia"}, "geometry": {"type": "Polygon", "coordinates": [[[-81.69614, 38.626914], [-81.69614, 38.626914], [-81.915218, 38.325682], [-82.046664, 38.374975], [-82.057618, 38.47356], [-81.772817, 38.681683], [-81.69614, 38.626914]]]}}, {"type": "Feature", "properties": {"name": "Maury", "id": "47119", "FIPS": "47119", "FIPS State": 47, "ST": "TN", "County": "Maury County,TN", "State": "Tennessee"}, "geometry": {"type": "Polygon", "coordinates": [[[-87.216896, 35.850105], [-86.784218, 35.707705], [-86.95948, 35.417427], [-87.129265, 35.455766], [-87.205942, 35.433858], [-87.293573, 35.444812], [-87.337389, 35.658412], [-87.216896, 35.850105]]]}}, {"type": "Feature", "properties": {"name": "Carbon", "id": "42025", "FIPS": "42025", "FIPS State": 42, "ST": "PA", "County": "Carbon County,PA", "State": "Pennsylvania"}, "geometry": {"type": "Polygon", "coordinates": [[[-75.687936, 41.129876], [-75.649598, 41.124399], [-75.474336, 40.812213], [-75.611259, 40.784829], [-75.759137, 40.735536], [-75.994645, 40.910798], [-75.687936, 41.129876]]]}}, {"type": "Feature", "properties": {"name": "Burleigh", "id": "38015", "FIPS": "38015", "FIPS State": 38, "ST": "ND", "County": "Burleigh County,ND", "State": "North Dakota"}, "geometry": {"type": "Polygon", "coordinates": [[[-100.608015, 47.329772], [-100.115091, 47.329772], [-100.082229, 46.634201], [-100.586107, 46.634201], [-100.662785, 46.634201], [-100.936632, 46.984725], [-100.964016, 47.15451], [-100.673738, 47.329772], [-100.608015, 47.329772]]]}}, {"type": "Feature", "properties": {"name": "Lubbock", "id": "48303", "FIPS": "48303", "FIPS State": 48, "ST": "TX", "County": "Lubbock County,TX", "State": "Texas"}, "geometry": {"type": "Polygon", "coordinates": [[[-101.571957, 33.829114], [-101.561003, 33.829114], [-101.555526, 33.396436], [-102.075835, 33.390959], [-102.086789, 33.823637], [-101.571957, 33.829114]]]}}, {"type": "Feature", "properties": {"name": "Bastrop", "id": "48021", "FIPS": "48021", "FIPS State": 48, "ST": "TX", "County": "Bastrop County,TX", "State": "Texas"}, "geometry": {"type": "Polygon", "coordinates": [[[-97.332805, 30.40055], [-97.026096, 30.050025], [-97.316374, 29.787132], [-97.650467, 30.071933], [-97.371143, 30.41698], [-97.332805, 30.40055]]]}}, {"type": "Feature", "properties": {"name": "Sullivan", "id": "36105", "FIPS": "36105", "FIPS State": 36, "ST": "NY", "County": "Sullivan County,NY", "State": "New York"}, "geometry": {"type": "Polygon", "coordinates": [[[-74.789718, 42.011663], [-74.778764, 42.01714], [-74.367994, 41.589939], [-74.756857, 41.425631], [-75.069042, 41.600893], [-75.145719, 41.852832], [-74.789718, 42.011663]]]}}, {"type": "Feature", "properties": {"name": "Stephenson", "id": "17177", "FIPS": "17177", "FIPS State": 17, "ST": "IL", "County": "Stephenson County,IL", "State": "Illinois"}, "geometry": {"type": "Polygon", "coordinates": [[[-89.927981, 42.504588], [-89.84035, 42.504588], [-89.402195, 42.499111], [-89.396718, 42.203356], [-89.686996, 42.197879], [-89.917028, 42.197879], [-89.927981, 42.504588]]]}}, {"type": "Feature", "properties": {"name": "Dickson", "id": "47043", "FIPS": "47043", "FIPS State": 47, "ST": "TN", "County": "Dickson County,TN", "State": "Tennessee"}, "geometry": {"type": "Polygon", "coordinates": [[[-87.512651, 36.332076], [-87.288096, 36.321122], [-87.184034, 36.047275], [-87.205942, 35.959644], [-87.512651, 35.992506], [-87.534558, 35.992506], [-87.56742, 36.178722], [-87.512651, 36.332076]]]}}, {"type": "Feature", "properties": {"name": "Montrose", "id": "08085", "FIPS": "08085", "FIPS State": 8, "ST": "CO", "County": "Montrose County,CO", "State": "Colorado"}, "geometry": {"type": "Polygon", "coordinates": [[[-108.001885, 38.67073], [-107.498006, 38.67073], [-107.63493, 38.303775], [-107.963546, 38.15042], [-109.042503, 38.15042], [-109.058934, 38.500944], [-108.379794, 38.67073], [-108.001885, 38.67073]]]}}, {"type": "Feature", "properties": {"name": "Comanche", "id": "40031", "FIPS": "40031", "FIPS State": 40, "ST": "OK", "County": "Comanche County,OK", "State": "Oklahoma"}, "geometry": {"type": "Polygon", "coordinates": [[[-98.795148, 34.853302], [-98.619886, 34.853302], [-98.0941, 34.853302], [-98.088623, 34.683517], [-98.143392, 34.508255], [-98.663701, 34.404193], [-98.82801, 34.595886], [-98.795148, 34.853302]]]}}, {"type": "Feature", "properties": {"name": "Hendricks", "id": "18063", "FIPS": "18063", "FIPS State": 18, "ST": "IN", "County": "Hendricks County,IN", "State": "Indiana"}, "geometry": {"type": "Polygon", "coordinates": [[[-86.433693, 39.924949], [-86.324155, 39.924949], [-86.324155, 39.629194], [-86.658248, 39.601809], [-86.696587, 39.864703], [-86.696587, 39.924949], [-86.433693, 39.924949]]]}}, {"type": "Feature", "properties": {"name": "Stephens", "id": "40137", "FIPS": "40137", "FIPS State": 40, "ST": "OK", "County": "Stephens County,OK", "State": "Oklahoma"}, "geometry": {"type": "Polygon", "coordinates": [[[-97.995515, 34.683517], [-97.666898, 34.683517], [-97.562836, 34.508255], [-97.562836, 34.289177], [-98.061238, 34.289177], [-98.137915, 34.289177], [-98.143392, 34.508255], [-98.143392, 34.508255], [-98.088623, 34.683517], [-97.995515, 34.683517]]]}}, {"type": "Feature", "properties": {"name": "Tippecanoe", "id": "18157", "FIPS": "18157", "FIPS State": 18, "ST": "IN", "County": "Tippecanoe County,IN", "State": "Indiana"}, "geometry": {"type": "Polygon", "coordinates": [[[-87.096403, 40.560274], [-86.773264, 40.560274], [-86.696587, 40.434304], [-86.696587, 40.215227], [-86.921141, 40.215227], [-87.090926, 40.215227], [-87.090926, 40.368581], [-87.096403, 40.47812], [-87.096403, 40.560274]]]}}, {"type": "Feature", "properties": {"name": "Garfield", "id": "08045", "FIPS": "08045", "FIPS State": 8, "ST": "CO", "County": "Garfield County,CO", "State": "Colorado"}, "geometry": {"type": "Polygon", "coordinates": [[[-107.037943, 40.089257], [-107.032466, 39.919472], [-107.11462, 39.366301], [-107.432283, 39.366301], [-108.774133, 39.366301], [-109.053457, 39.366301], [-109.053457, 39.497748], [-109.053457, 39.662056], [-107.936161, 39.694917], [-107.037943, 40.089257]]]}}, {"type": "Feature", "properties": {"name": "Lauderdale", "id": "01077", "FIPS": "01077", "FIPS State": 1, "ST": "AL", "County": "Lauderdale County,AL", "State": "Alabama"}, "geometry": {"type": "Polygon", "coordinates": [[[-87.983668, 35.006656], [-87.605759, 35.00118], [-87.222373, 35.00118], [-87.211419, 35.00118], [-87.260711, 34.760194], [-87.42502, 34.798533], [-88.098683, 34.891641], [-88.202745, 34.995703], [-87.983668, 35.006656]]]}}, {"type": "Feature", "properties": {"name": "Tuscaloosa", "id": "01125", "FIPS": "01125", "FIPS State": 1, "ST": "AL", "County": "Tuscaloosa County,AL", "State": "Alabama"}, "geometry": {"type": "Polygon", "coordinates": [[[-87.841267, 33.522406], [-87.42502, 33.60456], [-87.266188, 33.511452], [-87.063542, 33.248559], [-87.419543, 33.002096], [-87.644097, 33.007573], [-87.715298, 33.007573], [-87.83579, 33.155451], [-87.841267, 33.522406]]]}}, {"type": "Feature", "properties": {"name": "Jackson", "id": "26075", "FIPS": "26075", "FIPS State": 26, "ST": "MI", "County": "Jackson County,MI", "State": "Michigan"}, "geometry": {"type": "Polygon", "coordinates": [[[-84.598918, 42.422434], [-84.138855, 42.422434], [-84.133379, 42.422434], [-84.133379, 42.07191], [-84.36341, 42.07191], [-84.708457, 42.07191], [-84.719411, 42.422434], [-84.598918, 42.422434]]]}}, {"type": "Feature", "properties": {"name": "Bay", "id": "12005", "FIPS": "12005", "FIPS State": 12, "ST": "FL", "County": "Bay County,FL", "State": "Florida"}, "geometry": {"type": "Polygon", "coordinates": [[[-85.382121, 30.564858], [-85.387598, 30.20338], [-85.387598, 29.924056], [-85.995538, 30.269103], [-85.990061, 30.389596], [-85.43689, 30.570335], [-85.382121, 30.564858]]]}}, {"type": "Feature", "properties": {"name": "Russell", "id": "01113", "FIPS": "01113", "FIPS State": 1, "ST": "AL", "County": "Russell County,AL", "State": "Alabama"}, "geometry": {"type": "Polygon", "coordinates": [[[-85.020643, 32.509172], [-84.998735, 32.509172], [-84.982304, 32.372248], [-84.922058, 32.229848], [-85.053504, 32.06554], [-85.354736, 32.147694], [-85.409506, 32.147694], [-85.431413, 32.235325], [-85.431413, 32.410587], [-85.020643, 32.509172]]]}}, {"type": "Feature", "properties": {"name": "Christian", "id": "29043", "FIPS": "29043", "FIPS State": 29, "ST": "MO", "County": "Christian County,MO", "State": "Missouri"}, "geometry": {"type": "Polygon", "coordinates": [[[-93.482516, 37.098848], [-93.066268, 37.087894], [-92.90196, 37.071463], [-92.907437, 36.80857], [-93.301777, 36.819524], [-93.592055, 36.994786], [-93.608485, 36.994786], [-93.608485, 37.098848], [-93.482516, 37.098848]]]}}, {"type": "Feature", "properties": {"name": "Madison", "id": "47113", "FIPS": "47113", "FIPS State": 47, "ST": "TN", "County": "Madison County,TN", "State": "Tennessee"}, "geometry": {"type": "Polygon", "coordinates": [[[-88.914747, 35.795336], [-88.706624, 35.789859], [-88.608039, 35.789859], [-88.613516, 35.587212], [-88.701147, 35.477673], [-88.843547, 35.428381], [-89.079056, 35.433858], [-89.068102, 35.691274], [-88.914747, 35.795336]]]}}, {"type": "Feature", "properties": {"name": "Jefferson", "id": "54037", "FIPS": "54037", "FIPS State": 54, "ST": "WV", "County": "Jefferson County,WV", "State": "West Virginia"}, "geometry": {"type": "Polygon", "coordinates": [[[-77.823943, 39.492271], [-77.823943, 39.492271], [-77.719881, 39.322485], [-77.82942, 39.130793], [-78.032067, 39.262239], [-77.823943, 39.492271]]]}}, {"type": "Feature", "properties": {"name": "Monroe", "id": "26115", "FIPS": "26115", "FIPS State": 26, "ST": "MI", "County": "Monroe County,MI", "State": "Michigan"}, "geometry": {"type": "Polygon", "coordinates": [[[-83.421376, 42.093817], [-83.185868, 42.033571], [-83.454238, 41.732339], [-83.760947, 41.721385], [-83.7719, 42.082863], [-83.541869, 42.082863], [-83.421376, 42.093817]]]}}, {"type": "Feature", "properties": {"name": "Hunt", "id": "48231", "FIPS": "48231", "FIPS State": 48, "ST": "TX", "County": "Hunt County,TX", "State": "Texas"}, "geometry": {"type": "Polygon", "coordinates": [[[-95.859508, 33.40739], [-95.859508, 33.221174], [-95.864985, 32.980189], [-95.936185, 32.837788], [-96.062155, 32.837788], [-96.078585, 32.837788], [-96.297663, 32.843265], [-96.297663, 32.980189], [-96.297663, 33.35262], [-95.859508, 33.40739]]]}}, {"type": "Feature", "properties": {"name": "Bonneville", "id": "16019", "FIPS": "16019", "FIPS State": 16, "ST": "ID", "County": "Bonneville County,ID", "State": "Idaho"}, "geometry": {"type": "Polygon", "coordinates": [[[-111.775497, 43.627361], [-111.627619, 43.627361], [-111.397588, 43.621884], [-111.047063, 43.501391], [-111.047063, 43.315175], [-111.041587, 43.01942], [-111.589281, 43.01942], [-111.589281, 43.282313], [-112.52036, 43.424714], [-112.52036, 43.627361], [-111.775497, 43.627361]]]}}, {"type": "Feature", "properties": {"name": "Johnston", "id": "37101", "FIPS": "37101", "FIPS State": 37, "ST": "NC", "County": "Johnston County,NC", "State": "North Carolina"}, "geometry": {"type": "Polygon", "coordinates": [[[-78.256622, 35.817244], [-78.190898, 35.729613], [-78.064929, 35.587212], [-78.305914, 35.28598], [-78.541422, 35.313365], [-78.711208, 35.521489], [-78.256622, 35.817244]]]}}, {"type": "Feature", "properties": {"name": "Greene", "id": "39057", "FIPS": "39057", "FIPS State": 39, "ST": "OH", "County": "Greene County,OH", "State": "Ohio"}, "geometry": {"type": "Polygon", "coordinates": [[[-84.029317, 39.848272], [-83.645931, 39.771595], [-83.651408, 39.716825], [-83.667839, 39.552517], [-83.974547, 39.568948], [-83.974547, 39.568948], [-84.111471, 39.579902], [-84.051224, 39.848272], [-84.029317, 39.848272]]]}}, {"type": "Feature", "properties": {"name": "Gloucester", "id": "51073", "FIPS": "51073", "FIPS State": 51, "ST": "VA", "County": "Gloucester County,VA", "State": "Virginia"}, "geometry": {"type": "Polygon", "coordinates": [[[-76.62997, 37.591772], [-76.438277, 37.515095], [-76.405416, 37.400079], [-76.498524, 37.241248], [-76.657355, 37.378172], [-76.712124, 37.432941], [-76.651878, 37.602726], [-76.62997, 37.591772]]]}}, {"type": "Feature", "properties": {"name": "Bannock", "id": "16005", "FIPS": "16005", "FIPS State": 16, "ST": "ID", "County": "Bannock County,ID", "State": "Idaho"}, "geometry": {"type": "Polygon", "coordinates": [[[-112.388914, 43.01942], [-112.065774, 43.024897], [-111.874081, 42.416957], [-112.126021, 42.28551], [-112.421776, 42.504588], [-112.750392, 42.953697], [-112.388914, 43.01942]]]}}, {"type": "Feature", "properties": {"name": "Florence", "id": "45041", "FIPS": "45041", "FIPS State": 45, "ST": "SC", "County": "Florence County,SC", "State": "South Carolina"}, "geometry": {"type": "Polygon", "coordinates": [[[-79.658718, 34.305608], [-79.631334, 34.300131], [-79.549179, 34.228931], [-79.324625, 33.80173], [-79.83398, 33.883884], [-79.877796, 33.883884], [-79.976381, 33.94413], [-79.998289, 34.048192], [-80.074966, 34.08653], [-79.658718, 34.305608]]]}}, {"type": "Feature", "properties": {"name": "Hall", "id": "31079", "FIPS": "31079", "FIPS State": 31, "ST": "NE", "County": "Hall County,NE", "State": "Nebraska"}, "geometry": {"type": "Polygon", "coordinates": [[[-98.70204, 41.047722], [-98.285792, 41.047722], [-98.280315, 40.87246], [-98.280315, 40.697198], [-98.723948, 40.697198], [-98.723948, 41.047722], [-98.70204, 41.047722]]]}}, {"type": "Feature", "properties": {"name": "Delaware", "id": "39041", "FIPS": "39041", "FIPS State": 39, "ST": "OH", "County": "Delaware County,OH", "State": "Ohio"}, "geometry": {"type": "Polygon", "coordinates": [[[-83.246114, 40.445258], [-83.02156, 40.434304], [-82.742236, 40.346673], [-82.75319, 40.275473], [-82.764143, 40.127596], [-83.03799, 40.13855], [-83.169437, 40.144027], [-83.246114, 40.445258]]]}}, {"type": "Feature", "properties": {"name": "Fairfield", "id": "39045", "FIPS": "39045", "FIPS State": 39, "ST": "OH", "County": "Fairfield County,OH", "State": "Ohio"}, "geometry": {"type": "Polygon", "coordinates": [[[-82.797005, 39.94138], [-82.780574, 39.94138], [-82.462912, 39.930426], [-82.375281, 39.656579], [-82.731282, 39.552517], [-82.82439, 39.793502], [-82.797005, 39.94138]]]}}, {"type": "Feature", "properties": {"name": "Buchanan", "id": "29021", "FIPS": "29021", "FIPS State": 29, "ST": "MO", "County": "Buchanan County,MO", "State": "Missouri"}, "geometry": {"type": "Polygon", "coordinates": [[[-94.769597, 39.820887], [-94.605288, 39.820887], [-94.599812, 39.749687], [-94.599812, 39.530609], [-95.10369, 39.530609], [-95.054398, 39.623717], [-94.879136, 39.820887], [-94.769597, 39.820887]]]}}, {"type": "Feature", "properties": {"name": "Nez Perce", "id": "16069", "FIPS": "16069", "FIPS State": 16, "ST": "ID", "County": "Nez Perce County,ID", "State": "Idaho"}, "geometry": {"type": "Polygon", "coordinates": [[[-116.644497, 46.61777], [-116.458281, 46.628724], [-116.37065, 46.464416], [-116.699266, 45.998876], [-116.792374, 45.856475], [-116.918344, 45.993399], [-117.038836, 46.426077], [-117.038836, 46.541093], [-116.644497, 46.61777]]]}}, {"type": "Feature", "properties": {"name": "Lyon", "id": "32019", "FIPS": "32019", "FIPS State": 32, "ST": "NV", "County": "Lyon County,NV", "State": "Nevada"}, "geometry": {"type": "Polygon", "coordinates": [[[-119.196751, 39.623717], [-119.191274, 39.629194], [-118.753119, 39.076023], [-118.764072, 39.076023], [-118.906473, 38.413313], [-119.158412, 38.413313], [-119.328197, 38.533806], [-119.552752, 39.086977], [-119.580137, 39.196516], [-119.711583, 39.251285], [-119.284382, 39.623717], [-119.196751, 39.623717]]]}}, {"type": "Feature", "properties": {"name": "York", "id": "51199", "FIPS": "51199", "FIPS State": 51, "ST": "VA", "County": "York County,VA", "State": "Virginia"}, "geometry": {"type": "Polygon", "coordinates": [[[-76.657355, 37.378172], [-76.498524, 37.241248], [-76.399939, 37.164571], [-76.394462, 37.104325], [-76.4328, 37.093371], [-76.55877, 37.213863], [-76.591632, 37.213863], [-76.679263, 37.268633], [-76.728555, 37.306971], [-76.657355, 37.378172]]]}}, {"type": "Feature", "properties": {"name": "Jackson", "id": "13157", "FIPS": "13157", "FIPS State": 13, "ST": "GA", "County": "Jackson County,GA", "State": "Georgia"}, "geometry": {"type": "Polygon", "coordinates": [[[-83.618546, 34.289177], [-83.404945, 34.196069], [-83.36113, 34.042715], [-83.536392, 33.966038], [-83.815716, 34.124869], [-83.618546, 34.294654], [-83.618546, 34.289177]]]}}, {"type": "Feature", "properties": {"name": "Imperial", "id": "06025", "FIPS": "06025", "FIPS State": 6, "ST": "CA", "County": "Imperial County,CA", "State": "California"}, "geometry": {"type": "Polygon", "coordinates": [[[-114.733044, 33.434775], [-114.628982, 33.434775], [-114.513967, 33.029481], [-114.72209, 32.717295], [-116.107756, 32.61871], [-116.085849, 33.423821], [-114.733044, 33.434775]]]}}, {"type": "Feature", "properties": {"name": "Alamance", "id": "37001", "FIPS": "37001", "FIPS State": 37, "ST": "NC", "County": "Alamance County,NC", "State": "North Carolina"}, "geometry": {"type": "Polygon", "coordinates": [[[-79.532749, 36.249922], [-79.258902, 36.244445], [-79.247948, 35.87749], [-79.543702, 35.844628], [-79.543702, 35.899398], [-79.532749, 36.238968], [-79.532749, 36.249922]]]}}, {"type": "Feature", "properties": {"name": "Oswego", "id": "36075", "FIPS": "36075", "FIPS State": 36, "ST": "NY", "County": "Oswego County,NY", "State": "New York"}, "geometry": {"type": "Polygon", "coordinates": [[[-76.087753, 43.671176], [-75.775568, 43.687607], [-75.75366, 43.468529], [-75.885106, 43.156344], [-75.994645, 43.183728], [-76.169907, 43.249452], [-76.476616, 43.227544], [-76.619016, 43.419237], [-76.202769, 43.68213], [-76.087753, 43.671176]]]}}, {"type": "Feature", "properties": {"name": "Midland", "id": "48329", "FIPS": "48329", "FIPS State": 48, "ST": "TX", "County": "Midland County,TX", "State": "Texas"}, "geometry": {"type": "Polygon", "coordinates": [[[-101.933435, 32.087447], [-101.774603, 32.087447], [-101.774603, 31.649292], [-102.223713, 31.649292], [-102.289436, 31.649292], [-102.289436, 32.087447], [-102.212759, 32.087447], [-101.933435, 32.087447]]]}}, {"type": "Feature", "properties": {"name": "Forrest", "id": "28035", "FIPS": "28035", "FIPS State": 28, "ST": "MS", "County": "Forrest County,MS", "State": "Mississippi"}, "geometry": {"type": "Polygon", "coordinates": [[[-89.42958, 31.435691], [-89.396718, 31.435691], [-89.144779, 31.435691], [-89.139302, 30.909905], [-89.341949, 30.909905], [-89.347426, 31.00849], [-89.451488, 31.435691], [-89.42958, 31.435691]]]}}]}