{"type": "FeatureCollection", "crs": {"type": "name", "properties": {"name": "urn:ogc:def:crs:OGC:1.3:CRS84"}}, "features": [{"type": "Feature", "properties": {"name": "Benson", "id": "38005", "FIPS": "38005", "FIPS State": 38, "ST": "ND", "County": "Benson County,ND", "State": "North Dakota"}, "geometry": {"type": "Polygon", "coordinates": [[[-99.819336, 48.370391], [-99.490719, 48.370391], [-99.200441, 48.370391], [-98.992318, 47.992482], [-98.526778, 47.915805], [-98.526778, 47.844605], [-98.636317, 47.850082], [-99.299026, 47.844605], [-99.813859, 47.850082], [-99.819336, 48.370391]]]}}, {"type": "Feature", "properties": {"name": "Cocke", "id": "47029", "FIPS": "47029", "FIPS State": 47, "ST": "TN", "County": "Cocke County,TN", "State": "Tennessee"}, "geometry": {"type": "Polygon", "coordinates": [[[-83.16396, 36.178722], [-82.901067, 35.943213], [-82.961313, 35.789859], [-83.257068, 35.713182], [-83.311837, 35.893921], [-83.23516, 36.085614], [-83.16396, 36.178722]]]}}, {"type": "Feature", "properties": {"name": "Putnam", "id": "18133", "FIPS": "18133", "FIPS State": 18, "ST": "IN", "County": "Putnam County,IN", "State": "Indiana"}, "geometry": {"type": "Polygon", "coordinates": [[[-87.008772, 39.864703], [-86.696587, 39.864703], [-86.658248, 39.601809], [-86.685633, 39.470363], [-86.937572, 39.47584], [-87.014249, 39.607286], [-87.008772, 39.864703]]]}}, {"type": "Feature", "properties": {"name": "Wyandot", "id": "39175", "FIPS": "39175", "FIPS State": 39, "ST": "OH", "County": "Wyandot County,OH", "State": "Ohio"}, "geometry": {"type": "Polygon", "coordinates": [[[-83.114668, 40.992952], [-83.109191, 40.702674], [-83.421376, 40.686244], [-83.514484, 40.81769], [-83.421376, 40.992952], [-83.114668, 40.992952]]]}}, {"type": "Feature", "properties": {"name": "Kleberg", "id": "48273", "FIPS": "48273", "FIPS State": 48, "ST": "TX", "County": "Kleberg County,TX", "State": "Texas"}, "geometry": {"type": "MultiPolygon", "coordinates": [[[[-98.011945, 27.634695], [-97.940745, 27.634695], [-97.327328, 27.563495], [-97.634037, 27.284171], [-97.738098, 27.273217], [-97.984561, 27.207493], [-98.055761, 27.262263], [-98.011945, 27.634695]]], [[[-97.245174, 27.579925], [-97.223266, 27.574448], [-97.349236, 27.278694], [-97.371143, 27.278694], [-97.245174, 27.579925]]]]}}, {"type": "Feature", "properties": {"name": "Nelson", "id": "51125", "FIPS": "51125", "FIPS State": 51, "ST": "VA", "County": "Nelson County,VA", "State": "Virginia"}, "geometry": {"type": "Polygon", "coordinates": [[[-78.859085, 38.029928], [-78.837177, 38.046358], [-78.645484, 37.734173], [-78.826223, 37.553434], [-78.870039, 37.54248], [-79.171271, 37.805373], [-79.15484, 37.893004], [-78.859085, 38.029928]]]}}, {"type": "Feature", "properties": {"name": "Kenai Peninsula", "id": "02122", "FIPS": "02122", "FIPS State": 2, "ST": "AK", "County": "Kenai Peninsula County,AK", "State": "Alaska"}, "geometry": {"type": "MultiPolygon", "coordinates": [[[[-153.427628, 61.427417], [-153.000427, 61.427417], [-151.335437, 61.42194], [-150.973959, 61.191908], [-152.080301, 60.693507], [-152.567748, 60.069136], [-153.214027, 59.636457], [-153.608367, 59.620026], [-154.260123, 59.143533], [-153.312612, 58.847778], [-153.329043, 58.853255], [-154.303938, 58.645131], [-154.638032, 58.645131], [-154.747571, 59.253071], [-153.652183, 59.784335], [-153.438582, 60.907107], [-153.427628, 61.427417]]], [[[-149.730693, 60.994739], [-148.744844, 60.731845], [-148.586013, 59.959597], [-149.358261, 60.101997], [-149.741647, 59.729565], [-151.592853, 59.159963], [-151.888608, 59.422857], [-151.160175, 59.592642], [-151.8667, 59.778858], [-151.423068, 60.211536], [-151.406637, 60.720892], [-150.404357, 61.038554], [-149.73617, 60.994739], [-149.730693, 60.994739]]]]}}, {"type": "Feature", "properties": {"name": "Lawrence", "id": "47099", "FIPS": "47099", "FIPS State": 47, "ST": "TN", "County": "Lawrence County,TN", "State": "Tennessee"}, "geometry": {"type": "Polygon", "coordinates": [[[-87.435974, 35.455766], [-87.293573, 35.444812], [-87.205942, 35.433858], [-87.222373, 35.00118], [-87.605759, 35.00118], [-87.572897, 35.400996], [-87.435974, 35.455766]]]}}, {"type": "Feature", "properties": {"name": "Atchison", "id": "20005", "FIPS": "20005", "FIPS State": 20, "ST": "KS", "County": "Atchison County,KS", "State": "Kansas"}, "geometry": {"type": "Polygon", "coordinates": [[[-95.393968, 39.651102], [-95.339199, 39.651102], [-95.054398, 39.623717], [-95.10369, 39.530609], [-94.966767, 39.42107], [-95.065351, 39.42107], [-95.180367, 39.42107], [-95.465168, 39.42107], [-95.56923, 39.42107], [-95.563753, 39.651102], [-95.393968, 39.651102]]]}}, {"type": "Feature", "properties": {"name": "Nacogdoches", "id": "48347", "FIPS": "48347", "FIPS State": 48, "ST": "TX", "County": "Nacogdoches County,TX", "State": "Texas"}, "geometry": {"type": "Polygon", "coordinates": [[[-94.512181, 31.846462], [-94.451934, 31.846462], [-94.397165, 31.654769], [-94.325965, 31.222091], [-94.868182, 31.528799], [-94.939382, 31.846462], [-94.512181, 31.846462]]]}}, {"type": "Feature", "properties": {"name": "Houston", "id": "27055", "FIPS": "27055", "FIPS State": 27, "ST": "MN", "County": "Houston County,MN", "State": "Minnesota"}, "geometry": {"type": "Polygon", "coordinates": [[[-91.373894, 43.846438], [-91.286263, 43.846438], [-91.258878, 43.725946], [-91.215062, 43.501391], [-91.368417, 43.501391], [-91.609402, 43.501391], [-91.729895, 43.501391], [-91.729895, 43.846438], [-91.373894, 43.846438]]]}}, {"type": "Feature", "properties": {"name": "Gratiot", "id": "26057", "FIPS": "26057", "FIPS State": 26, "ST": "MI", "County": "Gratiot County,MI", "State": "Michigan"}, "geometry": {"type": "Polygon", "coordinates": [[[-84.774181, 43.468529], [-84.609872, 43.468529], [-84.368887, 43.468529], [-84.368887, 43.128959], [-84.368887, 43.118005], [-84.719411, 43.118005], [-84.834427, 43.118005], [-84.845381, 43.468529], [-84.774181, 43.468529]]]}}, {"type": "Feature", "properties": {"name": "Taos", "id": "35055", "FIPS": "35055", "FIPS State": 35, "ST": "NM", "County": "Taos County,NM", "State": "New Mexico"}, "geometry": {"type": "Polygon", "coordinates": [[[-105.219599, 36.994786], [-105.340092, 36.260876], [-105.531785, 36.014414], [-105.958986, 36.353984], [-106.008278, 36.994786], [-105.718001, 36.994786], [-105.219599, 36.994786]]]}}, {"type": "Feature", "properties": {"name": "Vermilion", "id": "22113", "FIPS": "22113", "FIPS State": 22, "ST": "LA", "County": "Vermilion County,LA", "State": "Louisiana"}, "geometry": {"type": "Polygon", "coordinates": [[[-92.250204, 30.143133], [-91.965403, 30.033595], [-91.97088, 29.803563], [-91.998265, 29.61187], [-92.04208, 29.579009], [-92.617159, 29.579009], [-92.737652, 30.039072], [-92.628113, 30.093841], [-92.283066, 30.14861], [-92.250204, 30.143133]]]}}, {"type": "Feature", "properties": {"name": "Rabun", "id": "13241", "FIPS": "13241", "FIPS State": 13, "ST": "GA", "County": "Rabun County,GA", "State": "Georgia"}, "geometry": {"type": "Polygon", "coordinates": [[[-83.109191, 35.00118], [-83.350176, 34.716379], [-83.651408, 34.820441], [-83.547346, 34.990226], [-83.481623, 34.995703], [-83.109191, 35.00118]]]}}, {"type": "Feature", "properties": {"name": "Newaygo", "id": "26123", "FIPS": "26123", "FIPS State": 26, "ST": "MI", "County": "Newaygo County,MI", "State": "Michigan"}, "geometry": {"type": "Polygon", "coordinates": [[[-85.63406, 43.813577], [-85.56286, 43.813577], [-85.56286, 43.468529], [-85.56286, 43.293267], [-85.792891, 43.293267], [-86.039354, 43.468529], [-86.039354, 43.813577], [-85.63406, 43.813577]]]}}, {"type": "Feature", "properties": {"name": "Fayette", "id": "18041", "FIPS": "18041", "FIPS State": 18, "ST": "IN", "County": "Fayette County,IN", "State": "Indiana"}, "geometry": {"type": "Polygon", "coordinates": [[[-85.22329, 39.788025], [-85.037074, 39.716825], [-85.037074, 39.525132], [-85.23972, 39.525132], [-85.299967, 39.525132], [-85.299967, 39.788025], [-85.22329, 39.788025]]]}}, {"type": "Feature", "properties": {"name": "Delaware", "id": "19055", "FIPS": "19055", "FIPS State": 19, "ST": "IA", "County": "Delaware County,IA", "State": "Iowa"}, "geometry": {"type": "Polygon", "coordinates": [[[-91.204109, 42.646988], [-91.132908, 42.646988], [-91.127431, 42.296464], [-91.36294, 42.296464], [-91.598448, 42.296464], [-91.609402, 42.641511], [-91.204109, 42.646988]]]}}, {"type": "Feature", "properties": {"name": "Otoe", "id": "31131", "FIPS": "31131", "FIPS State": 31, "ST": "NE", "County": "Otoe County,NE", "State": "Nebraska"}, "geometry": {"type": "Polygon", "coordinates": [[[-95.892369, 40.784829], [-95.832123, 40.784829], [-95.7664, 40.587659], [-95.71163, 40.521935], [-96.023816, 40.521935], [-96.067632, 40.521935], [-96.461971, 40.521935], [-96.461971, 40.784829], [-95.892369, 40.784829]]]}}, {"type": "Feature", "properties": {"name": "Rio Arriba", "id": "35039", "FIPS": "35039", "FIPS State": 35, "ST": "NM", "County": "Rio Arriba County,NM", "State": "New Mexico"}, "geometry": {"type": "Polygon", "coordinates": [[[-107.421329, 37.000263], [-106.473818, 36.994786], [-106.008278, 36.994786], [-105.958986, 36.353984], [-105.531785, 36.014414], [-105.718001, 35.976075], [-106.068525, 35.997983], [-106.243787, 35.932259], [-106.249264, 35.965121], [-106.884589, 36.21706], [-107.623976, 36.222537], [-107.421329, 37.000263]]]}}, {"type": "Feature", "properties": {"name": "Roscommon", "id": "26143", "FIPS": "26143", "FIPS State": 26, "ST": "MI", "County": "Roscommon County,MI", "State": "Michigan"}, "geometry": {"type": "Polygon", "coordinates": [[[-84.735842, 44.509148], [-84.368887, 44.509148], [-84.368887, 44.158624], [-84.609872, 44.158624], [-84.850858, 44.158624], [-84.850858, 44.509148], [-84.735842, 44.509148]]]}}, {"type": "Feature", "properties": {"name": "Floyd", "id": "21071", "FIPS": "21071", "FIPS State": 21, "ST": "KY", "County": "Floyd County,KY", "State": "Kentucky"}, "geometry": {"type": "Polygon", "coordinates": [[[-82.786051, 37.745127], [-82.638174, 37.717742], [-82.561497, 37.68488], [-82.709374, 37.285064], [-82.922975, 37.48771], [-82.939406, 37.717742], [-82.786051, 37.745127]]]}}, {"type": "Feature", "properties": {"name": "Davison", "id": "46035", "FIPS": "46035", "FIPS State": 46, "ST": "SD", "County": "Davison County,SD", "State": "South Dakota"}, "geometry": {"type": "Polygon", "coordinates": [[[-98.203638, 43.851915], [-97.96813, 43.851915], [-97.962653, 43.501391], [-98.116007, 43.495914], [-98.318654, 43.501391], [-98.324131, 43.851915], [-98.203638, 43.851915]]]}}, {"type": "Feature", "properties": {"name": "Routt", "id": "08107", "FIPS": "08107", "FIPS State": 8, "ST": "CO", "County": "Routt County,CO", "State": "Colorado"}, "geometry": {"type": "Polygon", "coordinates": [[[-107.317267, 41.003906], [-106.857204, 41.003906], [-106.654557, 40.445258], [-106.627173, 39.924949], [-107.032466, 39.919472], [-107.037943, 40.089257], [-107.109143, 40.226181], [-107.43776, 40.220704], [-107.317267, 41.003906]]]}}, {"type": "Feature", "properties": {"name": "Tift", "id": "13277", "FIPS": "13277", "FIPS State": 13, "ST": "GA", "County": "Tift County,GA", "State": "Georgia"}, "geometry": {"type": "Polygon", "coordinates": [[[-83.645931, 31.594523], [-83.498053, 31.594523], [-83.339222, 31.47403], [-83.43233, 31.34806], [-83.514484, 31.326153], [-83.651408, 31.331629], [-83.651408, 31.567138], [-83.645931, 31.594523]]]}}, {"type": "Feature", "properties": {"name": "Overton", "id": "47133", "FIPS": "47133", "FIPS State": 47, "ST": "TN", "County": "Overton County,TN", "State": "Tennessee"}, "geometry": {"type": "Polygon", "coordinates": [[[-85.283536, 36.534723], [-85.119228, 36.408753], [-85.119228, 36.14586], [-85.497137, 36.304691], [-85.497137, 36.403276], [-85.283536, 36.529246], [-85.283536, 36.534723]]]}}, {"type": "Feature", "properties": {"name": "Montgomery", "id": "20125", "FIPS": "20125", "FIPS State": 20, "ST": "KS", "County": "Montgomery County,KS", "State": "Kansas"}, "geometry": {"type": "Polygon", "coordinates": [[[-95.96357, 37.389126], [-95.525414, 37.383649], [-95.519938, 37.383649], [-95.519938, 37.000263], [-95.613046, 37.000263], [-95.788308, 37.000263], [-95.9088, 37.000263], [-95.96357, 37.000263], [-95.96357, 37.301494], [-95.96357, 37.389126]]]}}, {"type": "Feature", "properties": {"name": "Door", "id": "55029", "FIPS": "55029", "FIPS State": 55, "ST": "WI", "County": "Door County,WI", "State": "Wisconsin"}, "geometry": {"type": "Polygon", "coordinates": [[[-87.375727, 44.673456], [-87.737205, 44.678933], [-86.981388, 45.297827], [-87.375727, 44.673456]]]}}, {"type": "Feature", "properties": {"name": "Marion", "id": "29127", "FIPS": "29127", "FIPS State": 29, "ST": "MO", "County": "Marion County,MO", "State": "Missouri"}, "geometry": {"type": "Polygon", "coordinates": [[[-91.784664, 39.946857], [-91.43414, 39.946857], [-91.36294, 39.760641], [-91.30817, 39.683964], [-91.686079, 39.683964], [-91.713464, 39.656579], [-91.844911, 39.656579], [-91.839434, 39.946857], [-91.784664, 39.946857]]]}}, {"type": "Feature", "properties": {"name": "Rutherford", "id": "37161", "FIPS": "37161", "FIPS State": 37, "ST": "NC", "County": "Rutherford County,NC", "State": "North Carolina"}, "geometry": {"type": "Polygon", "coordinates": [[[-81.82211, 35.576258], [-81.690663, 35.581735], [-81.76734, 35.181919], [-81.876879, 35.181919], [-81.969987, 35.187396], [-82.09048, 35.357181], [-82.260265, 35.395519], [-82.265742, 35.466719], [-82.167157, 35.526966], [-81.82211, 35.576258]]]}}, {"type": "Feature", "properties": {"name": "Bedford", "id": "42009", "FIPS": "42009", "FIPS State": 42, "ST": "PA", "County": "Bedford County,PA", "State": "Pennsylvania"}, "geometry": {"type": "Polygon", "coordinates": [[[-78.6181, 40.324766], [-78.256622, 40.297381], [-78.136129, 40.165934], [-78.382591, 39.722302], [-78.809792, 39.722302], [-78.656438, 40.242611], [-78.6181, 40.324766]]]}}, {"type": "Feature", "properties": {"name": "Yankton", "id": "46135", "FIPS": "46135", "FIPS State": 46, "ST": "SD", "County": "Yankton County,SD", "State": "South Dakota"}, "geometry": {"type": "Polygon", "coordinates": [[[-97.343759, 43.167298], [-97.157543, 43.085144], [-97.16302, 42.800343], [-97.486159, 42.849635], [-97.634037, 42.849635], [-97.639513, 43.167298], [-97.398528, 43.167298], [-97.343759, 43.167298]]]}}, {"type": "Feature", "properties": {"name": "Henderson", "id": "47077", "FIPS": "47077", "FIPS State": 47, "ST": "TN", "County": "Henderson County,TN", "State": "Tennessee"}, "geometry": {"type": "Polygon", "coordinates": [[[-88.514931, 35.822721], [-88.180837, 35.817244], [-88.241084, 35.422904], [-88.361576, 35.417427], [-88.613516, 35.587212], [-88.608039, 35.789859], [-88.514931, 35.822721]]]}}, {"type": "Feature", "properties": {"name": "Wexford", "id": "26165", "FIPS": "26165", "FIPS State": 26, "ST": "MI", "County": "Wexford County,MI", "State": "Michigan"}, "geometry": {"type": "Polygon", "coordinates": [[[-85.694307, 44.514625], [-85.332828, 44.514625], [-85.332828, 44.164101], [-85.486183, 44.164101], [-85.56286, 44.164101], [-85.820276, 44.164101], [-85.814799, 44.514625], [-85.694307, 44.514625]]]}}, {"type": "Feature", "properties": {"name": "Boyle", "id": "21021", "FIPS": "21021", "FIPS State": 21, "ST": "KY", "County": "Boyle County,KY", "State": "Kentucky"}, "geometry": {"type": "Polygon", "coordinates": [[[-84.856335, 37.695834], [-84.746796, 37.712265], [-84.659165, 37.635588], [-84.845381, 37.547957], [-85.037074, 37.54248], [-85.031597, 37.630111], [-85.02612, 37.679403], [-84.856335, 37.695834]]]}}, {"type": "Feature", "properties": {"name": "Stutsman", "id": "38093", "FIPS": "38093", "FIPS State": 38, "ST": "ND", "County": "Stutsman County,ND", "State": "North Dakota"}, "geometry": {"type": "Polygon", "coordinates": [[[-99.479765, 47.329772], [-99.266165, 47.329772], [-98.499393, 47.324295], [-98.466531, 47.242141], [-98.439147, 46.628724], [-99.036133, 46.628724], [-99.452381, 46.634201], [-99.479765, 47.329772]]]}}, {"type": "Feature", "properties": {"name": "Cherokee", "id": "37039", "FIPS": "37039", "FIPS State": 37, "ST": "NC", "County": "Cherokee County,NC", "State": "North Carolina"}, "geometry": {"type": "Polygon", "coordinates": [[[-83.7007, 35.247642], [-83.739039, 35.154534], [-84.007409, 34.984749], [-84.127902, 34.990226], [-84.319594, 34.990226], [-84.29221, 35.209303], [-84.029317, 35.291457], [-83.7007, 35.247642]]]}}, {"type": "Feature", "properties": {"name": "Holmes", "id": "39075", "FIPS": "39075", "FIPS State": 39, "ST": "OH", "County": "Holmes County,OH", "State": "Ohio"}, "geometry": {"type": "Polygon", "coordinates": [[[-81.657801, 40.669813], [-81.652325, 40.669813], [-81.652325, 40.636951], [-81.707094, 40.445258], [-82.183588, 40.456212], [-82.221926, 40.565751], [-82.128818, 40.669813], [-81.657801, 40.669813]]]}}, {"type": "Feature", "properties": {"name": "Iroquois", "id": "17075", "FIPS": "17075", "FIPS State": 17, "ST": "IL", "County": "Iroquois County,IL", "State": "Illinois"}, "geometry": {"type": "Polygon", "coordinates": [[[-87.523605, 41.009383], [-87.523605, 40.735536], [-87.529082, 40.489074], [-87.841267, 40.489074], [-87.934375, 40.483597], [-88.131545, 40.998429], [-88.131545, 40.998429], [-87.523605, 41.009383]]]}}, {"type": "Feature", "properties": {"name": "Decatur", "id": "18031", "FIPS": "18031", "FIPS State": 18, "ST": "IN", "County": "Decatur County,IN", "State": "Indiana"}, "geometry": {"type": "Polygon", "coordinates": [[[-85.299967, 39.453932], [-85.29449, 39.267716], [-85.442367, 39.196516], [-85.68883, 39.130793], [-85.683353, 39.34987], [-85.628583, 39.453932], [-85.299967, 39.453932]]]}}, {"type": "Feature", "properties": {"name": "Jackson", "id": "55053", "FIPS": "55053", "FIPS State": 55, "ST": "WI", "County": "Jackson County,WI", "State": "Wisconsin"}, "geometry": {"type": "Polygon", "coordinates": [[[-91.16577, 44.596779], [-90.924785, 44.596779], [-90.316844, 44.426994], [-90.311367, 44.246255], [-90.311367, 44.153147], [-90.492106, 44.158624], [-90.974077, 44.070993], [-91.149339, 44.081947], [-91.16577, 44.596779]]]}}, {"type": "Feature", "properties": {"name": "Saline", "id": "31151", "FIPS": "31151", "FIPS State": 31, "ST": "NE", "County": "Saline County,NE", "State": "Nebraska"}, "geometry": {"type": "Polygon", "coordinates": [[[-97.365666, 40.697198], [-96.91108, 40.697198], [-96.91108, 40.521935], [-96.916557, 40.35215], [-97.365666, 40.35215], [-97.365666, 40.697198]]]}}, {"type": "Feature", "properties": {"name": "Fillmore", "id": "27045", "FIPS": "27045", "FIPS State": 27, "ST": "MN", "County": "Fillmore County,MN", "State": "Minnesota"}, "geometry": {"type": "Polygon", "coordinates": [[[-92.381651, 43.846438], [-92.080419, 43.846438], [-91.729895, 43.846438], [-91.729895, 43.501391], [-91.850387, 43.501391], [-92.080419, 43.501391], [-92.447374, 43.501391], [-92.447374, 43.835484], [-92.381651, 43.846438]]]}}, {"type": "Feature", "properties": {"name": "Richmond", "id": "51159", "FIPS": "51159", "FIPS State": 51, "ST": "VA", "County": "Richmond County,VA", "State": "Virginia"}, "geometry": {"type": "Polygon", "coordinates": [[[-76.914771, 38.095651], [-76.635447, 37.964204], [-76.509478, 37.838235], [-76.640924, 37.794419], [-76.777848, 37.876573], [-76.936679, 38.07922], [-76.914771, 38.095651]]]}}, {"type": "Feature", "properties": {"name": "Adams", "id": "28001", "FIPS": "28001", "FIPS State": 28, "ST": "MS", "County": "Adams County,MS", "State": "Mississippi"}, "geometry": {"type": "Polygon", "coordinates": [[[-91.319124, 31.758831], [-91.154816, 31.610953], [-91.160293, 31.34806], [-91.264355, 31.369968], [-91.587494, 31.189229], [-91.379371, 31.731446], [-91.346509, 31.753354], [-91.319124, 31.758831]]]}}, {"type": "Feature", "properties": {"name": "Caroline", "id": "51033", "FIPS": "51033", "FIPS State": 51, "ST": "VA", "County": "Caroline County,VA", "State": "Virginia"}, "geometry": {"type": "Polygon", "coordinates": [[[-77.325542, 38.243528], [-77.117418, 38.15042], [-77.068125, 37.964204], [-77.073602, 37.964204], [-77.183141, 37.893004], [-77.347449, 37.788942], [-77.643204, 37.991589], [-77.369357, 38.249005], [-77.325542, 38.243528]]]}}, {"type": "Feature", "properties": {"name": "Rogers", "id": "40131", "FIPS": "40131", "FIPS State": 40, "ST": "OK", "County": "Rogers County,OK", "State": "Oklahoma"}, "geometry": {"type": "Polygon", "coordinates": [[[-95.810215, 36.594969], [-95.432306, 36.594969], [-95.328245, 36.512815], [-95.437783, 36.07466], [-95.618522, 36.162291], [-95.760923, 36.162291], [-95.810215, 36.425184], [-95.810215, 36.594969]]]}}, {"type": "Feature", "properties": {"name": "Boone", "id": "05009", "FIPS": "05009", "FIPS State": 5, "ST": "AR", "County": "Boone County,AR", "State": "Arkansas"}, "geometry": {"type": "Polygon", "coordinates": [[[-93.066268, 36.496384], [-92.852668, 36.496384], [-92.891006, 36.112998], [-92.945776, 36.112998], [-93.301777, 36.123952], [-93.2963, 36.496384], [-93.066268, 36.496384]]]}}, {"type": "Feature", "properties": {"name": "Plumas", "id": "06063", "FIPS": "06063", "FIPS State": 6, "ST": "CA", "County": "Plumas County,CA", "State": "California"}, "geometry": {"type": "Polygon", "coordinates": [[[-121.119157, 40.445258], [-120.209985, 40.08378], [-120.149738, 39.705871], [-121.009618, 39.640148], [-121.075341, 39.596333], [-121.436819, 40.149503], [-121.497066, 40.445258], [-121.327281, 40.445258], [-121.119157, 40.445258]]]}}, {"type": "Feature", "properties": {"name": "Marion", "id": "17121", "FIPS": "17121", "FIPS State": 17, "ST": "IL", "County": "Marion County,IL", "State": "Illinois"}, "geometry": {"type": "Polygon", "coordinates": [[[-88.777824, 38.824084], [-88.69567, 38.824084], [-88.701147, 38.605006], [-88.701147, 38.47356], [-88.914747, 38.479037], [-89.144779, 38.47356], [-89.144779, 38.500944], [-89.139302, 38.736453], [-88.777824, 38.824084]]]}}, {"type": "Feature", "properties": {"name": "Sawyer", "id": "55113", "FIPS": "55113", "FIPS State": 55, "ST": "WI", "County": "Sawyer County,WI", "State": "Wisconsin"}, "geometry": {"type": "Polygon", "coordinates": [[[-91.302693, 46.157707], [-90.924785, 46.15223], [-90.678322, 45.982445], [-90.678322, 45.637398], [-91.538202, 45.637398], [-91.549156, 46.157707], [-91.302693, 46.157707]]]}}, {"type": "Feature", "properties": {"name": "Effingham", "id": "17049", "FIPS": "17049", "FIPS State": 17, "ST": "IL", "County": "Effingham County,IL", "State": "Illinois"}, "geometry": {"type": "Polygon", "coordinates": [[[-88.580654, 39.212947], [-88.471115, 39.212947], [-88.361576, 39.169131], [-88.361576, 38.911715], [-88.613516, 38.917192], [-88.69567, 38.917192], [-88.805209, 39.218424], [-88.580654, 39.212947]]]}}, {"type": "Feature", "properties": {"name": "Beaufort", "id": "37013", "FIPS": "37013", "FIPS State": 37, "ST": "NC", "County": "Beaufort County,NC", "State": "North Carolina"}, "geometry": {"type": "Polygon", "coordinates": [[[-77.172187, 35.73509], [-76.843571, 35.707705], [-76.640924, 35.707705], [-76.547816, 35.390042], [-76.602586, 35.335273], [-76.624493, 35.253119], [-76.89834, 35.253119], [-77.188618, 35.417427], [-77.172187, 35.73509]]]}}, {"type": "Feature", "properties": {"name": "Douglas", "id": "32005", "FIPS": "32005", "FIPS State": 32, "ST": "NV", "County": "Douglas County,NV", "State": "Nevada"}, "geometry": {"type": "Polygon", "coordinates": [[[-119.760876, 39.114362], [-119.552752, 39.086977], [-119.328197, 38.533806], [-119.585614, 38.714545], [-119.903276, 38.933623], [-120.001861, 39.065069], [-120.001861, 39.114362], [-119.760876, 39.114362]]]}}, {"type": "Feature", "properties": {"name": "Acadia", "id": "22001", "FIPS": "22001", "FIPS State": 22, "ST": "LA", "County": "Acadia County,LA", "State": "Louisiana"}, "geometry": {"type": "Polygon", "coordinates": [[[-92.63359, 30.482704], [-92.49119, 30.482704], [-92.140665, 30.296488], [-92.283066, 30.14861], [-92.628113, 30.093841], [-92.63359, 30.482704]]]}}, {"type": "Feature", "properties": {"name": "Franklin", "id": "21073", "FIPS": "21073", "FIPS State": 21, "ST": "KY", "County": "Franklin County,KY", "State": "Kentucky"}, "geometry": {"type": "Polygon", "coordinates": [[[-84.861812, 38.358544], [-84.741319, 38.353067], [-84.724888, 38.194236], [-84.867289, 38.117559], [-84.998735, 38.128512], [-85.02612, 38.128512], [-84.998735, 38.336636], [-84.872765, 38.358544], [-84.861812, 38.358544]]]}}, {"type": "Feature", "properties": {"name": "Chester", "id": "45023", "FIPS": "45023", "FIPS State": 45, "ST": "SC", "County": "Chester County,SC", "State": "South Carolina"}, "geometry": {"type": "Polygon", "coordinates": [[[-81.28537, 34.820441], [-80.896507, 34.820441], [-80.880076, 34.541117], [-81.416816, 34.573978], [-81.422293, 34.573978], [-81.477062, 34.820441], [-81.28537, 34.820441]]]}}, {"type": "Feature", "properties": {"name": "Gadsden", "id": "12039", "FIPS": "12039", "FIPS State": 12, "ST": "FL", "County": "Gadsden County,FL", "State": "Florida"}, "geometry": {"type": "Polygon", "coordinates": [[[-84.867289, 30.712735], [-84.861812, 30.712735], [-84.379841, 30.690827], [-84.281256, 30.685351], [-84.648211, 30.389596], [-84.933012, 30.608673], [-84.867289, 30.712735]]]}}, {"type": "Feature", "properties": {"name": "Clayton", "id": "19043", "FIPS": "19043", "FIPS State": 19, "ST": "IA", "County": "Clayton County,IA", "State": "Iowa"}, "geometry": {"type": "Polygon", "coordinates": [[[-91.565587, 43.079667], [-91.176724, 43.079667], [-91.154816, 42.986559], [-90.8974, 42.674373], [-90.8974, 42.657942], [-91.132908, 42.646988], [-91.204109, 42.646988], [-91.609402, 42.641511], [-91.603925, 43.079667], [-91.565587, 43.079667]]]}}, {"type": "Feature", "properties": {"name": "Itasca", "id": "27061", "FIPS": "27061", "FIPS State": 27, "ST": "MN", "County": "Itasca County,MN", "State": "Minnesota"}, "geometry": {"type": "Polygon", "coordinates": [[[-93.597531, 47.899374], [-93.082699, 47.893897], [-93.055314, 47.028541], [-93.712547, 47.028541], [-93.772794, 47.028541], [-94.052118, 47.428357], [-94.413596, 47.444788], [-94.419073, 47.844605], [-93.597531, 47.899374]]]}}, {"type": "Feature", "properties": {"name": "Morgan", "id": "29141", "FIPS": "29141", "FIPS State": 29, "ST": "MO", "County": "Morgan County,MO", "State": "Missouri"}, "geometry": {"type": "Polygon", "coordinates": [[[-93.060791, 38.692637], [-92.841714, 38.681683], [-92.622636, 38.429744], [-92.693836, 38.22162], [-93.077222, 38.259959], [-93.066268, 38.528329], [-93.060791, 38.692637]]]}}, {"type": "Feature", "properties": {"name": "Jersey", "id": "17083", "FIPS": "17083", "FIPS State": 17, "ST": "IL", "County": "Jersey County,IL", "State": "Illinois"}, "geometry": {"type": "Polygon", "coordinates": [[[-90.147059, 39.262239], [-90.147059, 38.999346], [-90.240167, 38.999346], [-90.278506, 38.922669], [-90.448291, 38.966484], [-90.601645, 39.119839], [-90.147059, 39.262239]]]}}, {"type": "Feature", "properties": {"name": "Cherokee", "id": "40021", "FIPS": "40021", "FIPS State": 40, "ST": "OK", "County": "Cherokee County,OK", "State": "Oklahoma"}, "geometry": {"type": "Polygon", "coordinates": [[[-95.027013, 36.162291], [-95.010582, 36.162291], [-94.796981, 36.162291], [-94.807935, 35.636505], [-94.851751, 35.636505], [-95.125598, 35.636505], [-95.267998, 35.811767], [-95.207752, 36.07466], [-95.027013, 36.162291]]]}}, {"type": "Feature", "properties": {"name": "Dickson", "id": "47043", "FIPS": "47043", "FIPS State": 47, "ST": "TN", "County": "Dickson County,TN", "State": "Tennessee"}, "geometry": {"type": "Polygon", "coordinates": [[[-87.512651, 36.332076], [-87.288096, 36.321122], [-87.184034, 36.047275], [-87.205942, 35.959644], [-87.512651, 35.992506], [-87.534558, 35.992506], [-87.56742, 36.178722], [-87.512651, 36.332076]]]}}, {"type": "Feature", "properties": {"name": "Dodge", "id": "31053", "FIPS": "31053", "FIPS State": 31, "ST": "NE", "County": "Dodge County,NE", "State": "Nebraska"}, "geometry": {"type": "Polygon", "coordinates": [[[-96.905603, 41.743293], [-96.555079, 41.743293], [-96.44554, 41.683047], [-96.330525, 41.392769], [-96.461971, 41.392769], [-96.472925, 41.392769], [-96.905603, 41.453015], [-96.905603, 41.453015], [-96.905603, 41.743293]]]}}, {"type": "Feature", "properties": {"name": "Fentress", "id": "47049", "FIPS": "47049", "FIPS State": 47, "ST": "TN", "County": "Fentress County,TN", "State": "Tennessee"}, "geometry": {"type": "Polygon", "coordinates": [[[-85.009689, 36.567584], [-84.730365, 36.523769], [-84.70298, 36.370415], [-84.724888, 36.375892], [-84.905627, 36.156814], [-84.987781, 36.162291], [-85.102797, 36.140383], [-85.119228, 36.14586], [-85.119228, 36.408753], [-85.009689, 36.567584]]]}}, {"type": "Feature", "properties": {"name": "Franklin", "id": "17055", "FIPS": "17055", "FIPS State": 17, "ST": "IL", "County": "Franklin County,IL", "State": "Illinois"}, "geometry": {"type": "Polygon", "coordinates": [[[-88.816163, 38.128512], [-88.706624, 38.123036], [-88.706624, 37.909435], [-88.706624, 37.865619], [-88.728531, 37.865619], [-89.150256, 37.860142], [-89.177641, 37.947773], [-89.128348, 38.123036], [-88.816163, 38.128512]]]}}, {"type": "Feature", "properties": {"name": "Leslie", "id": "21131", "FIPS": "21131", "FIPS State": 21, "ST": "KY", "County": "Leslie County,KY", "State": "Kentucky"}, "geometry": {"type": "Polygon", "coordinates": [[[-83.509007, 37.235771], [-83.180391, 37.022171], [-83.492576, 36.896201], [-83.509007, 36.940016], [-83.509007, 37.235771]]]}}, {"type": "Feature", "properties": {"name": "Cass", "id": "18017", "FIPS": "18017", "FIPS State": 18, "ST": "IN", "County": "Cass County,IN", "State": "Indiana"}, "geometry": {"type": "Polygon", "coordinates": [[[-86.581571, 40.910798], [-86.466555, 40.910798], [-86.1708, 40.910798], [-86.165323, 40.560274], [-86.373447, 40.560274], [-86.581571, 40.735536], [-86.581571, 40.910798]]]}}, {"type": "Feature", "properties": {"name": "Montgomery", "id": "18107", "FIPS": "18107", "FIPS State": 18, "ST": "IN", "County": "Montgomery County,IN", "State": "Indiana"}, "geometry": {"type": "Polygon", "coordinates": [[[-86.921141, 40.215227], [-86.696587, 40.215227], [-86.696587, 40.176888], [-86.696587, 39.924949], [-86.696587, 39.864703], [-87.008772, 39.864703], [-87.090926, 39.952334], [-87.090926, 40.215227], [-86.921141, 40.215227]]]}}, {"type": "Feature", "properties": {"name": "Monroe", "id": "47123", "FIPS": "47123", "FIPS State": 47, "ST": "TN", "County": "Monroe County,TN", "State": "Tennessee"}, "geometry": {"type": "Polygon", "coordinates": [[[-84.43461, 35.669366], [-84.188148, 35.60912], [-83.963593, 35.461243], [-84.029317, 35.291457], [-84.29221, 35.209303], [-84.494857, 35.28598], [-84.522241, 35.60912], [-84.522241, 35.620074], [-84.527718, 35.625551], [-84.43461, 35.669366]]]}}, {"type": "Feature", "properties": {"name": "Mower", "id": "27099", "FIPS": "27099", "FIPS State": 27, "ST": "MN", "County": "Mower County,MN", "State": "Minnesota"}, "geometry": {"type": "Polygon", "coordinates": [[[-92.880052, 43.846438], [-92.688359, 43.846438], [-92.447374, 43.835484], [-92.447374, 43.501391], [-92.551436, 43.501391], [-93.022453, 43.501391], [-93.049837, 43.501391], [-93.049837, 43.846438], [-93.04436, 43.846438], [-92.880052, 43.846438]]]}}, {"type": "Feature", "properties": {"name": "Garrett", "id": "24023", "FIPS": "24023", "FIPS State": 24, "ST": "MD", "County": "Garrett County,MD", "State": "Maryland"}, "geometry": {"type": "Polygon", "coordinates": [[[-78.930285, 39.722302], [-79.067209, 39.47584], [-79.275332, 39.327962], [-79.488933, 39.20747], [-79.477979, 39.722302], [-79.390348, 39.722302], [-78.930285, 39.722302]]]}}, {"type": "Feature", "properties": {"name": "Bond", "id": "17005", "FIPS": "17005", "FIPS State": 17, "ST": "IL", "County": "Bond County,IL", "State": "Illinois"}, "geometry": {"type": "Polygon", "coordinates": [[[-89.248841, 39.026731], [-89.254318, 38.74193], [-89.593888, 38.74193], [-89.599365, 38.74193], [-89.637704, 38.999346], [-89.248841, 39.026731]]]}}, {"type": "Feature", "properties": {"name": "Des Moines", "id": "19057", "FIPS": "19057", "FIPS State": 19, "ST": "IA", "County": "Des Moines County,IA", "State": "Iowa"}, "geometry": {"type": "Polygon", "coordinates": [[[-91.324601, 41.075106], [-90.946692, 41.075106], [-90.946692, 41.069629], [-91.111001, 40.697198], [-91.406755, 40.812213], [-91.368417, 41.075106], [-91.324601, 41.075106]]]}}, {"type": "Feature", "properties": {"name": "Polk", "id": "29167", "FIPS": "29167", "FIPS State": 29, "ST": "MO", "County": "Polk County,MO", "State": "Missouri"}, "geometry": {"type": "Polygon", "coordinates": [[[-93.630393, 37.827281], [-93.575624, 37.827281], [-93.186761, 37.805373], [-93.181284, 37.41651], [-93.619439, 37.427464], [-93.613962, 37.575342], [-93.630393, 37.827281]]]}}, {"type": "Feature", "properties": {"name": "Pike", "id": "01109", "FIPS": "01109", "FIPS State": 1, "ST": "AL", "County": "Pike County,AL", "State": "Alabama"}, "geometry": {"type": "Polygon", "coordinates": [[[-85.995538, 32.049109], [-85.655968, 31.879324], [-85.749076, 31.61643], [-85.787415, 31.61643], [-86.055785, 31.61643], [-86.143416, 31.61643], [-86.192708, 31.966955], [-85.995538, 32.049109]]]}}, {"type": "Feature", "properties": {"name": "Hertford", "id": "37091", "FIPS": "37091", "FIPS State": 37, "ST": "NC", "County": "Hertford County,NC", "State": "North Carolina"}, "geometry": {"type": "Polygon", "coordinates": [[[-76.914771, 36.545677], [-76.695693, 36.293737], [-76.706647, 36.244445], [-77.210526, 36.244445], [-77.16671, 36.545677], [-76.914771, 36.545677]]]}}, {"type": "Feature", "properties": {"name": "Dawson", "id": "13085", "FIPS": "13085", "FIPS State": 13, "ST": "GA", "County": "Dawson County,GA", "State": "Georgia"}, "geometry": {"type": "Polygon", "coordinates": [[[-84.199102, 34.617794], [-84.188148, 34.601363], [-83.980024, 34.420624], [-83.958116, 34.332993], [-84.259348, 34.332993], [-84.259348, 34.382285], [-84.346979, 34.563024], [-84.199102, 34.617794]]]}}, {"type": "Feature", "properties": {"name": "Tuscola", "id": "26157", "FIPS": "26157", "FIPS State": 26, "ST": "MI", "County": "Tuscola County,MI", "State": "Michigan"}, "geometry": {"type": "Polygon", "coordinates": [[[-83.465192, 43.725946], [-83.120145, 43.676653], [-83.120145, 43.326129], [-83.191345, 43.326129], [-83.459715, 43.222067], [-83.465192, 43.222067], [-83.695223, 43.222067], [-83.7007, 43.479483], [-83.7007, 43.594499], [-83.465192, 43.731422], [-83.465192, 43.725946]]]}}, {"type": "Feature", "properties": {"name": "Clatsop", "id": "41007", "FIPS": "41007", "FIPS State": 41, "ST": "OR", "County": "Clatsop County,OR", "State": "Oregon"}, "geometry": {"type": "Polygon", "coordinates": [[[-123.364702, 46.146753], [-123.359225, 45.779798], [-123.841196, 45.785275], [-123.967166, 45.785275], [-124.010981, 46.22343], [-123.545441, 46.261769], [-123.364702, 46.146753]]]}}, {"type": "Feature", "properties": {"name": "Seward", "id": "20175", "FIPS": "20175", "FIPS State": 20, "ST": "KS", "County": "Seward County,KS", "State": "Kansas"}, "geometry": {"type": "Polygon", "coordinates": [[[-100.750416, 37.389126], [-100.651831, 37.389126], [-100.6354, 37.000263], [-100.947585, 37.000263], [-101.068078, 37.000263], [-101.068078, 37.389126], [-100.750416, 37.389126]]]}}, {"type": "Feature", "properties": {"name": "Rolette", "id": "38079", "FIPS": "38079", "FIPS State": 38, "ST": "ND", "County": "Rolette County,ND", "State": "North Dakota"}, "geometry": {"type": "Polygon", "coordinates": [[[-99.523581, 49.000239], [-99.490719, 48.545653], [-99.616689, 48.545653], [-100.147952, 48.545653], [-100.180814, 49.000239], [-99.523581, 49.000239]]]}}, {"type": "Feature", "properties": {"name": "Jackson", "id": "40065", "FIPS": "40065", "FIPS State": 40, "ST": "OK", "County": "Jackson County,OK", "State": "Oklahoma"}, "geometry": {"type": "Polygon", "coordinates": [[[-99.397611, 34.814964], [-99.244257, 34.820441], [-99.101857, 34.639701], [-99.211395, 34.33847], [-99.474288, 34.398716], [-99.84672, 34.508255], [-99.665981, 34.727333], [-99.397611, 34.814964]]]}}, {"type": "Feature", "properties": {"name": "Finney", "id": "20055", "FIPS": "20055", "FIPS State": 20, "ST": "KS", "County": "Finney County,KS", "State": "Kansas"}, "geometry": {"type": "Polygon", "coordinates": [[[-100.881862, 38.265436], [-100.684692, 38.265436], [-100.246537, 38.259959], [-100.224629, 38.259959], [-100.224629, 38.002543], [-100.651831, 37.734173], [-101.089986, 37.734173], [-101.10094, 38.265436], [-100.881862, 38.265436]]]}}, {"type": "Feature", "properties": {"name": "Bastrop", "id": "48021", "FIPS": "48021", "FIPS State": 48, "ST": "TX", "County": "Bastrop County,TX", "State": "Texas"}, "geometry": {"type": "Polygon", "coordinates": [[[-97.332805, 30.40055], [-97.026096, 30.050025], [-97.316374, 29.787132], [-97.650467, 30.071933], [-97.371143, 30.41698], [-97.332805, 30.40055]]]}}, {"type": "Feature", "properties": {"name": "Warren", "id": "28149", "FIPS": "28149", "FIPS State": 28, "ST": "MS", "County": "Warren County,MS", "State": "Mississippi"}, "geometry": {"type": "Polygon", "coordinates": [[[-91.045277, 32.574895], [-90.722138, 32.61871], [-90.552353, 32.509172], [-90.727615, 32.224371], [-91.028846, 32.114832], [-91.028846, 32.120309], [-91.050754, 32.125786], [-91.121954, 32.213417], [-91.067185, 32.563941], [-91.045277, 32.574895]]]}}, {"type": "Feature", "properties": {"name": "Le Flore", "id": "40079", "FIPS": "40079", "FIPS State": 40, "ST": "OK", "County": "Le Flore County,OK", "State": "Oklahoma"}, "geometry": {"type": "Polygon", "coordinates": [[[-94.430026, 35.379088], [-94.446457, 34.935456], [-94.451934, 34.727333], [-94.462888, 34.508255], [-94.616242, 34.508255], [-94.939382, 34.508255], [-95.059875, 34.67804], [-94.928428, 35.055949], [-94.813412, 35.324319], [-94.430026, 35.379088]]]}}, {"type": "Feature", "properties": {"name": "Washington", "id": "36115", "FIPS": "36115", "FIPS State": 36, "ST": "NY", "County": "Washington County,NY", "State": "New York"}, "geometry": {"type": "Polygon", "coordinates": [[[-73.376668, 43.8081], [-73.365714, 43.75333], [-73.256175, 43.315175], [-73.272606, 42.942743], [-73.387622, 42.94822], [-73.634084, 42.942743], [-73.595745, 43.304221], [-73.436914, 43.802623], [-73.376668, 43.8081]]]}}, {"type": "Feature", "properties": {"name": "Martin", "id": "27091", "FIPS": "27091", "FIPS State": 27, "ST": "MN", "County": "Martin County,MN", "State": "Minnesota"}, "geometry": {"type": "Polygon", "coordinates": [[[-94.616242, 43.846438], [-94.36978, 43.846438], [-94.249287, 43.846438], [-94.249287, 43.501391], [-94.44098, 43.501391], [-94.676489, 43.501391], [-94.851751, 43.501391], [-94.851751, 43.846438], [-94.616242, 43.846438]]]}}, {"type": "Feature", "properties": {"name": "Preble", "id": "39135", "FIPS": "39135", "FIPS State": 39, "ST": "OH", "County": "Preble County,OH", "State": "Ohio"}, "geometry": {"type": "Polygon", "coordinates": [[[-84.483903, 39.919472], [-84.478426, 39.590856], [-84.812519, 39.568948], [-84.812519, 39.727779], [-84.812519, 39.919472], [-84.483903, 39.919472]]]}}, {"type": "Feature", "properties": {"name": "Pike", "id": "39131", "FIPS": "39131", "FIPS State": 39, "ST": "OH", "County": "Pike County,OH", "State": "Ohio"}, "geometry": {"type": "Polygon", "coordinates": [[[-83.355653, 39.196516], [-82.786051, 39.169131], [-82.807959, 38.950054], [-83.273499, 39.015777], [-83.383038, 39.054115], [-83.355653, 39.196516]]]}}, {"type": "Feature", "properties": {"name": "Sanilac", "id": "26151", "FIPS": "26151", "FIPS State": 26, "ST": "MI", "County": "Sanilac County,MI", "State": "Michigan"}, "geometry": {"type": "Polygon", "coordinates": [[[-82.69842, 43.687607], [-82.605312, 43.693084], [-82.50125, 43.167298], [-82.566974, 43.167298], [-82.994175, 43.156344], [-83.120145, 43.326129], [-83.120145, 43.676653], [-82.69842, 43.687607]]]}}, {"type": "Feature", "properties": {"name": "Morrow", "id": "39117", "FIPS": "39117", "FIPS State": 39, "ST": "OH", "County": "Morrow County,OH", "State": "Ohio"}, "geometry": {"type": "Polygon", "coordinates": [[[-82.857251, 40.713628], [-82.725805, 40.713628], [-82.621743, 40.54932], [-82.742236, 40.346673], [-83.02156, 40.434304], [-82.857251, 40.702674], [-82.857251, 40.713628]]]}}, {"type": "Feature", "properties": {"name": "Alpena", "id": "26007", "FIPS": "26007", "FIPS State": 26, "ST": "MI", "County": "Alpena County,MI", "State": "Michigan"}, "geometry": {"type": "Polygon", "coordinates": [[[-83.4871, 45.204719], [-83.388515, 45.204719], [-83.322791, 44.859672], [-83.547346, 44.859672], [-83.886916, 44.854195], [-83.881439, 45.204719], [-83.4871, 45.204719]]]}}, {"type": "Feature", "properties": {"name": "Marion", "id": "45067", "FIPS": "45067", "FIPS State": 45, "ST": "SC", "County": "Marion County,SC", "State": "South Carolina"}, "geometry": {"type": "Polygon", "coordinates": [[[-79.36844, 34.300131], [-79.127455, 34.256316], [-79.187701, 33.703145], [-79.319148, 33.779822], [-79.324625, 33.80173], [-79.549179, 34.228931], [-79.36844, 34.300131]]]}}, {"type": "Feature", "properties": {"name": "Dallas", "id": "01047", "FIPS": "01047", "FIPS State": 1, "ST": "AL", "County": "Dallas County,AL", "State": "Alabama"}, "geometry": {"type": "Polygon", "coordinates": [[[-87.025203, 32.717295], [-87.019726, 32.728249], [-86.915664, 32.662526], [-86.817079, 32.339387], [-86.90471, 32.049109], [-87.277142, 32.147694], [-87.474312, 32.262709], [-87.474312, 32.306525], [-87.025203, 32.717295]]]}}, {"type": "Feature", "properties": {"name": "Howell", "id": "29091", "FIPS": "29091", "FIPS State": 29, "ST": "MO", "County": "Howell County,MO", "State": "Missouri"}, "geometry": {"type": "Polygon", "coordinates": [[[-92.074942, 37.055032], [-91.653218, 37.049555], [-91.658695, 36.890724], [-91.669648, 36.501861], [-92.118758, 36.496384], [-92.113281, 36.792139], [-92.091373, 37.055032], [-92.074942, 37.055032]]]}}, {"type": "Feature", "properties": {"name": "Dubois", "id": "18037", "FIPS": "18037", "FIPS State": 18, "ST": "IN", "County": "Dubois County,IN", "State": "Indiana"}, "geometry": {"type": "Polygon", "coordinates": [[[-86.680156, 38.528329], [-86.680156, 38.396883], [-86.680156, 38.265436], [-86.789695, 38.20519], [-86.866372, 38.20519], [-87.019726, 38.20519], [-87.074495, 38.232574], [-87.074495, 38.517375], [-86.926618, 38.506421], [-86.680156, 38.528329]]]}}, {"type": "Feature", "properties": {"name": "Person", "id": "37145", "FIPS": "37145", "FIPS State": 37, "ST": "NC", "County": "Person County,NC", "State": "North Carolina"}, "geometry": {"type": "Polygon", "coordinates": [[[-79.138409, 36.5402], [-78.798839, 36.5402], [-78.804316, 36.233491], [-78.952193, 36.238968], [-79.15484, 36.244445], [-79.138409, 36.5402]]]}}, {"type": "Feature", "properties": {"name": "Rhea", "id": "47143", "FIPS": "47143", "FIPS State": 47, "ST": "TN", "County": "Rhea County,TN", "State": "Tennessee"}, "geometry": {"type": "Polygon", "coordinates": [[[-84.768704, 35.80629], [-84.724888, 35.75152], [-85.015166, 35.41195], [-85.130182, 35.455766], [-85.135659, 35.455766], [-84.916581, 35.762474], [-84.779657, 35.822721], [-84.768704, 35.80629]]]}}, {"type": "Feature", "properties": {"name": "Siskiyou", "id": "06093", "FIPS": "06093", "FIPS State": 6, "ST": "CA", "County": "Siskiyou County,CA", "State": "California"}, "geometry": {"type": "Polygon", "coordinates": [[[-123.233256, 42.006186], [-122.291222, 42.006186], [-121.447773, 41.995232], [-121.447773, 41.184645], [-122.499346, 41.184645], [-122.586977, 41.35443], [-122.915593, 40.992952], [-123.408518, 41.179168], [-123.660457, 41.381815], [-123.518057, 42.000709], [-123.233256, 42.006186]]]}}, {"type": "Feature", "properties": {"name": "Teton", "id": "56039", "FIPS": "56039", "FIPS State": 56, "ST": "WY", "County": "Teton County,WY", "State": "Wyoming"}, "geometry": {"type": "Polygon", "coordinates": [[[-111.058017, 44.667979], [-110.3734, 44.580348], [-110.055737, 44.010746], [-110.05026, 43.463052], [-110.576047, 43.233021], [-111.047063, 43.315175], [-111.047063, 43.501391], [-111.047063, 43.983362], [-111.047063, 44.476286], [-111.058017, 44.667979]]]}}, {"type": "Feature", "properties": {"name": "Whitley", "id": "18183", "FIPS": "18183", "FIPS State": 18, "ST": "IN", "County": "Whitley County,IN", "State": "Indiana"}, "geometry": {"type": "Polygon", "coordinates": [[[-85.650491, 41.294184], [-85.305444, 41.266799], [-85.332828, 41.003906], [-85.376644, 41.003906], [-85.645014, 41.003906], [-85.683353, 41.047722], [-85.650491, 41.294184]]]}}, {"type": "Feature", "properties": {"name": "Hopkins", "id": "48223", "FIPS": "48223", "FIPS State": 48, "ST": "TX", "County": "Hopkins County,TX", "State": "Texas"}, "geometry": {"type": "Polygon", "coordinates": [[[-95.492553, 33.35262], [-95.306337, 33.374528], [-95.306337, 32.963758], [-95.667815, 32.958281], [-95.864985, 32.980189], [-95.859508, 33.221174], [-95.492553, 33.35262]]]}}, {"type": "Feature", "properties": {"name": "Powhatan", "id": "51145", "FIPS": "51145", "FIPS State": 51, "ST": "VA", "County": "Powhatan County,VA", "State": "Virginia"}, "geometry": {"type": "Polygon", "coordinates": [[[-78.015636, 37.641065], [-77.654158, 37.564388], [-77.856805, 37.41651], [-77.988251, 37.48771], [-78.130652, 37.454849], [-78.070406, 37.657496], [-78.015636, 37.641065]]]}}, {"type": "Feature", "properties": {"name": "Hood River", "id": "41027", "FIPS": "41027", "FIPS State": 41, "ST": "OR", "County": "Hood River County,OR", "State": "Oregon"}, "geometry": {"type": "Polygon", "coordinates": [[[-121.924267, 45.648352], [-121.52445, 45.725029], [-121.442296, 45.697644], [-121.694236, 45.259489], [-121.820205, 45.462136], [-121.924267, 45.648352]]]}}, {"type": "Feature", "properties": {"name": "Upshur", "id": "54097", "FIPS": "54097", "FIPS State": 54, "ST": "WV", "County": "Upshur County,WV", "State": "West Virginia"}, "geometry": {"type": "Polygon", "coordinates": [[[-80.22832, 39.114362], [-80.08592, 38.944577], [-80.277612, 38.692637], [-80.392628, 38.725499], [-80.29952, 39.103408], [-80.22832, 39.114362]]]}}, {"type": "Feature", "properties": {"name": "Prince Edward", "id": "51147", "FIPS": "51147", "FIPS State": 51, "ST": "VA", "County": "Prince Edward County,VA", "State": "Virginia"}, "geometry": {"type": "Polygon", "coordinates": [[[-78.262098, 37.34531], [-78.234714, 37.367218], [-78.229237, 37.296018], [-78.240191, 37.120755], [-78.399022, 37.087894], [-78.442837, 37.07694], [-78.683823, 37.246725], [-78.596192, 37.400079], [-78.464745, 37.339833], [-78.262098, 37.34531]]]}}, {"type": "Feature", "properties": {"name": "Columbus", "id": "37047", "FIPS": "37047", "FIPS State": 37, "ST": "NC", "County": "Columbus County,NC", "State": "North Carolina"}, "geometry": {"type": "Polygon", "coordinates": [[[-78.870039, 34.48087], [-78.256622, 34.398716], [-78.163514, 34.354901], [-78.650961, 33.94413], [-79.072686, 34.300131], [-78.870039, 34.48087]]]}}, {"type": "Feature", "properties": {"name": "Ravalli", "id": "30081", "FIPS": "30081", "FIPS State": 30, "ST": "MT", "County": "Ravalli County,MT", "State": "Montana"}, "geometry": {"type": "Polygon", "coordinates": [[[-113.851257, 46.661586], [-113.829349, 46.661586], [-113.801964, 46.037214], [-113.517164, 45.938629], [-113.517164, 45.938629], [-113.944365, 45.68669], [-114.557782, 45.566198], [-114.333228, 46.661586], [-113.851257, 46.661586]]]}}, {"type": "Feature", "properties": {"name": "Shelby", "id": "19165", "FIPS": "19165", "FIPS State": 19, "ST": "IA", "County": "Shelby County,IA", "State": "Iowa"}, "geometry": {"type": "Polygon", "coordinates": [[[-95.322768, 41.863786], [-95.092736, 41.863786], [-95.043444, 41.502308], [-95.152983, 41.507785], [-95.49803, 41.507785], [-95.558276, 41.863786], [-95.322768, 41.863786]]]}}, {"type": "Feature", "properties": {"name": "New Kent", "id": "51127", "FIPS": "51127", "FIPS State": 51, "ST": "VA", "County": "New Kent County,VA", "State": "Virginia"}, "geometry": {"type": "Polygon", "coordinates": [[[-77.122895, 37.624634], [-76.794278, 37.515095], [-76.739509, 37.465803], [-76.903817, 37.378172], [-77.040741, 37.427464], [-77.177664, 37.493187], [-77.226957, 37.537003], [-77.122895, 37.624634]]]}}, {"type": "Feature", "properties": {"name": "Seward", "id": "31159", "FIPS": "31159", "FIPS State": 31, "ST": "NE", "County": "Seward County,NE", "State": "Nebraska"}, "geometry": {"type": "Polygon", "coordinates": [[[-97.349236, 41.047722], [-96.91108, 41.047722], [-96.91108, 40.697198], [-97.365666, 40.697198], [-97.365666, 41.047722], [-97.349236, 41.047722]]]}}, {"type": "Feature", "properties": {"name": "Tehama", "id": "06103", "FIPS": "06103", "FIPS State": 6, "ST": "CA", "County": "Tehama County,CA", "State": "California"}, "geometry": {"type": "Polygon", "coordinates": [[[-121.497066, 40.445258], [-121.436819, 40.149503], [-121.584697, 40.100211], [-122.04476, 39.798979], [-122.937501, 39.798979], [-122.932024, 39.979718], [-123.063471, 40.286427], [-121.497066, 40.445258]]]}}, {"type": "Feature", "properties": {"name": "Cass", "id": "31025", "FIPS": "31025", "FIPS State": 31, "ST": "NE", "County": "Cass County,NE", "State": "Nebraska"}, "geometry": {"type": "Polygon", "coordinates": [[[-96.040247, 41.064153], [-95.881416, 41.053199], [-95.815692, 40.899844], [-95.832123, 40.784829], [-95.892369, 40.784829], [-96.461971, 40.784829], [-96.461971, 41.01486], [-96.319571, 41.047722], [-96.040247, 41.064153]]]}}, {"type": "Feature", "properties": {"name": "Chippewa", "id": "26033", "FIPS": "26033", "FIPS State": 26, "ST": "MI", "County": "Chippewa County,MI", "State": "Michigan"}, "geometry": {"type": "Polygon", "coordinates": [[[-84.116948, 45.976968], [-85.23972, 46.245338], [-85.23972, 46.754694], [-85.015166, 46.480847], [-84.127902, 46.530139], [-84.116948, 45.976968]]]}}, {"type": "Feature", "properties": {"name": "Caledonia", "id": "50005", "FIPS": "50005", "FIPS State": 50, "ST": "VT", "County": "Caledonia County,VT", "State": "Vermont"}, "geometry": {"type": "Polygon", "coordinates": [[[-71.941709, 44.766564], [-71.837647, 44.350317], [-72.040294, 44.153147], [-72.368911, 44.202439], [-72.42368, 44.503671], [-72.434634, 44.503671], [-72.374388, 44.585825], [-71.941709, 44.766564]]]}}, {"type": "Feature", "properties": {"name": "Marquette", "id": "55077", "FIPS": "55077", "FIPS State": 55, "ST": "WI", "County": "Marquette County,WI", "State": "Wisconsin"}, "geometry": {"type": "Polygon", "coordinates": [[[-89.166687, 43.983362], [-89.243364, 43.643791], [-89.599365, 43.643791], [-89.599365, 43.983362], [-89.166687, 43.983362]]]}}, {"type": "Feature", "properties": {"name": "Creek", "id": "40037", "FIPS": "40037", "FIPS State": 40, "ST": "OK", "County": "Creek County,OK", "State": "Oklahoma"}, "geometry": {"type": "Polygon", "coordinates": [[[-96.620803, 36.162291], [-96.297663, 36.162291], [-96.03477, 35.855582], [-96.138832, 35.855582], [-96.193601, 35.636505], [-96.478402, 35.636505], [-96.620803, 35.636505], [-96.620803, 35.943213], [-96.620803, 36.162291]]]}}, {"type": "Feature", "properties": {"name": "Jasper", "id": "18073", "FIPS": "18073", "FIPS State": 18, "ST": "IN", "County": "Jasper County,IN", "State": "Indiana"}, "geometry": {"type": "Polygon", "coordinates": [[[-87.036157, 41.255845], [-86.932095, 41.239415], [-86.932095, 41.173691], [-86.932095, 40.910798], [-87.096403, 40.735536], [-87.266188, 40.735536], [-87.277142, 41.21203], [-87.277142, 41.217507], [-87.216896, 41.239415], [-87.036157, 41.255845]]]}}, {"type": "Feature", "properties": {"name": "Warren", "id": "47177", "FIPS": "47177", "FIPS State": 47, "ST": "TN", "County": "Warren County,TN", "State": "Tennessee"}, "geometry": {"type": "Polygon", "coordinates": [[[-85.683353, 35.833674], [-85.601199, 35.795336], [-85.557383, 35.532443], [-85.606675, 35.532443], [-85.875046, 35.521489], [-85.984584, 35.658412], [-85.885999, 35.839151], [-85.683353, 35.833674]]]}}, {"type": "Feature", "properties": {"name": "Liberty", "id": "12077", "FIPS": "12077", "FIPS State": 12, "ST": "FL", "County": "Liberty County,FL", "State": "Florida"}, "geometry": {"type": "Polygon", "coordinates": [[[-84.933012, 30.608673], [-84.648211, 30.389596], [-84.713934, 30.301965], [-84.544149, 30.011687], [-85.004212, 30.011687], [-85.02612, 29.973348], [-85.113751, 30.197903], [-84.933012, 30.608673]]]}}, {"type": "Feature", "properties": {"name": "Henderson", "id": "48213", "FIPS": "48213", "FIPS State": 48, "ST": "TX", "County": "Henderson County,TX", "State": "Texas"}, "geometry": {"type": "Polygon", "coordinates": [[[-96.215509, 32.361294], [-96.078585, 32.355817], [-95.448737, 32.355817], [-95.459691, 32.13674], [-95.42683, 32.08197], [-96.051201, 32.005293], [-96.056678, 32.01077], [-96.385294, 32.328433], [-96.451017, 32.361294], [-96.215509, 32.361294]]]}}, {"type": "Feature", "properties": {"name": "Marinette", "id": "55075", "FIPS": "55075", "FIPS State": 55, "ST": "WI", "County": "Marinette County,WI", "State": "Wisconsin"}, "geometry": {"type": "Polygon", "coordinates": [[[-88.060345, 45.779798], [-87.846744, 45.725029], [-87.589328, 45.095181], [-87.76459, 44.963734], [-88.4273, 45.374505], [-88.4273, 45.725029], [-88.060345, 45.779798]]]}}, {"type": "Feature", "properties": {"name": "Emmet", "id": "26047", "FIPS": "26047", "FIPS State": 26, "ST": "MI", "County": "Emmet County,MI", "State": "Michigan"}, "geometry": {"type": "Polygon", "coordinates": [[[-84.730365, 45.785275], [-84.730365, 45.779798], [-84.730365, 45.286874], [-85.09732, 45.363551], [-85.09732, 45.369028], [-84.730365, 45.785275]]]}}, {"type": "Feature", "properties": {"name": "Brown", "id": "39015", "FIPS": "39015", "FIPS State": 39, "ST": "OH", "County": "Brown County,OH", "State": "Ohio"}, "geometry": {"type": "Polygon", "coordinates": [[[-83.990978, 39.256762], [-83.865008, 39.245808], [-83.673316, 39.021254], [-83.706177, 38.637868], [-83.848578, 38.747407], [-83.903347, 38.769315], [-84.051224, 38.769315], [-83.990978, 39.256762]]]}}, {"type": "Feature", "properties": {"name": "Morgan", "id": "08087", "FIPS": "08087", "FIPS State": 8, "ST": "CO", "County": "Morgan County,CO", "State": "Colorado"}, "geometry": {"type": "Polygon", "coordinates": [[[-104.091349, 40.521935], [-103.581994, 40.521935], [-103.466978, 40.434304], [-103.707963, 40.001626], [-103.795594, 40.001626], [-104.151596, 40.001626], [-104.091349, 40.521935]]]}}, {"type": "Feature", "properties": {"name": "Coos", "id": "33007", "FIPS": "33007", "FIPS State": 33, "ST": "NH", "County": "Coos County,NH", "State": "New Hampshire"}, "geometry": {"type": "Polygon", "coordinates": [[[-71.08183, 45.303304], [-71.010629, 44.284593], [-71.415923, 44.213393], [-71.766447, 44.405086], [-71.503554, 45.013027], [-71.08183, 45.303304]]]}}, {"type": "Feature", "properties": {"name": "Suwannee", "id": "12121", "FIPS": "12121", "FIPS State": 12, "ST": "FL", "County": "Suwannee County,FL", "State": "Florida"}, "geometry": {"type": "Polygon", "coordinates": [[[-83.081806, 30.438888], [-82.797005, 30.334826], [-82.802482, 29.93501], [-82.879159, 29.885717], [-83.246114, 30.258149], [-83.169437, 30.384119], [-83.081806, 30.438888]]]}}, {"type": "Feature", "properties": {"name": "Ware", "id": "13299", "FIPS": "13299", "FIPS State": 13, "ST": "GA", "County": "Ware County,GA", "State": "Georgia"}, "geometry": {"type": "Polygon", "coordinates": [[[-82.473866, 31.419261], [-82.419096, 31.419261], [-82.282173, 31.227568], [-82.134295, 31.00849], [-82.216449, 30.570335], [-82.419096, 30.581289], [-82.671035, 31.183752], [-82.62722, 31.364491], [-82.599835, 31.468553], [-82.473866, 31.419261]]]}}, {"type": "Feature", "properties": {"name": "Butler", "id": "20015", "FIPS": "20015", "FIPS State": 20, "ST": "KS", "County": "Butler County,KS", "State": "Kansas"}, "geometry": {"type": "Polygon", "coordinates": [[[-97.113727, 38.084697], [-96.83988, 38.084697], [-96.522218, 38.084697], [-96.527695, 37.608203], [-96.527695, 37.476757], [-97.080866, 37.476757], [-97.152066, 37.476757], [-97.152066, 37.914912], [-97.152066, 38.090174], [-97.113727, 38.084697]]]}}, {"type": "Feature", "properties": {"name": "Delaware", "id": "40041", "FIPS": "40041", "FIPS State": 40, "ST": "OK", "County": "Delaware County,OK", "State": "Oklahoma"}, "geometry": {"type": "Polygon", "coordinates": [[[-94.890089, 36.671646], [-94.616242, 36.666169], [-94.616242, 36.501861], [-94.561473, 36.162291], [-94.769597, 36.162291], [-94.796981, 36.162291], [-95.010582, 36.162291], [-95.005105, 36.507338], [-94.999628, 36.671646], [-94.890089, 36.671646]]]}}, {"type": "Feature", "properties": {"name": "Van Zandt", "id": "48467", "FIPS": "48467", "FIPS State": 48, "ST": "TX", "County": "Van Zandt County,TX", "State": "Texas"}, "geometry": {"type": "Polygon", "coordinates": [[[-96.062155, 32.837788], [-95.936185, 32.837788], [-95.634953, 32.722772], [-95.596615, 32.684434], [-95.448737, 32.355817], [-96.078585, 32.355817], [-96.078585, 32.837788], [-96.062155, 32.837788]]]}}, {"type": "Feature", "properties": {"name": "Washington", "id": "51191", "FIPS": "51191", "FIPS State": 51, "ST": "VA", "County": "Washington County,VA", "State": "Virginia"}, "geometry": {"type": "Polygon", "coordinates": [[[-81.838541, 36.929063], [-81.608509, 36.638785], [-81.646848, 36.6114], [-81.827587, 36.616877], [-82.145249, 36.594969], [-82.145249, 36.671646], [-82.243834, 36.594969], [-82.293127, 36.594969], [-82.331465, 36.709985], [-81.838541, 36.929063]]]}}, {"type": "Feature", "properties": {"name": "Lyon", "id": "20111", "FIPS": "20111", "FIPS State": 20, "ST": "KS", "County": "Lyon County,KS", "State": "Kansas"}, "geometry": {"type": "Polygon", "coordinates": [[[-96.336002, 38.74193], [-95.947139, 38.736453], [-95.952616, 38.435221], [-95.958093, 38.172328], [-96.281232, 38.172328], [-96.357909, 38.172328], [-96.352432, 38.522852], [-96.352432, 38.74193], [-96.336002, 38.74193]]]}}, {"type": "Feature", "properties": {"name": "Custer", "id": "40039", "FIPS": "40039", "FIPS State": 40, "ST": "OK", "County": "Custer County,OK", "State": "Oklahoma"}, "geometry": {"type": "Polygon", "coordinates": [[[-98.817056, 35.811767], [-98.63084, 35.811767], [-98.625363, 35.548874], [-98.625363, 35.466719], [-99.16758, 35.466719], [-99.36475, 35.466719], [-99.36475, 35.510535], [-99.375704, 35.811767], [-98.817056, 35.811767]]]}}, {"type": "Feature", "properties": {"name": "Swain", "id": "37173", "FIPS": "37173", "FIPS State": 37, "ST": "NC", "County": "Swain County,NC", "State": "North Carolina"}, "geometry": {"type": "Polygon", "coordinates": [[[-83.662362, 35.570781], [-83.257068, 35.696751], [-83.185868, 35.516012], [-83.207776, 35.516012], [-83.339222, 35.329796], [-83.678792, 35.280503], [-83.952639, 35.461243], [-83.662362, 35.570781]]]}}, {"type": "Feature", "properties": {"name": "Grady", "id": "40051", "FIPS": "40051", "FIPS State": 40, "ST": "OK", "County": "Grady County,OK", "State": "Oklahoma"}, "geometry": {"type": "Polygon", "coordinates": [[[-98.0941, 35.379088], [-97.672375, 35.335273], [-97.666898, 34.853302], [-97.666898, 34.683517], [-97.995515, 34.683517], [-98.088623, 34.683517], [-98.0941, 34.853302], [-98.0941, 35.379088]]]}}, {"type": "Feature", "properties": {"name": "Fremont", "id": "08043", "FIPS": "08043", "FIPS State": 8, "ST": "CO", "County": "Fremont County,CO", "State": "Colorado"}, "geometry": {"type": "Polygon", "coordinates": [[[-105.329138, 38.698114], [-104.940275, 38.648822], [-104.940275, 38.517375], [-105.049814, 38.259959], [-105.794678, 38.265436], [-106.008278, 38.446175], [-105.96994, 38.692637], [-105.329138, 38.698114]]]}}, {"type": "Feature", "properties": {"name": "Woodford", "id": "21239", "FIPS": "21239", "FIPS State": 21, "ST": "KY", "County": "Woodford County,KY", "State": "Kentucky"}, "geometry": {"type": "Polygon", "coordinates": [[[-84.867289, 38.117559], [-84.724888, 38.194236], [-84.626303, 38.117559], [-84.659165, 38.002543], [-84.708457, 37.860142], [-84.796088, 37.969681], [-84.867289, 38.117559]]]}}, {"type": "Feature", "properties": {"name": "Morgan", "id": "21175", "FIPS": "21175", "FIPS State": 21, "ST": "KY", "County": "Morgan County,KY", "State": "Kentucky"}, "geometry": {"type": "Polygon", "coordinates": [[[-83.355653, 38.068266], [-83.262545, 38.117559], [-83.02156, 38.00802], [-82.988698, 37.964204], [-83.005129, 37.860142], [-83.262545, 37.712265], [-83.492576, 37.860142], [-83.43233, 38.035405], [-83.355653, 38.068266]]]}}, {"type": "Feature", "properties": {"name": "Pontotoc", "id": "40123", "FIPS": "40123", "FIPS State": 40, "ST": "OK", "County": "Pontotoc County,OK", "State": "Oklahoma"}, "geometry": {"type": "Polygon", "coordinates": [[[-96.932988, 34.962841], [-96.774157, 34.902595], [-96.489356, 34.908072], [-96.407202, 34.765671], [-96.511264, 34.502778], [-96.828926, 34.508255], [-96.932988, 34.634225], [-96.932988, 34.853302], [-96.932988, 34.962841]]]}}, {"type": "Feature", "properties": {"name": "Peach", "id": "13225", "FIPS": "13225", "FIPS State": 13, "ST": "GA", "County": "Peach County,GA", "State": "Georgia"}, "geometry": {"type": "Polygon", "coordinates": [[[-83.766424, 32.695388], [-83.7007, 32.689911], [-83.848578, 32.465356], [-84.018363, 32.503695], [-84.007409, 32.520126], [-84.001932, 32.531079], [-83.766424, 32.695388]]]}}, {"type": "Feature", "properties": {"name": "Tipton", "id": "47167", "FIPS": "47167", "FIPS State": 47, "ST": "TN", "County": "Tipton County,TN", "State": "Tennessee"}, "geometry": {"type": "Polygon", "coordinates": [[[-89.643181, 35.647459], [-89.50078, 35.581735], [-89.473395, 35.400996], [-89.550073, 35.400996], [-89.632227, 35.373611], [-89.774627, 35.406473], [-90.075859, 35.384565], [-90.141582, 35.439335], [-89.911551, 35.53792], [-89.643181, 35.647459]]]}}, {"type": "Feature", "properties": {"name": "Escambia", "id": "01053", "FIPS": "01053", "FIPS State": 1, "ST": "AL", "County": "Escambia County,AL", "State": "Alabama"}, "geometry": {"type": "Polygon", "coordinates": [[[-86.948526, 31.260429], [-86.702064, 31.194706], [-86.685633, 30.992059], [-86.784218, 30.997536], [-87.162127, 30.997536], [-87.249758, 30.997536], [-87.600282, 30.997536], [-87.616713, 31.243998], [-87.42502, 31.260429], [-86.948526, 31.260429]]]}}, {"type": "Feature", "properties": {"name": "Polk", "id": "55095", "FIPS": "55095", "FIPS State": 55, "ST": "WI", "County": "Polk County,WI", "State": "Wisconsin"}, "geometry": {"type": "Polygon", "coordinates": [[[-92.529528, 45.730506], [-92.157096, 45.637398], [-92.157096, 45.210196], [-92.650021, 45.210196], [-92.75956, 45.210196], [-92.743129, 45.297827], [-92.885529, 45.642875], [-92.529528, 45.730506]]]}}, {"type": "Feature", "properties": {"name": "Chesterfield", "id": "45025", "FIPS": "45025", "FIPS State": 45, "ST": "SC", "County": "Chesterfield County,SC", "State": "South Carolina"}, "geometry": {"type": "Polygon", "coordinates": [[[-80.562413, 34.814964], [-80.321428, 34.814964], [-79.927088, 34.80401], [-79.828503, 34.530163], [-79.866842, 34.508255], [-80.288566, 34.365854], [-80.387151, 34.595886], [-80.409059, 34.612317], [-80.562413, 34.814964]]]}}, {"type": "Feature", "properties": {"name": "Crittenden", "id": "05035", "FIPS": "05035", "FIPS State": 5, "ST": "AR", "County": "Crittenden County,AR", "State": "Arkansas"}, "geometry": {"type": "Polygon", "coordinates": [[[-90.50306, 35.439335], [-90.289459, 35.439335], [-90.141582, 35.439335], [-90.075859, 35.384565], [-90.311367, 34.995703], [-90.30589, 34.858779], [-90.409952, 34.831394], [-90.409952, 34.902595], [-90.50306, 35.14358], [-90.50306, 35.439335]]]}}, {"type": "Feature", "properties": {"name": "Lassen", "id": "06035", "FIPS": "06035", "FIPS State": 6, "ST": "CA", "County": "Lassen County,CA", "State": "California"}, "geometry": {"type": "Polygon", "coordinates": [[[-120.943895, 41.184645], [-120.001861, 41.184645], [-120.001861, 39.722302], [-120.149738, 39.705871], [-120.209985, 40.08378], [-121.119157, 40.445258], [-121.327281, 40.445258], [-121.332757, 41.184645], [-120.943895, 41.184645]]]}}, {"type": "Feature", "properties": {"name": "Plymouth", "id": "19149", "FIPS": "19149", "FIPS State": 19, "ST": "IA", "County": "Plymouth County,IA", "State": "Iowa"}, "geometry": {"type": "Polygon", "coordinates": [[[-96.17717, 42.909881], [-95.859508, 42.909881], [-95.859508, 42.559357], [-96.50031, 42.559357], [-96.538648, 42.909881], [-96.17717, 42.909881]]]}}, {"type": "Feature", "properties": {"name": "Franklin", "id": "37069", "FIPS": "37069", "FIPS State": 37, "ST": "NC", "County": "Franklin County,NC", "State": "North Carolina"}, "geometry": {"type": "Polygon", "coordinates": [[[-78.163514, 36.249922], [-78.004682, 36.200629], [-78.053975, 36.134906], [-78.256622, 35.817244], [-78.546899, 36.01989], [-78.497607, 36.173245], [-78.305914, 36.266353], [-78.163514, 36.249922]]]}}, {"type": "Feature", "properties": {"name": "Carteret", "id": "37031", "FIPS": "37031", "FIPS State": 37, "ST": "NC", "County": "Carteret County,NC", "State": "North Carolina"}, "geometry": {"type": "Polygon", "coordinates": [[[-77.111941, 34.639701], [-77.16671, 34.787579], [-77.090033, 34.80401], [-76.712124, 34.979272], [-76.646401, 35.01761], [-76.279446, 34.940933], [-76.536862, 34.590409], [-77.111941, 34.639701]]]}}, {"type": "Feature", "properties": {"name": "Inyo", "id": "06027", "FIPS": "06027", "FIPS State": 6, "ST": "CA", "County": "Inyo County,CA", "State": "California"}, "geometry": {"type": "Polygon", "coordinates": [[[-117.937054, 37.465803], [-117.832993, 37.465803], [-117.164806, 36.972878], [-115.899633, 36.00346], [-115.647693, 35.80629], [-117.630346, 35.795336], [-118.008255, 35.789859], [-118.358779, 36.742847], [-118.775026, 37.460326], [-117.937054, 37.465803]]]}}, {"type": "Feature", "properties": {"name": "Polk", "id": "13233", "FIPS": "13233", "FIPS State": 13, "ST": "GA", "County": "Polk County,GA", "State": "Georgia"}, "geometry": {"type": "Polygon", "coordinates": [[[-85.42046, 34.081054], [-85.048028, 34.097484], [-84.922058, 34.081054], [-85.048028, 33.905791], [-85.310921, 33.900315], [-85.387598, 33.900315], [-85.398552, 33.966038], [-85.42046, 34.081054]]]}}, {"type": "Feature", "properties": {"name": "Harvey", "id": "20079", "FIPS": "20079", "FIPS State": 20, "ST": "KS", "County": "Harvey County,KS", "State": "Kansas"}, "geometry": {"type": "Polygon", "coordinates": [[[-97.152066, 38.172328], [-97.152066, 38.090174], [-97.152066, 37.914912], [-97.157543, 37.914912], [-97.69976, 37.914912], [-97.69976, 38.172328], [-97.371143, 38.172328], [-97.152066, 38.172328]]]}}, {"type": "Feature", "properties": {"name": "Mille Lacs", "id": "27095", "FIPS": "27095", "FIPS State": 27, "ST": "MN", "County": "Mille Lacs County,MN", "State": "Minnesota"}, "geometry": {"type": "Polygon", "coordinates": [[[-93.553716, 46.245338], [-93.433223, 46.15223], [-93.515377, 45.735983], [-93.5099, 45.560721], [-93.652301, 45.560721], [-93.76184, 45.560721], [-93.76184, 45.823614], [-93.811132, 46.157707], [-93.794701, 46.245338], [-93.553716, 46.245338]]]}}, {"type": "Feature", "properties": {"name": "Hughes", "id": "46065", "FIPS": "46065", "FIPS State": 46, "ST": "SD", "County": "Hughes County,SD", "State": "South Dakota"}, "geometry": {"type": "Polygon", "coordinates": [[[-99.857674, 44.547487], [-99.676935, 44.547487], [-99.665981, 44.21887], [-99.939828, 44.196962], [-100.525861, 44.547487], [-99.857674, 44.547487]]]}}, {"type": "Feature", "properties": {"name": "Claiborne", "id": "47025", "FIPS": "47025", "FIPS State": 47, "ST": "TN", "County": "Claiborne County,TN", "State": "Tennessee"}, "geometry": {"type": "Polygon", "coordinates": [[[-83.673316, 36.600446], [-83.470669, 36.594969], [-83.388515, 36.41423], [-83.667839, 36.34303], [-83.903347, 36.419707], [-83.985501, 36.589492], [-83.930732, 36.589492], [-83.673316, 36.600446]]]}}, {"type": "Feature", "properties": {"name": "Hancock", "id": "28045", "FIPS": "28045", "FIPS State": 28, "ST": "MS", "County": "Hancock County,MS", "State": "Mississippi"}, "geometry": {"type": "Polygon", "coordinates": [[[-89.495303, 30.647012], [-89.341949, 30.647012], [-89.341949, 30.373165], [-89.522688, 30.181472], [-89.686996, 30.460796], [-89.495303, 30.647012]]]}}, {"type": "Feature", "properties": {"name": "Chaves", "id": "35005", "FIPS": "35005", "FIPS State": 35, "ST": "NM", "County": "Chaves County,NM", "State": "New Mexico"}, "geometry": {"type": "Polygon", "coordinates": [[[-103.877749, 34.081054], [-103.510794, 33.571698], [-103.812025, 32.963758], [-104.102303, 32.963758], [-104.84169, 32.963758], [-104.852644, 32.520126], [-105.356522, 32.520126], [-105.318184, 33.133543], [-104.907413, 33.13902], [-104.890983, 34.08653], [-103.943472, 34.081054], [-103.877749, 34.081054]]]}}, {"type": "Feature", "properties": {"name": "Chambers", "id": "01017", "FIPS": "01017", "FIPS State": 1, "ST": "AL", "County": "Chambers County,AL", "State": "Alabama"}, "geometry": {"type": "Polygon", "coordinates": [[[-85.404029, 33.106158], [-85.234244, 33.106158], [-85.184951, 32.87065], [-85.130182, 32.74468], [-85.184951, 32.74468], [-85.595722, 32.728249], [-85.595722, 33.106158], [-85.404029, 33.106158]]]}}, {"type": "Feature", "properties": {"name": "Cooke", "id": "48097", "FIPS": "48097", "FIPS State": 48, "ST": "TX", "County": "Cooke County,TX", "State": "Texas"}, "geometry": {"type": "Polygon", "coordinates": [[[-96.943942, 33.949607], [-96.943942, 33.418344], [-97.382097, 33.429298], [-97.486159, 33.434775], [-97.486159, 33.916745], [-96.943942, 33.949607]]]}}, {"type": "Feature", "properties": {"name": "Franklin", "id": "23007", "FIPS": "23007", "FIPS State": 23, "ST": "ME", "County": "Franklin County,ME", "State": "Maine"}, "geometry": {"type": "Polygon", "coordinates": [[[-70.550566, 45.670259], [-70.41912, 45.144473], [-69.931672, 44.61321], [-70.128842, 44.48724], [-70.172658, 44.481763], [-70.238381, 44.459856], [-70.769644, 44.733703], [-70.835367, 45.27592], [-70.550566, 45.670259]]]}}, {"type": "Feature", "properties": {"name": "Perry", "id": "47135", "FIPS": "47135", "FIPS State": 47, "ST": "TN", "County": "Perry County,TN", "State": "Tennessee"}, "geometry": {"type": "Polygon", "coordinates": [[[-87.720774, 35.795336], [-87.660528, 35.60912], [-87.715298, 35.48315], [-87.956283, 35.461243], [-88.005575, 35.422904], [-87.972714, 35.817244], [-87.96176, 35.839151], [-87.715298, 35.839151], [-87.720774, 35.795336]]]}}, {"type": "Feature", "properties": {"name": "Washington", "id": "40147", "FIPS": "40147", "FIPS State": 40, "ST": "OK", "County": "Washington County,OK", "State": "Oklahoma"}, "geometry": {"type": "Polygon", "coordinates": [[[-95.9088, 37.000263], [-95.788308, 37.000263], [-95.810215, 36.594969], [-95.810215, 36.425184], [-95.919754, 36.425184], [-96.001908, 36.425184], [-96.001908, 37.000263], [-95.96357, 37.000263], [-95.9088, 37.000263]]]}}, {"type": "Feature", "properties": {"name": "Thomas", "id": "13275", "FIPS": "13275", "FIPS State": 13, "ST": "GA", "County": "Thomas County,GA", "State": "Georgia"}, "geometry": {"type": "Polygon", "coordinates": [[[-84.100517, 31.07969], [-84.001932, 31.07969], [-83.739039, 31.035875], [-83.744516, 30.657966], [-84.007409, 30.674397], [-84.084086, 30.674397], [-84.116948, 31.07969], [-84.100517, 31.07969]]]}}, {"type": "Feature", "properties": {"name": "Reno", "id": "20155", "FIPS": "20155", "FIPS State": 20, "ST": "KS", "County": "Reno County,KS", "State": "Kansas"}, "geometry": {"type": "Polygon", "coordinates": [[[-97.929791, 38.172328], [-97.924314, 38.172328], [-97.69976, 38.172328], [-97.69976, 37.914912], [-97.809299, 37.734173], [-97.918837, 37.734173], [-98.466531, 37.734173], [-98.472008, 37.827281], [-98.472008, 38.172328], [-97.929791, 38.172328]]]}}, {"type": "Feature", "properties": {"name": "Williams", "id": "39171", "FIPS": "39171", "FIPS State": 39, "ST": "OH", "County": "Williams County,OH", "State": "Ohio"}, "geometry": {"type": "Polygon", "coordinates": [[[-84.401749, 41.704955], [-84.341502, 41.485877], [-84.341502, 41.425631], [-84.801565, 41.425631], [-84.807042, 41.529692], [-84.807042, 41.694001], [-84.401749, 41.704955]]]}}, {"type": "Feature", "properties": {"name": "Montour", "id": "42093", "FIPS": "42093", "FIPS State": 42, "ST": "PA", "County": "Montour County,PA", "State": "Pennsylvania"}, "geometry": {"type": "Polygon", "coordinates": [[[-76.734032, 41.173691], [-76.640924, 41.157261], [-76.525908, 40.883413], [-76.734032, 41.173691]]]}}, {"type": "Feature", "properties": {"name": "Wilson", "id": "48493", "FIPS": "48493", "FIPS State": 48, "ST": "TX", "County": "Wilson County,TX", "State": "Texas"}, "geometry": {"type": "Polygon", "coordinates": [[[-98.285792, 29.255869], [-98.132438, 29.442085], [-97.84216, 29.376362], [-97.727145, 29.223007], [-98.192684, 28.883437], [-98.406285, 29.113469], [-98.285792, 29.255869]]]}}, {"type": "Feature", "properties": {"name": "Stokes", "id": "37169", "FIPS": "37169", "FIPS State": 37, "ST": "NC", "County": "Stokes County,NC", "State": "North Carolina"}, "geometry": {"type": "Polygon", "coordinates": [[[-80.441921, 36.551154], [-80.053058, 36.5402], [-80.025673, 36.5402], [-80.036627, 36.255399], [-80.036627, 36.255399], [-80.452875, 36.260876], [-80.441921, 36.551154]]]}}, {"type": "Feature", "properties": {"name": "Caldwell", "id": "48055", "FIPS": "48055", "FIPS State": 48, "ST": "TX", "County": "Caldwell County,TX", "State": "Texas"}, "geometry": {"type": "Polygon", "coordinates": [[[-97.666898, 30.066456], [-97.650467, 30.071933], [-97.316374, 29.787132], [-97.316374, 29.787132], [-97.634037, 29.650209], [-97.798345, 29.754271], [-97.875022, 29.858333], [-97.710714, 30.022641], [-97.666898, 30.066456]]]}}, {"type": "Feature", "properties": {"name": "Natchitoches", "id": "22069", "FIPS": "22069", "FIPS State": 22, "ST": "LA", "County": "Natchitoches County,LA", "State": "Louisiana"}, "geometry": {"type": "Polygon", "coordinates": [[[-93.131992, 32.147694], [-92.940299, 32.147694], [-92.97316, 31.709538], [-92.721221, 31.517845], [-92.984114, 31.34806], [-93.236053, 31.364491], [-93.4387, 31.846462], [-93.356546, 31.934093], [-93.186761, 32.147694], [-93.131992, 32.147694]]]}}, {"type": "Feature", "properties": {"name": "Pearl River", "id": "28109", "FIPS": "28109", "FIPS State": 28, "ST": "MS", "County": "Pearl River County,MS", "State": "Mississippi"}, "geometry": {"type": "Polygon", "coordinates": [[[-89.599365, 31.003013], [-89.347426, 31.00849], [-89.341949, 30.909905], [-89.341949, 30.647012], [-89.495303, 30.647012], [-89.686996, 30.460796], [-89.84035, 30.663443], [-89.730812, 31.003013], [-89.654134, 31.003013], [-89.599365, 31.003013]]]}}, {"type": "Feature", "properties": {"name": "Defiance", "id": "39039", "FIPS": "39039", "FIPS State": 39, "ST": "OH", "County": "Defiance County,OH", "State": "Ohio"}, "geometry": {"type": "Polygon", "coordinates": [[[-84.270302, 41.425631], [-84.226487, 41.168214], [-84.341502, 41.162737], [-84.577011, 41.250368], [-84.801565, 41.250368], [-84.801565, 41.272276], [-84.801565, 41.425631], [-84.341502, 41.425631], [-84.270302, 41.425631]]]}}, {"type": "Feature", "properties": {"name": "Pettis", "id": "29159", "FIPS": "29159", "FIPS State": 29, "ST": "MO", "County": "Pettis County,MO", "State": "Missouri"}, "geometry": {"type": "Polygon", "coordinates": [[[-93.498947, 38.944577], [-93.049837, 38.928146], [-93.060791, 38.692637], [-93.066268, 38.528329], [-93.159376, 38.533806], [-93.515377, 38.511898], [-93.5099, 38.555714], [-93.498947, 38.928146], [-93.498947, 38.944577]]]}}, {"type": "Feature", "properties": {"name": "Blaine", "id": "16013", "FIPS": "16013", "FIPS State": 16, "ST": "ID", "County": "Blaine County,ID", "State": "Idaho"}, "geometry": {"type": "Polygon", "coordinates": [[[-114.656367, 43.917638], [-113.796488, 43.567114], [-113.007808, 43.282313], [-113.007808, 43.112528], [-113.23784, 42.625081], [-113.473348, 42.668896], [-113.413102, 43.200159], [-113.714333, 43.200159], [-114.377043, 43.200159], [-114.716614, 43.813577], [-114.990461, 43.857392], [-114.968553, 43.939546], [-114.656367, 43.917638]]]}}, {"type": "Feature", "properties": {"name": "Curry", "id": "35009", "FIPS": "35009", "FIPS State": 35, "ST": "NM", "County": "Curry County,NM", "State": "New Mexico"}, "geometry": {"type": "Polygon", "coordinates": [[[-103.264331, 34.951887], [-103.045254, 34.951887], [-103.045254, 34.74924], [-103.045254, 34.311085], [-103.045254, 34.300131], [-103.740825, 34.305608], [-103.740825, 34.60684], [-103.264331, 34.951887]]]}}, {"type": "Feature", "properties": {"name": "Callaway", "id": "29027", "FIPS": "29027", "FIPS State": 29, "ST": "MO", "County": "Callaway County,MO", "State": "Missouri"}, "geometry": {"type": "Polygon", "coordinates": [[[-92.107804, 39.065069], [-91.63131, 39.059592], [-91.647741, 38.703591], [-92.009219, 38.572145], [-92.222819, 38.643345], [-92.107804, 39.065069]]]}}, {"type": "Feature", "properties": {"name": "Jefferson", "id": "47089", "FIPS": "47089", "FIPS State": 47, "ST": "TN", "County": "Jefferson County,TN", "State": "Tennessee"}, "geometry": {"type": "Polygon", "coordinates": [[[-83.602115, 36.151337], [-83.465192, 36.173245], [-83.23516, 36.085614], [-83.311837, 35.893921], [-83.673316, 36.036321], [-83.667839, 36.080137], [-83.602115, 36.151337]]]}}, {"type": "Feature", "properties": {"name": "Yates", "id": "36123", "FIPS": "36123", "FIPS State": 36, "ST": "NY", "County": "Yates County,NY", "State": "New York"}, "geometry": {"type": "Polygon", "coordinates": [[[-76.975017, 42.762004], [-76.892863, 42.542926], [-77.106464, 42.48268], [-77.36388, 42.575788], [-76.975017, 42.762004]]]}}, {"type": "Feature", "properties": {"name": "Lincoln", "id": "47103", "FIPS": "47103", "FIPS State": 47, "ST": "TN", "County": "Lincoln County,TN", "State": "Tennessee"}, "geometry": {"type": "Polygon", "coordinates": [[[-86.598002, 35.362658], [-86.526801, 35.357181], [-86.318678, 35.127149], [-86.318678, 34.990226], [-86.784218, 34.990226], [-86.838987, 34.990226], [-86.828033, 35.264073], [-86.598002, 35.362658]]]}}, {"type": "Feature", "properties": {"name": "Churchill", "id": "32001", "FIPS": "32001", "FIPS State": 32, "ST": "NV", "County": "Churchill County,NV", "State": "Nevada"}, "geometry": {"type": "Polygon", "coordinates": [[[-117.948008, 40.001626], [-117.542715, 40.001626], [-117.493422, 39.530609], [-117.772746, 39.092454], [-117.865854, 39.076023], [-118.753119, 39.076023], [-119.191274, 39.629194], [-119.224135, 40.001626], [-117.948008, 40.001626]]]}}]}