{"type": "FeatureCollection", "crs": {"type": "name", "properties": {"name": "urn:ogc:def:crs:OGC:1.3:CRS84"}}, "features": [{"type": "Feature", "properties": {"name": "Lamb", "id": "48279", "FIPS": "48279", "FIPS State": 48, "ST": "TX", "County": "Lamb County,TX", "State": "Texas"}, "geometry": {"type": "Polygon", "coordinates": [[[-102.327774, 34.311085], [-102.092266, 34.311085], [-102.086789, 33.823637], [-102.618052, 33.823637], [-102.612575, 34.311085], [-102.524944, 34.311085], [-102.327774, 34.311085]]]}}, {"type": "Feature", "properties": {"name": "Trousdale", "id": "47169", "FIPS": "47169", "FIPS State": 47, "ST": "TN", "County": "Trousdale County,TN", "State": "Tennessee"}, "geometry": {"type": "Polygon", "coordinates": [[[-86.231047, 36.48543], [-85.979107, 36.425184], [-86.137939, 36.293737], [-86.285816, 36.348507], [-86.231047, 36.48543]]]}}, {"type": "Feature", "properties": {"name": "Owen", "id": "21187", "FIPS": "21187", "FIPS State": 21, "ST": "KY", "County": "Owen County,KY", "State": "Kentucky"}, "geometry": {"type": "Polygon", "coordinates": [[[-84.817996, 38.709068], [-84.785134, 38.720022], [-84.582488, 38.47356], [-84.741319, 38.353067], [-84.861812, 38.358544], [-84.872765, 38.358544], [-85.075412, 38.599529], [-84.933012, 38.659776], [-84.817996, 38.709068]]]}}, {"type": "Feature", "properties": {"name": "Cheyenne", "id": "20023", "FIPS": "20023", "FIPS State": 20, "ST": "KS", "County": "Cheyenne County,KS", "State": "Kansas"}, "geometry": {"type": "Polygon", "coordinates": [[[-101.90605, 40.001626], [-101.413125, 40.001626], [-101.413125, 39.568948], [-102.004635, 39.568948], [-102.04845, 39.568948], [-102.04845, 39.574425], [-102.053927, 40.001626], [-101.90605, 40.001626]]]}}, {"type": "Feature", "properties": {"name": "Wayne", "id": "49055", "FIPS": "49055", "FIPS State": 49, "ST": "UT", "County": "Wayne County,UT", "State": "Utah"}, "geometry": {"type": "Polygon", "coordinates": [[[-111.764543, 38.500944], [-111.30448, 38.511898], [-110.022876, 38.500944], [-109.929768, 38.15042], [-111.84122, 38.15042], [-111.764543, 38.500944]]]}}, {"type": "Feature", "properties": {"name": "Hidalgo", "id": "35023", "FIPS": "35023", "FIPS State": 35, "ST": "NM", "County": "Hidalgo County,NM", "State": "New Mexico"}, "geometry": {"type": "Polygon", "coordinates": [[[-109.04798, 32.777542], [-108.538625, 32.514649], [-108.522194, 31.862893], [-108.215485, 31.862893], [-108.210008, 31.786216], [-108.210008, 31.331629], [-109.04798, 31.331629], [-109.04798, 32.427018], [-109.04798, 32.777542]]]}}, {"type": "Feature", "properties": {"name": "Charles City", "id": "51036", "FIPS": "51036", "FIPS State": 51, "ST": "VA", "County": "Charles City County,VA", "State": "Virginia"}, "geometry": {"type": "Polygon", "coordinates": [[[-77.040741, 37.427464], [-76.903817, 37.378172], [-76.881909, 37.224817], [-76.975017, 37.246725], [-77.270772, 37.323402], [-77.248864, 37.383649], [-77.177664, 37.493187], [-77.040741, 37.427464]]]}}, {"type": "Feature", "properties": {"name": "West Carroll", "id": "22123", "FIPS": "22123", "FIPS State": 22, "ST": "LA", "County": "West Carroll County,LA", "State": "Louisiana"}, "geometry": {"type": "Polygon", "coordinates": [[[-91.30817, 33.007573], [-91.264355, 33.007573], [-91.445094, 32.580372], [-91.598448, 32.668003], [-91.636787, 32.668003], [-91.43414, 33.007573], [-91.30817, 33.007573]]]}}, {"type": "Feature", "properties": {"name": "Sabine", "id": "48403", "FIPS": "48403", "FIPS State": 48, "ST": "TX", "County": "Sabine County,TX", "State": "Texas"}, "geometry": {"type": "Polygon", "coordinates": [[[-93.843994, 31.589046], [-93.83304, 31.583569], [-93.603008, 31.178275], [-93.909717, 31.156367], [-93.997348, 31.139937], [-94.041164, 31.13446], [-93.986394, 31.567138], [-93.843994, 31.589046]]]}}, {"type": "Feature", "properties": {"name": "Scotland", "id": "29199", "FIPS": "29199", "FIPS State": 29, "ST": "MO", "County": "Scotland County,MO", "State": "Missouri"}, "geometry": {"type": "Polygon", "coordinates": [[[-91.943495, 40.60409], [-91.948972, 40.302858], [-92.140665, 40.302858], [-92.348789, 40.302858], [-92.348789, 40.346673], [-92.348789, 40.598613], [-92.179004, 40.598613], [-91.943495, 40.60409]]]}}, {"type": "Feature", "properties": {"name": "Cass", "id": "48067", "FIPS": "48067", "FIPS State": 48, "ST": "TX", "County": "Cass County,TX", "State": "Texas"}, "geometry": {"type": "Polygon", "coordinates": [[[-94.194518, 33.297851], [-94.041164, 33.270466], [-94.041164, 33.018527], [-94.041164, 32.881604], [-94.249287, 32.881604], [-94.654581, 32.881604], [-94.654581, 33.270466], [-94.194518, 33.297851]]]}}, {"type": "Feature", "properties": {"name": "Granite", "id": "30039", "FIPS": "30039", "FIPS State": 30, "ST": "MT", "County": "Granite County,MT", "State": "Montana"}, "geometry": {"type": "Polygon", "coordinates": [[[-113.303563, 46.831371], [-113.035193, 46.267246], [-113.517164, 45.938629], [-113.801964, 46.037214], [-113.829349, 46.661586], [-113.303563, 46.831371]]]}}, {"type": "Feature", "properties": {"name": "George", "id": "28039", "FIPS": "28039", "FIPS State": 28, "ST": "MS", "County": "George County,MS", "State": "Mississippi"}, "geometry": {"type": "Polygon", "coordinates": [[[-88.679239, 30.997536], [-88.4273, 30.997536], [-88.410869, 30.734643], [-88.865455, 30.734643], [-88.881886, 30.734643], [-88.887363, 30.909905], [-88.832593, 30.997536], [-88.679239, 30.997536]]]}}, {"type": "Feature", "properties": {"name": "Mineral", "id": "08079", "FIPS": "08079", "FIPS State": 8, "ST": "CO", "County": "Mineral County,CO", "State": "Colorado"}, "geometry": {"type": "Polygon", "coordinates": [[[-107.103666, 37.95325], [-106.999605, 37.958727], [-106.692896, 37.832758], [-106.709327, 37.405556], [-107.131051, 37.421987], [-107.103666, 37.95325]]]}}, {"type": "Feature", "properties": {"name": "Lincoln", "id": "05079", "FIPS": "05079", "FIPS State": 5, "ST": "AR", "County": "Lincoln County,AR", "State": "Arkansas"}, "geometry": {"type": "Polygon", "coordinates": [[[-91.603925, 34.113915], [-91.445094, 34.081054], [-91.423186, 34.01533], [-91.56011, 33.785299], [-91.664172, 33.790776], [-91.976357, 33.790776], [-91.954449, 34.064623], [-91.603925, 34.113915]]]}}, {"type": "Feature", "properties": {"name": "Noble", "id": "40103", "FIPS": "40103", "FIPS State": 40, "ST": "OK", "County": "Noble County,OK", "State": "Oklahoma"}, "geometry": {"type": "Polygon", "coordinates": [[[-97.464251, 36.594969], [-97.058958, 36.594969], [-97.009665, 36.507338], [-96.927511, 36.244445], [-97.031573, 36.244445], [-97.354713, 36.156814], [-97.458774, 36.162291], [-97.464251, 36.594969]]]}}, {"type": "Feature", "properties": {"name": "Mills", "id": "48333", "FIPS": "48333", "FIPS State": 48, "ST": "TX", "County": "Mills County,TX", "State": "Texas"}, "geometry": {"type": "Polygon", "coordinates": [[[-98.669178, 31.698584], [-98.461055, 31.682154], [-98.269362, 31.413784], [-98.565116, 31.233045], [-98.992318, 31.484984], [-98.669178, 31.698584]]]}}, {"type": "Feature", "properties": {"name": "Madison", "id": "51113", "FIPS": "51113", "FIPS State": 51, "ST": "VA", "County": "Madison County,VA", "State": "Virginia"}, "geometry": {"type": "Polygon", "coordinates": [[[-78.448314, 38.500944], [-78.338776, 38.626914], [-78.229237, 38.533806], [-78.092313, 38.309252], [-78.289483, 38.270913], [-78.453791, 38.47356], [-78.448314, 38.500944]]]}}, {"type": "Feature", "properties": {"name": "Butler", "id": "21031", "FIPS": "21031", "FIPS State": 21, "ST": "KY", "County": "Butler County,KY", "State": "Kentucky"}, "geometry": {"type": "Polygon", "coordinates": [[[-86.614433, 37.394602], [-86.466555, 37.323402], [-86.400832, 37.170048], [-86.674679, 37.000263], [-86.943049, 37.071463], [-86.899233, 37.213863], [-86.614433, 37.394602]]]}}, {"type": "Feature", "properties": {"name": "Washington", "id": "13303", "FIPS": "13303", "FIPS State": 13, "ST": "GA", "County": "Washington County,GA", "State": "Georgia"}, "geometry": {"type": "Polygon", "coordinates": [[[-82.747713, 33.237605], [-82.660082, 33.128066], [-82.523158, 32.821357], [-82.944882, 32.761111], [-83.076329, 32.947327], [-83.054421, 33.078773], [-82.747713, 33.237605]]]}}, {"type": "Feature", "properties": {"name": "Brule", "id": "46015", "FIPS": "46015", "FIPS State": 46, "ST": "SD", "County": "Brule County,SD", "State": "South Dakota"}, "geometry": {"type": "Polygon", "coordinates": [[[-98.806102, 43.934069], [-98.795148, 43.501391], [-99.299026, 43.501391], [-99.353796, 43.934069], [-98.926594, 43.934069], [-98.806102, 43.934069]]]}}, {"type": "Feature", "properties": {"name": "Sumter", "id": "01119", "FIPS": "01119", "FIPS State": 1, "ST": "AL", "County": "Sumter County,AL", "State": "Alabama"}, "geometry": {"type": "Polygon", "coordinates": [[[-88.339669, 32.991142], [-88.169884, 32.996619], [-87.852221, 32.531079], [-87.928898, 32.312002], [-87.994621, 32.312002], [-88.421823, 32.306525], [-88.388961, 32.580372], [-88.345146, 32.930896], [-88.339669, 32.991142]]]}}, {"type": "Feature", "properties": {"name": "Edgefield", "id": "45037", "FIPS": "45037", "FIPS State": 45, "ST": "SC", "County": "Edgefield County,SC", "State": "South Carolina"}, "geometry": {"type": "Polygon", "coordinates": [[[-82.008326, 33.960561], [-81.652325, 33.812683], [-82.013803, 33.53336], [-82.030233, 33.544313], [-82.117864, 33.599083], [-82.046664, 33.955084], [-82.008326, 33.960561]]]}}, {"type": "Feature", "properties": {"name": "Lamar", "id": "13171", "FIPS": "13171", "FIPS State": 13, "ST": "GA", "County": "Lamar County,GA", "State": "Georgia"}, "geometry": {"type": "Polygon", "coordinates": [[[-84.040271, 33.204743], [-84.122425, 32.930896], [-84.270302, 32.991142], [-84.248394, 33.188312], [-84.122425, 33.204743], [-84.040271, 33.204743]]]}}, {"type": "Feature", "properties": {"name": "Linn", "id": "20107", "FIPS": "20107", "FIPS State": 20, "ST": "KS", "County": "Linn County,KS", "State": "Kansas"}, "geometry": {"type": "Polygon", "coordinates": [[[-95.010582, 38.391406], [-94.610765, 38.391406], [-94.616242, 38.062789], [-94.616242, 38.035405], [-94.933905, 38.035405], [-95.076305, 38.035405], [-95.065351, 38.391406], [-95.010582, 38.391406]]]}}, {"type": "Feature", "properties": {"name": "Daviess", "id": "29061", "FIPS": "29061", "FIPS State": 29, "ST": "MO", "County": "Daviess County,MO", "State": "Missouri"}, "geometry": {"type": "Polygon", "coordinates": [[[-94.216426, 40.13855], [-93.76184, 40.133073], [-93.76184, 39.957811], [-93.756363, 39.782548], [-93.871378, 39.788025], [-94.205472, 39.788025], [-94.216426, 40.034488], [-94.216426, 40.13855]]]}}, {"type": "Feature", "properties": {"name": "Boise", "id": "16015", "FIPS": "16015", "FIPS State": 16, "ST": "ID", "County": "Boise County,ID", "State": "Idaho"}, "geometry": {"type": "Polygon", "coordinates": [[[-115.680555, 44.235301], [-115.297169, 44.339363], [-114.990461, 43.9505], [-115.1712, 44.087424], [-115.97631, 43.589022], [-116.283018, 43.8081], [-116.211818, 44.153147], [-115.680555, 44.235301]]]}}, {"type": "Feature", "properties": {"name": "Grant", "id": "40053", "FIPS": "40053", "FIPS State": 40, "ST": "OK", "County": "Grant County,OK", "State": "Oklahoma"}, "geometry": {"type": "Polygon", "coordinates": [[[-97.650467, 37.000263], [-97.464251, 37.000263], [-97.464251, 36.594969], [-97.984561, 36.594969], [-98.105053, 36.594969], [-98.11053, 37.000263], [-97.803822, 37.000263], [-97.650467, 37.000263]]]}}, {"type": "Feature", "properties": {"name": "Piute", "id": "49031", "FIPS": "49031", "FIPS State": 49, "ST": "UT", "County": "Piute County,UT", "State": "Utah"}, "geometry": {"type": "Polygon", "coordinates": [[[-111.857651, 38.500944], [-111.764543, 38.500944], [-111.84122, 38.15042], [-112.443683, 38.15042], [-112.52036, 38.511898], [-111.857651, 38.500944]]]}}, {"type": "Feature", "properties": {"name": "Perquimans", "id": "37143", "FIPS": "37143", "FIPS State": 37, "ST": "NC", "County": "Perquimans County,NC", "State": "North Carolina"}, "geometry": {"type": "Polygon", "coordinates": [[[-76.454708, 36.375892], [-76.191815, 36.118475], [-76.410893, 36.07466], [-76.55877, 36.353984], [-76.454708, 36.375892]]]}}, {"type": "Feature", "properties": {"name": "Musselshell", "id": "30065", "FIPS": "30065", "FIPS State": 30, "ST": "MT", "County": "Musselshell County,MT", "State": "Montana"}, "geometry": {"type": "Polygon", "coordinates": [[[-107.837576, 46.754694], [-107.826623, 46.754694], [-107.782807, 46.497277], [-108.77961, 46.130322], [-109.009642, 46.749217], [-108.631733, 46.749217], [-107.837576, 46.754694]]]}}, {"type": "Feature", "properties": {"name": "Maries", "id": "29125", "FIPS": "29125", "FIPS State": 29, "ST": "MO", "County": "Maries County,MO", "State": "Missouri"}, "geometry": {"type": "Polygon", "coordinates": [[[-91.954449, 38.287344], [-91.642264, 38.287344], [-91.63131, 38.155897], [-92.020173, 38.00802], [-92.184481, 38.018974], [-92.195435, 38.292821], [-91.954449, 38.287344]]]}}, {"type": "Feature", "properties": {"name": "Marshall", "id": "17123", "FIPS": "17123", "FIPS State": 17, "ST": "IL", "County": "Marshall County,IL", "State": "Illinois"}, "geometry": {"type": "Polygon", "coordinates": [[[-89.522688, 41.146307], [-89.467918, 41.146307], [-89.16121, 41.102491], [-89.046194, 40.927229], [-89.111917, 40.927229], [-89.473395, 40.921752], [-89.637704, 40.976521], [-89.637704, 41.146307], [-89.522688, 41.146307]]]}}, {"type": "Feature", "properties": {"name": "Mississippi", "id": "29133", "FIPS": "29133", "FIPS State": 29, "ST": "MO", "County": "Mississippi County,MO", "State": "Missouri"}, "geometry": {"type": "Polygon", "coordinates": [[[-89.314564, 37.011217], [-89.133825, 36.983832], [-89.100963, 36.945493], [-89.122871, 36.786662], [-89.172164, 36.649739], [-89.325518, 36.633308], [-89.517211, 36.868816], [-89.314564, 37.011217]]]}}, {"type": "Feature", "properties": {"name": "Appling", "id": "13001", "FIPS": "13001", "FIPS State": 13, "ST": "GA", "County": "Appling County,GA", "State": "Georgia"}, "geometry": {"type": "Polygon", "coordinates": [[[-82.43005, 31.966955], [-82.227403, 31.912185], [-82.046664, 31.824554], [-82.134295, 31.632861], [-82.134295, 31.468553], [-82.227403, 31.528799], [-82.523158, 31.709538], [-82.43005, 31.966955]]]}}, {"type": "Feature", "properties": {"name": "Allendale", "id": "45005", "FIPS": "45005", "FIPS State": 45, "ST": "SC", "County": "Allendale County,SC", "State": "South Carolina"}, "geometry": {"type": "Polygon", "coordinates": [[[-81.613986, 33.095204], [-81.192262, 33.117112], [-81.082723, 33.024004], [-81.411339, 32.74468], [-81.542786, 33.045912], [-81.613986, 33.095204]]]}}, {"type": "Feature", "properties": {"name": "Lewis", "id": "29111", "FIPS": "29111", "FIPS State": 29, "ST": "MO", "County": "Lewis County,MO", "State": "Missouri"}, "geometry": {"type": "Polygon", "coordinates": [[[-91.948972, 40.259042], [-91.499863, 40.248088], [-91.50534, 40.198796], [-91.43414, 39.946857], [-91.784664, 39.946857], [-91.839434, 39.946857], [-91.954449, 39.946857], [-91.948972, 40.259042]]]}}, {"type": "Feature", "properties": {"name": "Red River", "id": "48387", "FIPS": "48387", "FIPS State": 48, "ST": "TX", "County": "Red River County,TX", "State": "Texas"}, "geometry": {"type": "Polygon", "coordinates": [[[-95.158459, 33.938653], [-94.736735, 33.703145], [-94.747689, 33.330713], [-94.807935, 33.363574], [-95.125598, 33.390959], [-95.306337, 33.380005], [-95.306337, 33.380005], [-95.311814, 33.878407], [-95.158459, 33.938653]]]}}, {"type": "Feature", "properties": {"name": "Washington", "id": "20201", "FIPS": "20201", "FIPS State": 20, "ST": "KS", "County": "Washington County,KS", "State": "Kansas"}, "geometry": {"type": "Polygon", "coordinates": [[[-97.349236, 40.001626], [-96.916557, 40.001626], [-96.807019, 40.001626], [-96.807019, 39.568948], [-96.960373, 39.568948], [-97.299943, 39.568948], [-97.371143, 39.568948], [-97.371143, 39.656579], [-97.371143, 40.001626], [-97.349236, 40.001626]]]}}, {"type": "Feature", "properties": {"name": "San Augustine", "id": "48405", "FIPS": "48405", "FIPS State": 48, "ST": "TX", "County": "San Augustine County,TX", "State": "Texas"}, "geometry": {"type": "Polygon", "coordinates": [[[-94.002825, 31.578092], [-93.986394, 31.567138], [-94.041164, 31.13446], [-94.128795, 31.101598], [-94.325965, 31.222091], [-94.397165, 31.654769], [-94.002825, 31.578092]]]}}, {"type": "Feature", "properties": {"name": "Stanley", "id": "46117", "FIPS": "46117", "FIPS State": 46, "ST": "SD", "County": "Stanley County,SD", "State": "South Dakota"}, "geometry": {"type": "Polygon", "coordinates": [[[-100.717554, 44.772041], [-100.525861, 44.547487], [-99.939828, 44.196962], [-100.224629, 44.196962], [-100.36703, 44.169578], [-101.013309, 44.169578], [-101.04617, 44.169578], [-101.139278, 44.744656], [-100.717554, 44.772041]]]}}, {"type": "Feature", "properties": {"name": "Montgomery", "id": "05097", "FIPS": "05097", "FIPS State": 5, "ST": "AR", "County": "Montgomery County,AR", "State": "Arkansas"}, "geometry": {"type": "Polygon", "coordinates": [[[-93.570147, 34.743763], [-93.394885, 34.743763], [-93.405839, 34.398716], [-93.405839, 34.33847], [-93.477039, 34.33847], [-93.750886, 34.349424], [-93.937102, 34.349424], [-93.931625, 34.667086], [-93.712547, 34.743763], [-93.570147, 34.743763]]]}}, {"type": "Feature", "properties": {"name": "Hardin", "id": "17069", "FIPS": "17069", "FIPS State": 17, "ST": "IL", "County": "Hardin County,IL", "State": "Illinois"}, "geometry": {"type": "Polygon", "coordinates": [[[-88.378007, 37.597249], [-88.131545, 37.575342], [-88.060345, 37.504141], [-88.3561, 37.405556], [-88.361576, 37.405556], [-88.416346, 37.421987], [-88.410869, 37.597249], [-88.378007, 37.597249]]]}}, {"type": "Feature", "properties": {"name": "Brown", "id": "17009", "FIPS": "17009", "FIPS State": 17, "ST": "IL", "County": "Brown County,IL", "State": "Illinois"}, "geometry": {"type": "Polygon", "coordinates": [[[-90.913831, 40.105688], [-90.514014, 39.985195], [-90.585214, 39.875656], [-90.57426, 39.837318], [-90.919308, 39.842795], [-90.913831, 40.105688]]]}}, {"type": "Feature", "properties": {"name": "Lunenburg", "id": "51111", "FIPS": "51111", "FIPS State": 51, "ST": "VA", "County": "Lunenburg County,VA", "State": "Virginia"}, "geometry": {"type": "Polygon", "coordinates": [[[-78.399022, 37.087894], [-78.240191, 37.120755], [-78.004682, 37.022171], [-78.02659, 36.775708], [-78.475699, 36.885247], [-78.49213, 36.890724], [-78.442837, 37.07694], [-78.399022, 37.087894]]]}}, {"type": "Feature", "properties": {"name": "Jefferson", "id": "12065", "FIPS": "12065", "FIPS State": 12, "ST": "FL", "County": "Jefferson County,FL", "State": "Florida"}, "geometry": {"type": "Polygon", "coordinates": [[[-83.744516, 30.657966], [-83.613069, 30.652489], [-83.821193, 30.301965], [-83.990978, 30.082887], [-84.078609, 30.093841], [-84.073132, 30.27458], [-84.007409, 30.674397], [-83.744516, 30.657966]]]}}, {"type": "Feature", "properties": {"name": "Pawnee", "id": "20145", "FIPS": "20145", "FIPS State": 20, "ST": "KS", "County": "Pawnee County,KS", "State": "Kansas"}, "geometry": {"type": "Polygon", "coordinates": [[[-99.359273, 38.34759], [-99.030656, 38.34759], [-98.910164, 38.259959], [-99.019702, 38.002543], [-99.348319, 38.002543], [-99.567396, 38.084697], [-99.57835, 38.259959], [-99.583827, 38.259959], [-99.583827, 38.34759], [-99.359273, 38.34759]]]}}, {"type": "Feature", "properties": {"name": "Evans", "id": "13109", "FIPS": "13109", "FIPS State": 13, "ST": "GA", "County": "Evans County,GA", "State": "Georgia"}, "geometry": {"type": "Polygon", "coordinates": [[[-82.024756, 32.27914], [-81.969987, 32.268186], [-81.783771, 32.153171], [-81.718048, 32.087447], [-81.761863, 32.049109], [-82.024756, 32.27914]]]}}, {"type": "Feature", "properties": {"name": "Atchison", "id": "29005", "FIPS": "29005", "FIPS State": 29, "ST": "MO", "County": "Atchison County,MO", "State": "Missouri"}, "geometry": {"type": "Polygon", "coordinates": [[[-95.7664, 40.587659], [-95.37206, 40.582182], [-95.202275, 40.576705], [-95.180367, 40.264519], [-95.503507, 40.264519], [-95.552799, 40.264519], [-95.71163, 40.521935], [-95.7664, 40.587659]]]}}, {"type": "Feature", "properties": {"name": "Dundy", "id": "31057", "FIPS": "31057", "FIPS State": 31, "ST": "NE", "County": "Dundy County,NE", "State": "Nebraska"}, "geometry": {"type": "Polygon", "coordinates": [[[-101.325494, 40.35215], [-101.325494, 40.35215], [-101.325494, 40.001626], [-101.413125, 40.001626], [-101.90605, 40.001626], [-102.053927, 40.001626], [-102.053927, 40.346673], [-101.341925, 40.35215], [-101.325494, 40.35215]]]}}, {"type": "Feature", "properties": {"name": "Dawson", "id": "48115", "FIPS": "48115", "FIPS State": 48, "ST": "TX", "County": "Dawson County,TX", "State": "Texas"}, "geometry": {"type": "Polygon", "coordinates": [[[-101.692449, 32.963758], [-101.686972, 32.525602], [-102.201805, 32.525602], [-102.207282, 32.958281], [-102.075835, 32.958281], [-101.692449, 32.963758]]]}}, {"type": "Feature", "properties": {"name": "Lake", "id": "26085", "FIPS": "26085", "FIPS State": 26, "ST": "MI", "County": "Lake County,MI", "State": "Michigan"}, "geometry": {"type": "Polygon", "coordinates": [[[-86.044831, 44.169578], [-85.820276, 44.164101], [-85.56286, 44.164101], [-85.56286, 43.813577], [-85.63406, 43.813577], [-86.039354, 43.813577], [-86.044831, 44.169578]]]}}, {"type": "Feature", "properties": {"name": "Zavala", "id": "48507", "FIPS": "48507", "FIPS State": 48, "ST": "TX", "County": "Zavala County,TX", "State": "Texas"}, "geometry": {"type": "Polygon", "coordinates": [[[-99.414042, 29.091561], [-99.408565, 28.642452], [-99.780997, 28.642452], [-100.115091, 28.647929], [-100.109614, 29.086084], [-99.414042, 29.091561]]]}}, {"type": "Feature", "properties": {"name": "Chickasaw", "id": "28017", "FIPS": "28017", "FIPS State": 28, "ST": "MS", "County": "Chickasaw County,MS", "State": "Mississippi"}, "geometry": {"type": "Polygon", "coordinates": [[[-88.827116, 34.075577], [-88.717578, 34.075577], [-88.717578, 33.812683], [-88.887363, 33.812683], [-89.03524, 33.741483], [-89.117394, 33.741483], [-89.194071, 33.736006], [-89.139302, 34.075577], [-88.827116, 34.075577]]]}}, {"type": "Feature", "properties": {"name": "Wolfe", "id": "21237", "FIPS": "21237", "FIPS State": 21, "ST": "KY", "County": "Wolfe County,KY", "State": "Kentucky"}, "geometry": {"type": "Polygon", "coordinates": [[[-83.607592, 37.827281], [-83.492576, 37.860142], [-83.262545, 37.712265], [-83.246114, 37.668449], [-83.377561, 37.695834], [-83.519961, 37.641065], [-83.706177, 37.717742], [-83.6295, 37.827281], [-83.607592, 37.827281]]]}}, {"type": "Feature", "properties": {"name": "Holmes", "id": "28051", "FIPS": "28051", "FIPS State": 28, "ST": "MS", "County": "Holmes County,MS", "State": "Mississippi"}, "geometry": {"type": "Polygon", "coordinates": [[[-90.174444, 33.330713], [-89.747242, 33.215697], [-89.96632, 32.881604], [-90.366137, 33.01305], [-90.333275, 33.303328], [-90.174444, 33.330713]]]}}, {"type": "Feature", "properties": {"name": "Woods", "id": "40151", "FIPS": "40151", "FIPS State": 40, "ST": "OK", "County": "Woods County,OK", "State": "Oklahoma"}, "geometry": {"type": "Polygon", "coordinates": [[[-99.457858, 37.000263], [-99.003272, 37.000263], [-98.543209, 37.000263], [-98.532255, 36.463523], [-98.959456, 36.507338], [-99.293549, 36.819524], [-99.457858, 37.000263]]]}}, {"type": "Feature", "properties": {"name": "Perkins", "id": "46105", "FIPS": "46105", "FIPS State": 46, "ST": "SD", "County": "Perkins County,SD", "State": "South Dakota"}, "geometry": {"type": "Polygon", "coordinates": [[[-102.623529, 45.944106], [-101.999158, 45.944106], [-101.999158, 45.47309], [-101.999158, 45.040411], [-102.042974, 45.040411], [-102.957623, 45.040411], [-102.957623, 45.210196], [-102.941192, 45.944106], [-102.623529, 45.944106]]]}}, {"type": "Feature", "properties": {"name": "Sullivan", "id": "29211", "FIPS": "29211", "FIPS State": 29, "ST": "MO", "County": "Sullivan County,MO", "State": "Missouri"}, "geometry": {"type": "Polygon", "coordinates": [[[-93.186761, 40.385012], [-92.858145, 40.341196], [-92.858145, 40.039965], [-93.362023, 40.034488], [-93.3675, 40.264519], [-93.3675, 40.385012], [-93.186761, 40.385012]]]}}, {"type": "Feature", "properties": {"name": "Mineral", "id": "32021", "FIPS": "32021", "FIPS State": 32, "ST": "NV", "County": "Mineral County,NV", "State": "Nevada"}, "geometry": {"type": "Polygon", "coordinates": [[[-118.764072, 39.076023], [-118.753119, 39.076023], [-117.865854, 39.076023], [-118.194471, 38.917192], [-117.690592, 38.47356], [-118.429979, 37.898481], [-119.158412, 38.413313], [-118.906473, 38.413313], [-118.764072, 39.076023]]]}}, {"type": "Feature", "properties": {"name": "Bullock", "id": "01011", "FIPS": "01011", "FIPS State": 1, "ST": "AL", "County": "Bullock County,AL", "State": "Alabama"}, "geometry": {"type": "Polygon", "coordinates": [[[-85.918861, 32.273663], [-85.431413, 32.235325], [-85.409506, 32.147694], [-85.655968, 31.879324], [-85.995538, 32.049109], [-85.918861, 32.273663]]]}}, {"type": "Feature", "properties": {"name": "Dallas", "id": "29059", "FIPS": "29059", "FIPS State": 29, "ST": "MO", "County": "Dallas County,MO", "State": "Missouri"}, "geometry": {"type": "Polygon", "coordinates": [[[-93.126515, 37.903958], [-93.071745, 37.903958], [-92.852668, 37.893004], [-92.852668, 37.482234], [-93.071745, 37.48771], [-93.071745, 37.41651], [-93.181284, 37.41651], [-93.186761, 37.805373], [-93.126515, 37.903958]]]}}, {"type": "Feature", "properties": {"name": "Union", "id": "21225", "FIPS": "21225", "FIPS State": 21, "ST": "KY", "County": "Union County,KY", "State": "Kentucky"}, "geometry": {"type": "Polygon", "coordinates": [[[-88.027483, 37.799896], [-87.928898, 37.903958], [-87.731728, 37.635588], [-87.934375, 37.482234], [-88.060345, 37.504141], [-88.131545, 37.575342], [-88.027483, 37.799896]]]}}, {"type": "Feature", "properties": {"name": "Rockcastle", "id": "21203", "FIPS": "21203", "FIPS State": 21, "ST": "KY", "County": "Rockcastle County,KY", "State": "Kentucky"}, "geometry": {"type": "Polygon", "coordinates": [[[-84.231963, 37.520572], [-84.199102, 37.520572], [-84.138855, 37.317925], [-84.138855, 37.306971], [-84.286733, 37.153617], [-84.500334, 37.328879], [-84.445564, 37.48771], [-84.346979, 37.537003], [-84.231963, 37.520572]]]}}, {"type": "Feature", "properties": {"name": "Sierra", "id": "06091", "FIPS": "06091", "FIPS State": 6, "ST": "CA", "County": "Sierra County,CA", "State": "California"}, "geometry": {"type": "Polygon", "coordinates": [[[-120.149738, 39.705871], [-120.001861, 39.722302], [-120.001861, 39.442978], [-120.555032, 39.508701], [-121.020572, 39.393686], [-121.009618, 39.640148], [-120.149738, 39.705871]]]}}, {"type": "Feature", "properties": {"name": "Haskell", "id": "48207", "FIPS": "48207", "FIPS State": 48, "ST": "TX", "County": "Haskell County,TX", "State": "Texas"}, "geometry": {"type": "Polygon", "coordinates": [[[-99.518104, 33.396436], [-99.474288, 33.396436], [-99.468812, 32.958281], [-99.611212, 32.958281], [-99.989121, 32.958281], [-99.989121, 33.396436], [-99.518104, 33.396436]]]}}, {"type": "Feature", "properties": {"name": "Washington", "id": "21229", "FIPS": "21229", "FIPS State": 21, "ST": "KY", "County": "Washington County,KY", "State": "Kentucky"}, "geometry": {"type": "Polygon", "coordinates": [[[-85.152089, 37.898481], [-85.031597, 37.893004], [-85.02612, 37.679403], [-85.031597, 37.630111], [-85.404029, 37.728696], [-85.152089, 37.898481]]]}}, {"type": "Feature", "properties": {"name": "Brown", "id": "31017", "FIPS": "31017", "FIPS State": 31, "ST": "NE", "County": "Brown County,NE", "State": "Nebraska"}, "geometry": {"type": "Polygon", "coordinates": [[[-100.175337, 42.833204], [-99.676935, 42.729142], [-99.660504, 42.08834], [-99.687889, 42.08834], [-100.16986, 42.08834], [-100.197245, 42.844158], [-100.175337, 42.833204]]]}}, {"type": "Feature", "properties": {"name": "Lamar", "id": "01075", "FIPS": "01075", "FIPS State": 1, "ST": "AL", "County": "Lamar County,AL", "State": "Alabama"}, "geometry": {"type": "Polygon", "coordinates": [[[-88.208222, 34.059146], [-87.950806, 33.922222], [-87.945329, 33.522406], [-88.273945, 33.53336], [-88.246561, 33.74696], [-88.208222, 34.059146]]]}}, {"type": "Feature", "properties": {"name": "Pierce", "id": "13229", "FIPS": "13229", "FIPS State": 13, "ST": "GA", "County": "Pierce County,GA", "State": "Georgia"}, "geometry": {"type": "Polygon", "coordinates": [[[-82.227403, 31.528799], [-82.134295, 31.468553], [-82.041187, 31.375445], [-82.041187, 31.369968], [-82.282173, 31.227568], [-82.419096, 31.419261], [-82.227403, 31.528799]]]}}, {"type": "Feature", "properties": {"name": "Randolph", "id": "05121", "FIPS": "05121", "FIPS State": 5, "ST": "AR", "County": "Randolph County,AR", "State": "Arkansas"}, "geometry": {"type": "Polygon", "coordinates": [[[-90.848107, 36.496384], [-90.782384, 36.496384], [-90.804292, 36.266353], [-90.809769, 36.151337], [-91.242447, 36.255399], [-91.258878, 36.255399], [-91.406755, 36.496384], [-91.127431, 36.496384], [-90.848107, 36.496384]]]}}, {"type": "Feature", "properties": {"name": "San Jacinto", "id": "48407", "FIPS": "48407", "FIPS State": 48, "ST": "TX", "County": "San Jacinto County,TX", "State": "Texas"}, "geometry": {"type": "Polygon", "coordinates": [[[-95.311814, 30.88252], [-95.202275, 30.822274], [-94.851751, 30.493658], [-95.163936, 30.34578], [-95.361106, 30.504611], [-95.328245, 30.860613], [-95.311814, 30.88252]]]}}, {"type": "Feature", "properties": {"name": "Crawford", "id": "26039", "FIPS": "26039", "FIPS State": 26, "ST": "MI", "County": "Crawford County,MI", "State": "Michigan"}, "geometry": {"type": "Polygon", "coordinates": [[[-84.774181, 44.859672], [-84.374364, 44.854195], [-84.368887, 44.509148], [-84.735842, 44.509148], [-84.850858, 44.509148], [-84.845381, 44.859672], [-84.774181, 44.859672]]]}}, {"type": "Feature", "properties": {"name": "Attala", "id": "28007", "FIPS": "28007", "FIPS State": 28, "ST": "MS", "County": "Attala County,MS", "State": "Mississippi"}, "geometry": {"type": "Polygon", "coordinates": [[[-89.396718, 33.286897], [-89.320041, 33.106158], [-89.320041, 32.930896], [-89.473395, 32.930896], [-89.730812, 32.887081], [-89.96632, 32.881604], [-89.747242, 33.215697], [-89.643181, 33.286897], [-89.451488, 33.286897], [-89.396718, 33.286897]]]}}, {"type": "Feature", "properties": {"name": "Crowley", "id": "08025", "FIPS": "08025", "FIPS State": 8, "ST": "CO", "County": "Crowley County,CO", "State": "Colorado"}, "geometry": {"type": "Polygon", "coordinates": [[[-104.053011, 38.522852], [-103.505317, 38.517375], [-103.49984, 38.265436], [-104.058488, 38.144943], [-104.053011, 38.522852]]]}}, {"type": "Feature", "properties": {"name": "Iron", "id": "26071", "FIPS": "26071", "FIPS State": 26, "ST": "MI", "County": "Iron County,MI", "State": "Michigan"}, "geometry": {"type": "Polygon", "coordinates": [[[-88.712101, 46.4206], [-88.679239, 46.4206], [-88.115114, 46.4206], [-88.115114, 46.245338], [-88.115114, 45.922199], [-88.493023, 45.993399], [-88.684716, 46.015307], [-88.931178, 46.075553], [-88.991425, 46.097461], [-88.991425, 46.332969], [-88.991425, 46.4206], [-88.712101, 46.4206]]]}}, {"type": "Feature", "properties": {"name": "Hamilton", "id": "36041", "FIPS": "36041", "FIPS State": 36, "ST": "NY", "County": "Hamilton County,NY", "State": "New York"}, "geometry": {"type": "Polygon", "coordinates": [[[-74.280363, 44.120285], [-74.055808, 43.742376], [-74.15987, 43.369944], [-74.137962, 43.254929], [-74.713041, 43.28779], [-74.855442, 44.070993], [-74.537779, 44.098377], [-74.280363, 44.120285]]]}}, {"type": "Feature", "properties": {"name": "Greene", "id": "28041", "FIPS": "28041", "FIPS State": 28, "ST": "MS", "County": "Greene County,MS", "State": "Mississippi"}, "geometry": {"type": "Polygon", "coordinates": [[[-88.460161, 31.435691], [-88.449208, 31.435691], [-88.432777, 31.112552], [-88.4273, 30.997536], [-88.679239, 30.997536], [-88.832593, 30.997536], [-88.843547, 31.435691], [-88.460161, 31.435691]]]}}, {"type": "Feature", "properties": {"name": "Niobrara", "id": "56027", "FIPS": "56027", "FIPS State": 56, "ST": "WY", "County": "Niobrara County,WY", "State": "Wyoming"}, "geometry": {"type": "Polygon", "coordinates": [[[-104.053011, 43.501391], [-104.053011, 43.479483], [-104.053011, 43.002989], [-104.053011, 42.614127], [-104.655474, 42.60865], [-104.890983, 42.60865], [-104.901936, 43.501391], [-104.053011, 43.501391]]]}}, {"type": "Feature", "properties": {"name": "Towner", "id": "38095", "FIPS": "38095", "FIPS State": 38, "ST": "ND", "County": "Towner County,ND", "State": "North Dakota"}, "geometry": {"type": "Polygon", "coordinates": [[[-98.997795, 49.000239], [-98.97041, 48.545653], [-99.200441, 48.370391], [-99.490719, 48.370391], [-99.490719, 48.545653], [-99.523581, 49.000239], [-98.997795, 49.000239]]]}}, {"type": "Feature", "properties": {"name": "Livingston", "id": "21139", "FIPS": "21139", "FIPS State": 21, "ST": "KY", "County": "Livingston County,KY", "State": "Kentucky"}, "geometry": {"type": "Polygon", "coordinates": [[[-88.361576, 37.405556], [-88.3561, 37.405556], [-88.191791, 37.14814], [-88.241084, 36.983832], [-88.432777, 37.049555], [-88.482069, 37.022171], [-88.564223, 37.082417], [-88.487546, 37.065986], [-88.416346, 37.421987], [-88.361576, 37.405556]]]}}, {"type": "Feature", "properties": {"name": "Meade", "id": "20119", "FIPS": "20119", "FIPS State": 20, "ST": "KS", "County": "Meade County,KS", "State": "Kansas"}, "geometry": {"type": "Polygon", "coordinates": [[[-100.213675, 37.476757], [-100.109614, 37.476757], [-100.087706, 37.000263], [-100.6354, 37.000263], [-100.651831, 37.389126], [-100.651831, 37.476757], [-100.213675, 37.476757]]]}}, {"type": "Feature", "properties": {"name": "Madison", "id": "22065", "FIPS": "22065", "FIPS State": 22, "ST": "LA", "County": "Madison County,LA", "State": "Louisiana"}, "geometry": {"type": "Polygon", "coordinates": [[[-91.368417, 32.536556], [-91.067185, 32.563941], [-91.121954, 32.213417], [-91.494386, 32.202463], [-91.477956, 32.40511], [-91.456048, 32.536556], [-91.368417, 32.536556]]]}}, {"type": "Feature", "properties": {"name": "Lane", "id": "20101", "FIPS": "20101", "FIPS State": 20, "ST": "KS", "County": "Lane County,KS", "State": "Kansas"}, "geometry": {"type": "Polygon", "coordinates": [[[-100.58063, 38.698114], [-100.246537, 38.698114], [-100.246537, 38.259959], [-100.684692, 38.265436], [-100.690169, 38.698114], [-100.58063, 38.698114]]]}}, {"type": "Feature", "properties": {"name": "Presque Isle", "id": "26141", "FIPS": "26141", "FIPS State": 26, "ST": "MI", "County": "Presque Isle County,MI", "State": "Michigan"}, "geometry": {"type": "Polygon", "coordinates": [[[-83.388515, 45.204719], [-83.4871, 45.204719], [-83.881439, 45.204719], [-84.199102, 45.199243], [-84.248394, 45.199243], [-84.204579, 45.626444], [-83.388515, 45.204719]]]}}, {"type": "Feature", "properties": {"name": "Day", "id": "46037", "FIPS": "46037", "FIPS State": 46, "ST": "SD", "County": "Day County,SD", "State": "South Dakota"}, "geometry": {"type": "Polygon", "coordinates": [[[-97.979084, 45.588105], [-97.228743, 45.560721], [-97.228743, 45.297827], [-97.228743, 45.14995], [-97.23422, 45.14995], [-97.491636, 45.14995], [-97.924314, 45.155427], [-97.979084, 45.155427], [-97.979084, 45.243058], [-97.979084, 45.588105]]]}}, {"type": "Feature", "properties": {"name": "Meagher", "id": "30059", "FIPS": "30059", "FIPS State": 30, "ST": "MT", "County": "Meagher County,MT", "State": "Montana"}, "geometry": {"type": "Polygon", "coordinates": [[[-111.079925, 47.088787], [-110.652724, 46.825894], [-110.274815, 46.710878], [-110.280292, 46.217953], [-110.280292, 46.185092], [-110.78417, 46.190569], [-111.063494, 46.190569], [-111.496173, 46.760171], [-111.660481, 46.913525], [-111.079925, 47.088787]]]}}, {"type": "Feature", "properties": {"name": "Pike", "id": "13231", "FIPS": "13231", "FIPS State": 13, "ST": "GA", "County": "Pike County,GA", "State": "Georgia"}, "geometry": {"type": "Polygon", "coordinates": [[[-84.494857, 33.182835], [-84.248394, 33.188312], [-84.270302, 32.991142], [-84.36341, 32.991142], [-84.527718, 32.969235], [-84.494857, 33.182835]]]}}, {"type": "Feature", "properties": {"name": "Boone", "id": "31011", "FIPS": "31011", "FIPS State": 31, "ST": "NE", "County": "Boone County,NE", "State": "Nebraska"}, "geometry": {"type": "Polygon", "coordinates": [[[-97.91336, 41.918555], [-97.831206, 41.918555], [-97.831206, 41.743293], [-97.831206, 41.524216], [-98.291269, 41.4804], [-98.296746, 41.743293], [-98.296746, 41.913078], [-97.91336, 41.918555]]]}}, {"type": "Feature", "properties": {"name": "Forest", "id": "55041", "FIPS": "55041", "FIPS State": 55, "ST": "WI", "County": "Forest County,WI", "State": "Wisconsin"}, "geometry": {"type": "Polygon", "coordinates": [[[-88.931178, 46.075553], [-88.684716, 46.015307], [-88.4273, 45.725029], [-88.4273, 45.374505], [-88.679239, 45.379982], [-89.046194, 45.462136], [-89.046194, 45.894814], [-88.931178, 46.075553]]]}}, {"type": "Feature", "properties": {"name": "Ashley", "id": "05003", "FIPS": "05003", "FIPS State": 5, "ST": "AR", "County": "Ashley County,AR", "State": "Arkansas"}, "geometry": {"type": "Polygon", "coordinates": [[[-91.992788, 33.396436], [-91.456048, 33.390959], [-91.461525, 33.007573], [-92.069465, 33.007573], [-92.135188, 33.160928], [-91.992788, 33.396436]]]}}, {"type": "Feature", "properties": {"name": "Anson", "id": "37007", "FIPS": "37007", "FIPS State": 37, "ST": "NC", "County": "Anson County,NC", "State": "North Carolina"}, "geometry": {"type": "Polygon", "coordinates": [[[-80.173551, 35.149057], [-80.074966, 35.14358], [-79.927088, 34.80401], [-80.321428, 34.814964], [-80.277612, 35.198349], [-80.173551, 35.149057]]]}}, {"type": "Feature", "properties": {"name": "Kearney", "id": "31099", "FIPS": "31099", "FIPS State": 31, "ST": "NE", "County": "Kearney County,NE", "State": "Nebraska"}, "geometry": {"type": "Polygon", "coordinates": [[[-98.953979, 40.653382], [-98.723948, 40.691721], [-98.723948, 40.35215], [-98.729425, 40.35215], [-99.11281, 40.35215], [-99.178534, 40.35215], [-99.178534, 40.658859], [-98.953979, 40.653382]]]}}, {"type": "Feature", "properties": {"name": "Highland", "id": "51091", "FIPS": "51091", "FIPS State": 51, "ST": "VA", "County": "Highland County,VA", "State": "Virginia"}, "geometry": {"type": "Polygon", "coordinates": [[[-79.647764, 38.594052], [-79.313671, 38.413313], [-79.510841, 38.177805], [-79.795642, 38.265436], [-79.647764, 38.594052]]]}}, {"type": "Feature", "properties": {"name": "Grant", "id": "22043", "FIPS": "22043", "FIPS State": 22, "ST": "LA", "County": "Grant County,LA", "State": "Louisiana"}, "geometry": {"type": "Polygon", "coordinates": [[[-92.36522, 31.797169], [-92.195435, 31.479507], [-92.721221, 31.517845], [-92.97316, 31.709538], [-92.36522, 31.797169]]]}}, {"type": "Feature", "properties": {"name": "Sheridan", "id": "31161", "FIPS": "31161", "FIPS State": 31, "ST": "NE", "County": "Sheridan County,NE", "State": "Nebraska"}, "geometry": {"type": "Polygon", "coordinates": [[[-102.081312, 42.997512], [-102.004635, 42.093817], [-102.064881, 42.011663], [-102.240143, 42.006186], [-102.678299, 42.006186], [-102.700206, 42.006186], [-102.771407, 42.438865], [-102.793314, 42.997512], [-102.081312, 42.997512]]]}}, {"type": "Feature", "properties": {"name": "Benson", "id": "38005", "FIPS": "38005", "FIPS State": 38, "ST": "ND", "County": "Benson County,ND", "State": "North Dakota"}, "geometry": {"type": "Polygon", "coordinates": [[[-99.819336, 48.370391], [-99.490719, 48.370391], [-99.200441, 48.370391], [-98.992318, 47.992482], [-98.526778, 47.915805], [-98.526778, 47.844605], [-98.636317, 47.850082], [-99.299026, 47.844605], [-99.813859, 47.850082], [-99.819336, 48.370391]]]}}, {"type": "Feature", "properties": {"name": "Stanton", "id": "31167", "FIPS": "31167", "FIPS State": 31, "ST": "NE", "County": "Stanton County,NE", "State": "Nebraska"}, "geometry": {"type": "Polygon", "coordinates": [[[-97.36019, 42.08834], [-97.020619, 42.08834], [-97.020619, 41.743293], [-97.250651, 41.743293], [-97.250651, 41.743293], [-97.365666, 41.743293], [-97.365666, 42.08834], [-97.36019, 42.08834]]]}}, {"type": "Feature", "properties": {"name": "Pershing", "id": "32027", "FIPS": "32027", "FIPS State": 32, "ST": "NV", "County": "Pershing County,NV", "State": "Nevada"}, "geometry": {"type": "Polygon", "coordinates": [[[-118.013732, 40.856029], [-117.301729, 40.527412], [-117.542715, 40.001626], [-117.948008, 40.001626], [-119.224135, 40.001626], [-119.311766, 40.960091], [-118.013732, 40.856029]]]}}, {"type": "Feature", "properties": {"name": "Runnels", "id": "48399", "FIPS": "48399", "FIPS State": 48, "ST": "TX", "County": "Runnels County,TX", "State": "Texas"}, "geometry": {"type": "Polygon", "coordinates": [[[-100.054844, 32.08197], [-99.715274, 32.08197], [-99.720751, 31.578092], [-99.726228, 31.578092], [-100.109614, 31.578092], [-100.235583, 31.693108], [-100.235583, 32.08197], [-100.153429, 32.08197], [-100.054844, 32.08197]]]}}, {"type": "Feature", "properties": {"name": "Clay", "id": "47027", "FIPS": "47027", "FIPS State": 47, "ST": "TN", "County": "Clay County,TN", "State": "Tennessee"}, "geometry": {"type": "Polygon", "coordinates": [[[-85.278059, 36.627831], [-85.283536, 36.529246], [-85.497137, 36.403276], [-85.814799, 36.501861], [-85.787415, 36.622354], [-85.43689, 36.616877], [-85.29449, 36.627831], [-85.278059, 36.627831]]]}}, {"type": "Feature", "properties": {"name": "Forest", "id": "42053", "FIPS": "42053", "FIPS State": 42, "ST": "PA", "County": "Forest County,PA", "State": "Pennsylvania"}, "geometry": {"type": "Polygon", "coordinates": [[[-78.996008, 41.6228], [-78.95767, 41.6228], [-79.094593, 41.343476], [-79.209609, 41.332523], [-79.357487, 41.431108], [-79.477979, 41.387292], [-79.510841, 41.6228], [-78.996008, 41.6228]]]}}, {"type": "Feature", "properties": {"name": "Jackson", "id": "22049", "FIPS": "22049", "FIPS State": 22, "ST": "LA", "County": "Jackson County,LA", "State": "Louisiana"}, "geometry": {"type": "Polygon", "coordinates": [[[-92.578821, 32.498218], [-92.414512, 32.498218], [-92.31045, 32.27914], [-92.31045, 32.147694], [-92.814329, 32.147694], [-92.77599, 32.454402], [-92.578821, 32.498218]]]}}, {"type": "Feature", "properties": {"name": "Clark", "id": "46025", "FIPS": "46025", "FIPS State": 46, "ST": "SD", "County": "Clark County,SD", "State": "South Dakota"}, "geometry": {"type": "Polygon", "coordinates": [[[-97.924314, 45.155427], [-97.491636, 45.14995], [-97.491636, 44.804903], [-97.491636, 44.54201], [-97.732621, 44.54201], [-97.853114, 44.54201], [-97.979084, 44.629641], [-97.979084, 45.155427], [-97.924314, 45.155427]]]}}, {"type": "Feature", "properties": {"name": "Mason", "id": "48319", "FIPS": "48319", "FIPS State": 48, "ST": "TX", "County": "Mason County,TX", "State": "Texas"}, "geometry": {"type": "Polygon", "coordinates": [[[-99.485242, 30.942767], [-99.090903, 30.942767], [-98.964933, 30.920859], [-98.964933, 30.499135], [-99.304503, 30.499135], [-99.485242, 30.712735], [-99.485242, 30.942767]]]}}, {"type": "Feature", "properties": {"name": "Thurston", "id": "31173", "FIPS": "31173", "FIPS State": 31, "ST": "NE", "County": "Thurston County,NE", "State": "Nebraska"}, "geometry": {"type": "Polygon", "coordinates": [[[-96.724864, 42.280033], [-96.357909, 42.274556], [-96.357909, 42.21431], [-96.270278, 42.044525], [-96.555079, 42.01714], [-96.823449, 42.08834], [-96.823449, 42.263602], [-96.724864, 42.280033]]]}}, {"type": "Feature", "properties": {"name": "Sullivan", "id": "18153", "FIPS": "18153", "FIPS State": 18, "ST": "IN", "County": "Sullivan County,IN", "State": "Indiana"}, "geometry": {"type": "Polygon", "coordinates": [[[-87.578374, 39.256762], [-87.238804, 39.256762], [-87.238804, 39.169131], [-87.238804, 38.906238], [-87.534558, 38.900761], [-87.644097, 39.158177], [-87.605759, 39.256762], [-87.578374, 39.256762]]]}}, {"type": "Feature", "properties": {"name": "Marshall", "id": "40095", "FIPS": "40095", "FIPS State": 40, "ST": "OK", "County": "Marshall County,OK", "State": "Oklahoma"}, "geometry": {"type": "Polygon", "coordinates": [[[-96.932988, 34.174162], [-96.587941, 34.113915], [-96.587941, 33.894838], [-96.932988, 33.955084], [-96.971327, 34.0701], [-96.932988, 34.174162]]]}}, {"type": "Feature", "properties": {"name": "Hamilton", "id": "12047", "FIPS": "12047", "FIPS State": 12, "ST": "FL", "County": "Hamilton County,FL", "State": "Florida"}, "geometry": {"type": "Polygon", "coordinates": [[[-83.311837, 30.636058], [-83.136575, 30.625104], [-82.687466, 30.597719], [-82.69842, 30.597719], [-82.797005, 30.334826], [-83.081806, 30.438888], [-83.169437, 30.384119], [-83.311837, 30.636058]]]}}, {"type": "Feature", "properties": {"name": "Union", "id": "35059", "FIPS": "35059", "FIPS State": 35, "ST": "NM", "County": "Union County,NM", "State": "New Mexico"}, "geometry": {"type": "Polygon", "coordinates": [[[-103.001438, 37.000263], [-103.001438, 36.501861], [-103.039777, 36.052752], [-103.039777, 35.740566], [-103.37387, 35.740566], [-103.362916, 36.085614], [-104.009195, 36.21706], [-104.009195, 36.994786], [-103.083592, 37.000263], [-103.001438, 37.000263]]]}}, {"type": "Feature", "properties": {"name": "Crane", "id": "48103", "FIPS": "48103", "FIPS State": 48, "ST": "TX", "County": "Crane County,TX", "State": "Texas"}, "geometry": {"type": "Polygon", "coordinates": [[[-102.76593, 31.649292], [-102.316821, 31.649292], [-102.30039, 31.085167], [-102.388021, 31.085167], [-102.76593, 31.293291], [-102.76593, 31.649292]]]}}, {"type": "Feature", "properties": {"name": "Garfield", "id": "49017", "FIPS": "49017", "FIPS State": 49, "ST": "UT", "County": "Garfield County,UT", "State": "Utah"}, "geometry": {"type": "Polygon", "coordinates": [[[-111.84122, 38.15042], [-109.929768, 38.15042], [-110.647247, 37.54248], [-112.684669, 37.54248], [-112.476545, 38.144943], [-112.443683, 38.15042], [-111.84122, 38.15042]]]}}, {"type": "Feature", "properties": {"name": "Mason", "id": "21161", "FIPS": "21161", "FIPS State": 21, "ST": "KY", "County": "Mason County,KY", "State": "Kentucky"}, "geometry": {"type": "Polygon", "coordinates": [[[-83.848578, 38.747407], [-83.706177, 38.637868], [-83.645931, 38.637868], [-83.640454, 38.522852], [-83.930732, 38.489991], [-83.96907, 38.583099], [-83.990978, 38.594052], [-83.903347, 38.769315], [-83.848578, 38.747407]]]}}, {"type": "Feature", "properties": {"name": "Franklin", "id": "28037", "FIPS": "28037", "FIPS State": 28, "ST": "MS", "County": "Franklin County,MS", "State": "Mississippi"}, "geometry": {"type": "Polygon", "coordinates": [[[-91.154816, 31.610953], [-90.738569, 31.610953], [-90.634507, 31.34806], [-90.722138, 31.34806], [-91.09457, 31.320676], [-91.160293, 31.34806], [-91.154816, 31.610953]]]}}, {"type": "Feature", "properties": {"name": "Wabaunsee", "id": "20197", "FIPS": "20197", "FIPS State": 20, "ST": "KS", "County": "Wabaunsee County,KS", "State": "Kansas"}, "geometry": {"type": "Polygon", "coordinates": [[[-96.040247, 39.125316], [-95.947139, 38.867899], [-95.947139, 38.736453], [-96.336002, 38.74193], [-96.352432, 38.74193], [-96.50031, 38.867899], [-96.50031, 39.043162], [-96.390771, 39.174608], [-96.040247, 39.125316]]]}}, {"type": "Feature", "properties": {"name": "Coosa", "id": "01037", "FIPS": "01037", "FIPS State": 1, "ST": "AL", "County": "Coosa County,AL", "State": "Alabama"}, "geometry": {"type": "Polygon", "coordinates": [[[-86.176277, 33.106158], [-86.006492, 33.089727], [-86.006492, 32.755634], [-86.378924, 32.755634], [-86.515848, 33.018527], [-86.488463, 33.100681], [-86.176277, 33.106158]]]}}, {"type": "Feature", "properties": {"name": "Hansford", "id": "48195", "FIPS": "48195", "FIPS State": 48, "ST": "TX", "County": "Hansford County,TX", "State": "Texas"}, "geometry": {"type": "Polygon", "coordinates": [[[-101.084509, 36.501861], [-101.084509, 36.058229], [-101.084509, 36.052752], [-101.621249, 36.052752], [-101.621249, 36.501861], [-101.084509, 36.501861]]]}}, {"type": "Feature", "properties": {"name": "Jones", "id": "37103", "FIPS": "37103", "FIPS State": 37, "ST": "NC", "County": "Jones County,NC", "State": "North Carolina"}, "geometry": {"type": "Polygon", "coordinates": [[[-77.473419, 35.231211], [-77.090033, 34.80401], [-77.16671, 34.787579], [-77.676066, 34.973795], [-77.730835, 35.006656], [-77.473419, 35.231211]]]}}, {"type": "Feature", "properties": {"name": "Stafford", "id": "20185", "FIPS": "20185", "FIPS State": 20, "ST": "KS", "County": "Stafford County,KS", "State": "Kansas"}, "geometry": {"type": "Polygon", "coordinates": [[[-98.800625, 38.259959], [-98.477485, 38.259959], [-98.472008, 38.172328], [-98.472008, 37.827281], [-98.904687, 37.827281], [-99.014225, 37.827281], [-99.019702, 38.002543], [-98.910164, 38.259959], [-98.800625, 38.259959]]]}}, {"type": "Feature", "properties": {"name": "Benton", "id": "29015", "FIPS": "29015", "FIPS State": 29, "ST": "MO", "County": "Benton County,MO", "State": "Missouri"}, "geometry": {"type": "Polygon", "coordinates": [[[-93.159376, 38.533806], [-93.066268, 38.528329], [-93.077222, 38.259959], [-93.066268, 38.062789], [-93.411315, 38.068266], [-93.504423, 38.073743], [-93.520854, 38.20519], [-93.515377, 38.511898], [-93.159376, 38.533806]]]}}, {"type": "Feature", "properties": {"name": "Thomas", "id": "31171", "FIPS": "31171", "FIPS State": 31, "ST": "NE", "County": "Thomas County,NE", "State": "Nebraska"}, "geometry": {"type": "Polygon", "coordinates": [[[-100.843524, 42.08834], [-100.268445, 42.08834], [-100.262968, 41.737816], [-100.712077, 41.737816], [-100.843524, 41.737816], [-100.843524, 42.08834]]]}}, {"type": "Feature", "properties": {"name": "Lincoln", "id": "20105", "FIPS": "20105", "FIPS State": 20, "ST": "KS", "County": "Lincoln County,KS", "State": "Kansas"}, "geometry": {"type": "Polygon", "coordinates": [[[-98.477485, 39.218424], [-97.929791, 39.218424], [-97.929791, 38.95553], [-97.929791, 38.873376], [-98.482962, 38.873376], [-98.488439, 39.130793], [-98.488439, 39.218424], [-98.477485, 39.218424]]]}}, {"type": "Feature", "properties": {"name": "Bertie", "id": "37015", "FIPS": "37015", "FIPS State": 37, "ST": "NC", "County": "Bertie County,NC", "State": "North Carolina"}, "geometry": {"type": "Polygon", "coordinates": [[[-76.706647, 36.244445], [-76.668309, 36.01989], [-76.690217, 35.943213], [-76.761417, 35.866536], [-77.325542, 36.07466], [-77.29268, 36.167768], [-77.210526, 36.244445], [-76.706647, 36.244445]]]}}, {"type": "Feature", "properties": {"name": "Reeves", "id": "48389", "FIPS": "48389", "FIPS State": 48, "ST": "TX", "County": "Reeves County,TX", "State": "Texas"}, "geometry": {"type": "Polygon", "coordinates": [[[-104.025626, 31.999816], [-103.98181, 31.999816], [-103.609378, 31.649292], [-103.012392, 31.369968], [-103.587471, 30.767505], [-104.102303, 31.107075], [-104.025626, 31.999816]]]}}, {"type": "Feature", "properties": {"name": "Heard", "id": "13149", "FIPS": "13149", "FIPS State": 13, "ST": "GA", "County": "Heard County,GA", "State": "Georgia"}, "geometry": {"type": "Polygon", "coordinates": [[[-85.015166, 33.423821], [-84.938489, 33.226651], [-84.938489, 33.226651], [-85.234244, 33.128066], [-85.29449, 33.429298], [-85.015166, 33.423821]]]}}, {"type": "Feature", "properties": {"name": "Fleming", "id": "21069", "FIPS": "21069", "FIPS State": 21, "ST": "KY", "County": "Fleming County,KY", "State": "Kentucky"}, "geometry": {"type": "Polygon", "coordinates": [[[-83.602115, 38.506421], [-83.454238, 38.380452], [-83.634977, 38.188759], [-83.848578, 38.298298], [-83.980024, 38.440698], [-83.930732, 38.489991], [-83.640454, 38.522852], [-83.602115, 38.506421]]]}}, {"type": "Feature", "properties": {"name": "Wallace", "id": "20199", "FIPS": "20199", "FIPS State": 20, "ST": "KS", "County": "Wallace County,KS", "State": "Kansas"}, "geometry": {"type": "Polygon", "coordinates": [[[-101.478849, 39.13627], [-101.484326, 38.698114], [-101.56648, 38.698114], [-102.042974, 38.698114], [-102.04845, 39.048638], [-102.04845, 39.130793], [-101.478849, 39.13627]]]}}, {"type": "Feature", "properties": {"name": "Logan", "id": "38047", "FIPS": "38047", "FIPS State": 38, "ST": "ND", "County": "Logan County,ND", "State": "North Dakota"}, "geometry": {"type": "Polygon", "coordinates": [[[-99.917921, 46.634201], [-99.452381, 46.634201], [-99.036133, 46.628724], [-99.036133, 46.283677], [-99.348319, 46.283677], [-99.879582, 46.283677], [-99.917921, 46.634201]]]}}, {"type": "Feature", "properties": {"name": "White", "id": "17193", "FIPS": "17193", "FIPS State": 17, "ST": "IL", "County": "White County,IL", "State": "Illinois"}, "geometry": {"type": "Polygon", "coordinates": [[[-88.005575, 38.259959], [-87.989145, 38.259959], [-87.972714, 38.232574], [-87.978191, 38.232574], [-88.054868, 37.88205], [-88.137022, 37.909435], [-88.37253, 37.909435], [-88.37253, 38.254482], [-88.153453, 38.254482], [-88.005575, 38.259959]]]}}, {"type": "Feature", "properties": {"name": "Paulding", "id": "39125", "FIPS": "39125", "FIPS State": 39, "ST": "OH", "County": "Paulding County,OH", "State": "Ohio"}, "geometry": {"type": "Polygon", "coordinates": [[[-84.577011, 41.250368], [-84.341502, 41.162737], [-84.401749, 40.992952], [-84.456518, 40.987475], [-84.801565, 40.987475], [-84.801565, 41.250368], [-84.577011, 41.250368]]]}}, {"type": "Feature", "properties": {"name": "Sargent", "id": "38081", "FIPS": "38081", "FIPS State": 38, "ST": "ND", "County": "Sargent County,ND", "State": "North Dakota"}, "geometry": {"type": "Polygon", "coordinates": [[[-98.006468, 46.283677], [-97.278035, 46.283677], [-97.228743, 45.933153], [-97.853114, 45.933153], [-97.979084, 45.938629], [-98.006468, 45.938629], [-98.006468, 46.283677]]]}}, {"type": "Feature", "properties": {"name": "Craig", "id": "51045", "FIPS": "51045", "FIPS State": 51, "ST": "VA", "County": "Craig County,VA", "State": "Virginia"}, "geometry": {"type": "Polygon", "coordinates": [[[-80.020196, 37.646542], [-80.074966, 37.421987], [-80.173551, 37.378172], [-80.261182, 37.339833], [-80.430967, 37.312448], [-80.474782, 37.421987], [-80.222843, 37.630111], [-80.020196, 37.646542]]]}}, {"type": "Feature", "properties": {"name": "Cumberland", "id": "17035", "FIPS": "17035", "FIPS State": 17, "ST": "IL", "County": "Cumberland County,IL", "State": "Illinois"}, "geometry": {"type": "Polygon", "coordinates": [[[-88.142499, 39.377255], [-88.011052, 39.377255], [-88.005575, 39.174608], [-88.361576, 39.169131], [-88.471115, 39.212947], [-88.471115, 39.371778], [-88.142499, 39.377255]]]}}, {"type": "Feature", "properties": {"name": "Marengo", "id": "01091", "FIPS": "01091", "FIPS State": 1, "ST": "AL", "County": "Marengo County,AL", "State": "Alabama"}, "geometry": {"type": "Polygon", "coordinates": [[[-87.813882, 32.525602], [-87.523605, 32.481787], [-87.474312, 32.306525], [-87.474312, 32.262709], [-87.666005, 31.988862], [-87.819359, 31.988862], [-88.071299, 31.988862], [-87.928898, 32.312002], [-87.852221, 32.531079], [-87.813882, 32.525602]]]}}, {"type": "Feature", "properties": {"name": "Carroll", "id": "21041", "FIPS": "21041", "FIPS State": 21, "ST": "KY", "County": "Carroll County,KY", "State": "Kentucky"}, "geometry": {"type": "Polygon", "coordinates": [[[-85.02612, 38.763838], [-84.933012, 38.659776], [-85.075412, 38.599529], [-85.16852, 38.583099], [-85.332828, 38.736453], [-85.201382, 38.692637], [-85.02612, 38.763838]]]}}, {"type": "Feature", "properties": {"name": "Trigg", "id": "21221", "FIPS": "21221", "FIPS State": 21, "ST": "KY", "County": "Trigg County,KY", "State": "Kentucky"}, "geometry": {"type": "Polygon", "coordinates": [[[-87.731728, 37.000263], [-87.69339, 36.638785], [-88.071299, 36.677123], [-88.109637, 36.748324], [-88.15893, 36.868816], [-87.879606, 36.961924], [-87.731728, 37.000263]]]}}, {"type": "Feature", "properties": {"name": "Sabine", "id": "22085", "FIPS": "22085", "FIPS State": 22, "ST": "LA", "County": "Sabine County,LA", "State": "Louisiana"}, "geometry": {"type": "Polygon", "coordinates": [[[-93.619439, 31.846462], [-93.4387, 31.846462], [-93.236053, 31.364491], [-93.553716, 31.183752], [-93.603008, 31.178275], [-93.83304, 31.583569], [-93.882332, 31.846462], [-93.619439, 31.846462]]]}}, {"type": "Feature", "properties": {"name": "Calhoun", "id": "17013", "FIPS": "17013", "FIPS State": 17, "ST": "IL", "County": "Calhoun County,IL", "State": "Illinois"}, "geometry": {"type": "Polygon", "coordinates": [[[-90.935738, 39.399163], [-90.612599, 39.393686], [-90.601645, 39.119839], [-90.448291, 38.966484], [-90.667368, 38.933623], [-90.722138, 39.223901], [-90.935738, 39.399163]]]}}, {"type": "Feature", "properties": {"name": "Morris", "id": "48343", "FIPS": "48343", "FIPS State": 48, "ST": "TX", "County": "Morris County,TX", "State": "Texas"}, "geometry": {"type": "Polygon", "coordinates": [[[-94.807935, 33.363574], [-94.747689, 33.330713], [-94.654581, 33.270466], [-94.654581, 32.881604], [-94.703873, 32.881604], [-94.720304, 32.903511], [-94.818889, 32.980189], [-94.807935, 33.363574]]]}}, {"type": "Feature", "properties": {"name": "Robertson", "id": "48395", "FIPS": "48395", "FIPS State": 48, "ST": "TX", "County": "Robertson County,TX", "State": "Texas"}, "geometry": {"type": "Polygon", "coordinates": [[[-96.319571, 31.359014], [-96.242894, 30.975628], [-96.566033, 30.696304], [-96.620803, 30.729166], [-96.828926, 31.107075], [-96.598895, 31.222091], [-96.319571, 31.359014]]]}}, {"type": "Feature", "properties": {"name": "Smith", "id": "20183", "FIPS": "20183", "FIPS State": 20, "ST": "KS", "County": "Smith County,KS", "State": "Kansas"}, "geometry": {"type": "Polygon", "coordinates": [[[-98.691086, 40.001626], [-98.50487, 40.001626], [-98.50487, 39.568948], [-98.849917, 39.568948], [-99.04161, 39.568948], [-99.063518, 39.568948], [-99.068995, 40.001626], [-98.723948, 40.001626], [-98.691086, 40.001626]]]}}, {"type": "Feature", "properties": {"name": "Webster", "id": "21233", "FIPS": "21233", "FIPS State": 21, "ST": "KY", "County": "Webster County,KY", "State": "Kentucky"}, "geometry": {"type": "Polygon", "coordinates": [[[-87.49622, 37.646542], [-87.375727, 37.569865], [-87.813882, 37.350787], [-87.802929, 37.378172], [-87.934375, 37.482234], [-87.731728, 37.635588], [-87.49622, 37.646542]]]}}, {"type": "Feature", "properties": {"name": "Castro", "id": "48069", "FIPS": "48069", "FIPS State": 48, "ST": "TX", "County": "Castro County,TX", "State": "Texas"}, "geometry": {"type": "Polygon", "coordinates": [[[-102.004635, 34.74924], [-101.999158, 34.74924], [-101.999158, 34.311085], [-102.092266, 34.311085], [-102.327774, 34.311085], [-102.524944, 34.311085], [-102.524944, 34.74924], [-102.168943, 34.74924], [-102.004635, 34.74924]]]}}, {"type": "Feature", "properties": {"name": "Calhoun", "id": "28013", "FIPS": "28013", "FIPS State": 28, "ST": "MS", "County": "Calhoun County,MS", "State": "Mississippi"}, "geometry": {"type": "Polygon", "coordinates": [[[-89.511734, 34.163208], [-89.243364, 34.163208], [-89.139302, 34.075577], [-89.194071, 33.736006], [-89.506257, 33.719575], [-89.506257, 33.867453], [-89.511734, 34.163208]]]}}, {"type": "Feature", "properties": {"name": "Wayne", "id": "54099", "FIPS": "54099", "FIPS State": 54, "ST": "WV", "County": "Wayne County,WV", "State": "West Virginia"}, "geometry": {"type": "Polygon", "coordinates": [[[-82.561497, 38.40236], [-82.506727, 38.413313], [-82.265742, 38.227097], [-82.30408, 37.942297], [-82.413619, 37.854665], [-82.495773, 37.947773], [-82.605312, 38.249005], [-82.594358, 38.424267], [-82.561497, 38.40236]]]}}, {"type": "Feature", "properties": {"name": "Greene", "id": "13133", "FIPS": "13133", "FIPS State": 13, "ST": "GA", "County": "Greene County,GA", "State": "Georgia"}, "geometry": {"type": "Polygon", "coordinates": [[[-83.28993, 33.736006], [-83.278976, 33.763391], [-82.994175, 33.692191], [-83.010606, 33.467636], [-83.16396, 33.35262], [-83.278976, 33.484067], [-83.404945, 33.697668], [-83.28993, 33.736006]]]}}, {"type": "Feature", "properties": {"name": "Cotton", "id": "40033", "FIPS": "40033", "FIPS State": 40, "ST": "OK", "County": "Cotton County,OK", "State": "Oklahoma"}, "geometry": {"type": "Polygon", "coordinates": [[[-98.143392, 34.508255], [-98.137915, 34.289177], [-98.137915, 34.1413], [-98.422716, 34.081054], [-98.608932, 34.157731], [-98.663701, 34.404193], [-98.143392, 34.508255], [-98.143392, 34.508255]]]}}, {"type": "Feature", "properties": {"name": "Osage", "id": "29151", "FIPS": "29151", "FIPS State": 29, "ST": "MO", "County": "Osage County,MO", "State": "Missouri"}, "geometry": {"type": "Polygon", "coordinates": [[[-91.647741, 38.703591], [-91.642264, 38.703591], [-91.642264, 38.287344], [-91.954449, 38.287344], [-92.195435, 38.292821], [-92.195435, 38.336636], [-92.009219, 38.572145], [-91.647741, 38.703591]]]}}, {"type": "Feature", "properties": {"name": "Bon Homme", "id": "46009", "FIPS": "46009", "FIPS State": 46, "ST": "SD", "County": "Bon Homme County,SD", "State": "South Dakota"}, "geometry": {"type": "Polygon", "coordinates": [[[-97.754529, 43.167298], [-97.639513, 43.167298], [-97.634037, 42.849635], [-98.154346, 42.838681], [-98.077669, 43.167298], [-97.754529, 43.167298]]]}}, {"type": "Feature", "properties": {"name": "Morrow", "id": "41049", "FIPS": "41049", "FIPS State": 41, "ST": "OR", "County": "Morrow County,OR", "State": "Oregon"}, "geometry": {"type": "Polygon", "coordinates": [[[-119.432259, 45.916722], [-119.147458, 45.516905], [-119.163889, 44.996596], [-119.673245, 44.996596], [-119.78826, 45.067796], [-120.001861, 45.81266], [-119.870414, 45.834568], [-119.432259, 45.916722]]]}}, {"type": "Feature", "properties": {"name": "Nemaha", "id": "31127", "FIPS": "31127", "FIPS State": 31, "ST": "NE", "County": "Nemaha County,NE", "State": "Nebraska"}, "geometry": {"type": "Polygon", "coordinates": [[[-96.023816, 40.521935], [-95.71163, 40.521935], [-95.552799, 40.264519], [-95.552799, 40.264519], [-95.673292, 40.264519], [-96.012862, 40.259042], [-96.067632, 40.264519], [-96.067632, 40.521935], [-96.023816, 40.521935]]]}}, {"type": "Feature", "properties": {"name": "Sierra", "id": "35051", "FIPS": "35051", "FIPS State": 35, "ST": "NM", "County": "Sierra County,NM", "State": "New Mexico"}, "geometry": {"type": "Polygon", "coordinates": [[[-106.375233, 33.47859], [-106.347849, 33.390959], [-106.342372, 33.051389], [-107.300836, 32.777542], [-107.300836, 32.607757], [-107.607545, 32.607757], [-108.001885, 33.199266], [-107.711607, 33.47859], [-106.375233, 33.47859]]]}}, {"type": "Feature", "properties": {"name": "Deuel", "id": "46039", "FIPS": "46039", "FIPS State": 46, "ST": "SD", "County": "Deuel County,SD", "State": "South Dakota"}, "geometry": {"type": "Polygon", "coordinates": [[[-96.451017, 44.980165], [-96.451017, 44.804903], [-96.451017, 44.629641], [-96.451017, 44.54201], [-96.883696, 44.54201], [-96.883696, 44.804903], [-96.883696, 44.974688], [-96.451017, 44.980165]]]}}, {"type": "Feature", "properties": {"name": "Lewis", "id": "47101", "FIPS": "47101", "FIPS State": 47, "ST": "TN", "County": "Lewis County,TN", "State": "Tennessee"}, "geometry": {"type": "Polygon", "coordinates": [[[-87.337389, 35.658412], [-87.293573, 35.444812], [-87.435974, 35.455766], [-87.572897, 35.400996], [-87.715298, 35.48315], [-87.660528, 35.60912], [-87.337389, 35.658412]]]}}, {"type": "Feature", "properties": {"name": "Pushmataha", "id": "40127", "FIPS": "40127", "FIPS State": 40, "ST": "OK", "County": "Pushmataha County,OK", "State": "Oklahoma"}, "geometry": {"type": "Polygon", "coordinates": [[[-95.311814, 34.683517], [-95.059875, 34.67804], [-94.939382, 34.508255], [-95.158459, 34.157731], [-95.383014, 34.157731], [-95.777354, 34.157731], [-95.673292, 34.595886], [-95.514461, 34.683517], [-95.311814, 34.683517]]]}}, {"type": "Feature", "properties": {"name": "Winn", "id": "22127", "FIPS": "22127", "FIPS State": 22, "ST": "LA", "County": "Winn County,LA", "State": "Louisiana"}, "geometry": {"type": "Polygon", "coordinates": [[[-92.940299, 32.147694], [-92.814329, 32.147694], [-92.31045, 32.147694], [-92.31045, 31.928616], [-92.36522, 31.797169], [-92.97316, 31.709538], [-92.940299, 32.147694]]]}}, {"type": "Feature", "properties": {"name": "Benton", "id": "18007", "FIPS": "18007", "FIPS State": 18, "ST": "IN", "County": "Benton County,IN", "State": "Indiana"}, "geometry": {"type": "Polygon", "coordinates": [[[-87.326435, 40.735536], [-87.266188, 40.735536], [-87.096403, 40.735536], [-87.096403, 40.560274], [-87.096403, 40.47812], [-87.452404, 40.47812], [-87.529082, 40.47812], [-87.529082, 40.489074], [-87.523605, 40.735536], [-87.326435, 40.735536]]]}}, {"type": "Feature", "properties": {"name": "East Feliciana", "id": "22037", "FIPS": "22037", "FIPS State": 22, "ST": "LA", "County": "East Feliciana County,LA", "State": "Louisiana"}, "geometry": {"type": "Polygon", "coordinates": [[[-91.061708, 30.997536], [-90.8262, 30.997536], [-90.848107, 30.718212], [-90.864538, 30.718212], [-91.297217, 30.647012], [-91.302693, 30.652489], [-91.176724, 30.997536], [-91.061708, 30.997536]]]}}, {"type": "Feature", "properties": {"name": "Broadwater", "id": "30007", "FIPS": "30007", "FIPS State": 30, "ST": "MT", "County": "Broadwater County,MT", "State": "Montana"}, "geometry": {"type": "Polygon", "coordinates": [[[-111.638573, 46.716355], [-111.496173, 46.760171], [-111.063494, 46.190569], [-111.660481, 45.834568], [-111.78645, 46.568478], [-111.638573, 46.716355]]]}}, {"type": "Feature", "properties": {"name": "Wheatland", "id": "30107", "FIPS": "30107", "FIPS State": 30, "ST": "MT", "County": "Wheatland County,MT", "State": "Montana"}, "geometry": {"type": "Polygon", "coordinates": [[[-110.148845, 46.716355], [-109.743552, 46.694447], [-109.387551, 46.694447], [-109.655921, 46.217953], [-110.006445, 46.217953], [-110.280292, 46.217953], [-110.274815, 46.710878], [-110.148845, 46.716355]]]}}, {"type": "Feature", "properties": {"name": "Morrill", "id": "31123", "FIPS": "31123", "FIPS State": 31, "ST": "NE", "County": "Morrill County,NE", "State": "Nebraska"}, "geometry": {"type": "Polygon", "coordinates": [[[-102.700206, 42.006186], [-102.678299, 42.006186], [-102.634483, 41.436584], [-102.754976, 41.436584], [-103.368393, 41.436584], [-103.368393, 41.699478], [-103.362916, 42.000709], [-102.700206, 42.006186]]]}}, {"type": "Feature", "properties": {"name": "Steele", "id": "38091", "FIPS": "38091", "FIPS State": 38, "ST": "ND", "County": "Steele County,ND", "State": "North Dakota"}, "geometry": {"type": "Polygon", "coordinates": [[[-97.979084, 47.67482], [-97.880499, 47.67482], [-97.475205, 47.669343], [-97.453297, 47.236664], [-97.705237, 47.242141], [-97.962653, 47.242141], [-97.984561, 47.67482], [-97.979084, 47.67482]]]}}, {"type": "Feature", "properties": {"name": "Washington", "id": "16087", "FIPS": "16087", "FIPS State": 16, "ST": "ID", "County": "Washington County,ID", "State": "Idaho"}, "geometry": {"type": "Polygon", "coordinates": [[[-116.901913, 44.843241], [-116.299449, 44.443425], [-116.452804, 44.153147], [-116.896436, 44.153147], [-117.219575, 44.301024], [-116.901913, 44.843241]]]}}, {"type": "Feature", "properties": {"name": "Dewey", "id": "46041", "FIPS": "46041", "FIPS State": 46, "ST": "SD", "County": "Dewey County,SD", "State": "South Dakota"}, "geometry": {"type": "Polygon", "coordinates": [[[-100.772323, 45.47309], [-100.339645, 45.47309], [-100.257491, 45.248535], [-100.405368, 44.898011], [-100.717554, 44.772041], [-101.139278, 44.744656], [-101.500756, 44.991119], [-101.467895, 45.47309], [-100.772323, 45.47309]]]}}, {"type": "Feature", "properties": {"name": "Gates", "id": "37073", "FIPS": "37073", "FIPS State": 37, "ST": "NC", "County": "Gates County,NC", "State": "North Carolina"}, "geometry": {"type": "Polygon", "coordinates": [[[-76.914771, 36.551154], [-76.542339, 36.551154], [-76.493047, 36.512815], [-76.454708, 36.375892], [-76.55877, 36.353984], [-76.695693, 36.293737], [-76.914771, 36.545677], [-76.914771, 36.551154]]]}}, {"type": "Feature", "properties": {"name": "Ralls", "id": "29173", "FIPS": "29173", "FIPS State": 29, "ST": "MO", "County": "Ralls County,MO", "State": "Missouri"}, "geometry": {"type": "Polygon", "coordinates": [[[-91.686079, 39.683964], [-91.30817, 39.683964], [-91.176724, 39.596333], [-91.198632, 39.596333], [-91.439617, 39.317009], [-91.718941, 39.338916], [-91.713464, 39.656579], [-91.686079, 39.683964]]]}}, {"type": "Feature", "properties": {"name": "Fallon", "id": "30025", "FIPS": "30025", "FIPS State": 30, "ST": "MT", "County": "Fallon County,MT", "State": "Montana"}, "geometry": {"type": "Polygon", "coordinates": [[[-104.732151, 46.612293], [-104.606182, 46.683493], [-104.047534, 46.639678], [-104.047534, 46.541093], [-104.047534, 46.2782], [-104.047534, 45.944106], [-104.042057, 45.88386], [-104.885506, 46.135799], [-104.732151, 46.612293]]]}}, {"type": "Feature", "properties": {"name": "Jefferson", "id": "28063", "FIPS": "28063", "FIPS State": 28, "ST": "MS", "County": "Jefferson County,MS", "State": "Mississippi"}, "geometry": {"type": "Polygon", "coordinates": [[[-91.247924, 31.86837], [-90.738569, 31.786216], [-90.738569, 31.698584], [-90.738569, 31.610953], [-91.154816, 31.610953], [-91.319124, 31.758831], [-91.346509, 31.753354], [-91.247924, 31.86837]]]}}, {"type": "Feature", "properties": {"name": "Webster", "id": "54101", "FIPS": "54101", "FIPS State": 54, "ST": "WV", "County": "Webster County,WV", "State": "West Virginia"}, "geometry": {"type": "Polygon", "coordinates": [[[-80.458352, 38.74193], [-80.392628, 38.725499], [-80.277612, 38.692637], [-80.244751, 38.385929], [-80.359767, 38.227097], [-80.414536, 38.254482], [-80.436444, 38.265436], [-80.650044, 38.528329], [-80.458352, 38.74193]]]}}, {"type": "Feature", "properties": {"name": "Cleburne", "id": "01029", "FIPS": "01029", "FIPS State": 1, "ST": "AL", "County": "Cleburne County,AL", "State": "Alabama"}, "geometry": {"type": "Polygon", "coordinates": [[[-85.398552, 33.966038], [-85.387598, 33.900315], [-85.338305, 33.653852], [-85.305444, 33.484067], [-85.645014, 33.495021], [-85.853138, 33.500498], [-85.798368, 33.555267], [-85.529998, 33.94413], [-85.398552, 33.966038]]]}}, {"type": "Feature", "properties": {"name": "Pointe Coupee", "id": "22077", "FIPS": "22077", "FIPS State": 22, "ST": "LA", "County": "Pointe Coupee County,LA", "State": "Louisiana"}, "geometry": {"type": "Polygon", "coordinates": [[[-91.762756, 31.00849], [-91.751803, 31.019444], [-91.658695, 30.992059], [-91.664172, 30.970151], [-91.330078, 30.657966], [-91.483432, 30.499135], [-91.521771, 30.499135], [-91.70251, 30.499135], [-91.75728, 30.499135], [-91.817526, 30.849659], [-91.762756, 31.00849]]]}}, {"type": "Feature", "properties": {"name": "Dallam", "id": "48111", "FIPS": "48111", "FIPS State": 48, "ST": "TX", "County": "Dallam County,TX", "State": "Texas"}, "geometry": {"type": "Polygon", "coordinates": [[[-103.001438, 36.501861], [-102.163466, 36.501861], [-102.163466, 36.052752], [-102.30039, 36.052752], [-103.039777, 36.052752], [-103.001438, 36.501861]]]}}, {"type": "Feature", "properties": {"name": "Sullivan", "id": "42113", "FIPS": "42113", "FIPS State": 42, "ST": "PA", "County": "Sullivan County,PA", "State": "Pennsylvania"}, "geometry": {"type": "Polygon", "coordinates": [[[-76.816186, 41.589939], [-76.2192, 41.540646], [-76.284923, 41.376338], [-76.312308, 41.310615], [-76.317785, 41.310615], [-76.449231, 41.277753], [-76.816186, 41.589939]]]}}, {"type": "Feature", "properties": {"name": "Appomattox", "id": "51011", "FIPS": "51011", "FIPS State": 51, "ST": "VA", "County": "Appomattox County,VA", "State": "Virginia"}, "geometry": {"type": "Polygon", "coordinates": [[[-78.826223, 37.553434], [-78.596192, 37.400079], [-78.683823, 37.246725], [-78.6893, 37.246725], [-78.826223, 37.20291], [-79.001485, 37.400079], [-79.017916, 37.427464], [-78.870039, 37.54248], [-78.826223, 37.553434]]]}}, {"type": "Feature", "properties": {"name": "Harrison", "id": "39067", "FIPS": "39067", "FIPS State": 39, "ST": "OH", "County": "Harrison County,OH", "State": "Ohio"}, "geometry": {"type": "Polygon", "coordinates": [[[-81.186785, 40.434304], [-80.940322, 40.423351], [-80.885553, 40.160457], [-81.219646, 40.171411], [-81.225123, 40.171411], [-81.340139, 40.215227], [-81.268939, 40.434304], [-81.186785, 40.434304]]]}}, {"type": "Feature", "properties": {"name": "Red Lake", "id": "27125", "FIPS": "27125", "FIPS State": 27, "ST": "MN", "County": "Red Lake County,MN", "State": "Minnesota"}, "geometry": {"type": "Polygon", "coordinates": [[[-95.8376, 47.965097], [-95.71163, 47.937713], [-96.352432, 47.762451], [-96.483879, 47.965097], [-95.8376, 47.965097]]]}}, {"type": "Feature", "properties": {"name": "Schuyler", "id": "17169", "FIPS": "17169", "FIPS State": 17, "ST": "IL", "County": "Schuyler County,IL", "State": "Illinois"}, "geometry": {"type": "Polygon", "coordinates": [[[-90.908354, 40.286427], [-90.448291, 40.275473], [-90.201828, 40.182365], [-90.355183, 40.122119], [-90.514014, 39.985195], [-90.913831, 40.105688], [-90.913831, 40.193319], [-90.908354, 40.286427]]]}}, {"type": "Feature", "properties": {"name": "Coleman", "id": "48083", "FIPS": "48083", "FIPS State": 48, "ST": "TX", "County": "Coleman County,TX", "State": "Texas"}, "geometry": {"type": "Polygon", "coordinates": [[[-99.63312, 32.08197], [-99.194965, 32.08197], [-99.200441, 31.468553], [-99.430473, 31.468553], [-99.600258, 31.490461], [-99.720751, 31.578092], [-99.715274, 32.08197], [-99.63312, 32.08197]]]}}, {"type": "Feature", "properties": {"name": "Chicot", "id": "05017", "FIPS": "05017", "FIPS State": 5, "ST": "AR", "County": "Chicot County,AR", "State": "Arkansas"}, "geometry": {"type": "Polygon", "coordinates": [[[-91.390325, 33.560744], [-91.231493, 33.560744], [-91.215062, 33.527883], [-91.16577, 33.01305], [-91.16577, 33.002096], [-91.264355, 33.007573], [-91.30817, 33.007573], [-91.43414, 33.007573], [-91.461525, 33.007573], [-91.456048, 33.390959], [-91.456048, 33.566221], [-91.390325, 33.560744]]]}}, {"type": "Feature", "properties": {"name": "Wheeler", "id": "41069", "FIPS": "41069", "FIPS State": 41, "ST": "OR", "County": "Wheeler County,OR", "State": "Oregon"}, "geometry": {"type": "Polygon", "coordinates": [[[-119.870414, 45.067796], [-119.78826, 45.067796], [-119.673245, 44.996596], [-119.656814, 44.306501], [-120.385247, 44.563917], [-120.374293, 44.821334], [-120.494786, 45.067796], [-119.870414, 45.067796]]]}}, {"type": "Feature", "properties": {"name": "San Saba", "id": "48411", "FIPS": "48411", "FIPS State": 48, "ST": "TX", "County": "San Saba County,TX", "State": "Texas"}, "geometry": {"type": "Polygon", "coordinates": [[[-98.992318, 31.484984], [-98.565116, 31.233045], [-98.439147, 31.030398], [-98.444624, 30.920859], [-98.515824, 30.920859], [-98.964933, 30.920859], [-99.090903, 30.942767], [-99.090903, 31.463076], [-98.992318, 31.484984]]]}}, {"type": "Feature", "properties": {"name": "Menard", "id": "17129", "FIPS": "17129", "FIPS State": 17, "ST": "IL", "County": "Menard County,IL", "State": "Illinois"}, "geometry": {"type": "Polygon", "coordinates": [[[-89.670565, 40.160457], [-89.599365, 40.122119], [-89.577457, 39.974241], [-89.993705, 39.903041], [-89.993705, 40.105688], [-89.670565, 40.160457]]]}}, {"type": "Feature", "properties": {"name": "Lawrence", "id": "29109", "FIPS": "29109", "FIPS State": 29, "ST": "MO", "County": "Lawrence County,MO", "State": "Missouri"}, "geometry": {"type": "Polygon", "coordinates": [[[-94.008302, 37.290541], [-93.624916, 37.279587], [-93.608485, 37.098848], [-93.608485, 36.994786], [-93.608485, 36.923586], [-94.008302, 36.929063], [-94.063071, 36.929063], [-94.057594, 37.049555], [-94.052118, 37.290541], [-94.008302, 37.290541]]]}}, {"type": "Feature", "properties": {"name": "Clark", "id": "29045", "FIPS": "29045", "FIPS State": 29, "ST": "MO", "County": "Clark County,MO", "State": "Missouri"}, "geometry": {"type": "Polygon", "coordinates": [[[-91.833957, 40.609566], [-91.718941, 40.598613], [-91.417709, 40.379535], [-91.499863, 40.248088], [-91.948972, 40.259042], [-91.948972, 40.302858], [-91.943495, 40.60409], [-91.833957, 40.609566]]]}}]}