{"type": "FeatureCollection", "crs": {"type": "name", "properties": {"name": "urn:ogc:def:crs:OGC:1.3:CRS84"}}, "features": [{"type": "Feature", "properties": {"name": "Fall River", "id": "46047", "FIPS": "46047", "FIPS State": 46, "ST": "SD", "County": "Fall River County,SD", "State": "South Dakota"}, "geometry": {"type": "Polygon", "coordinates": [[[-103.937995, 43.479483], [-103.001438, 43.479483], [-103.001438, 43.002989], [-103.324578, 43.002989], [-103.505317, 43.002989], [-104.053011, 43.002989], [-104.053011, 43.479483], [-103.937995, 43.479483]]]}}, {"type": "Feature", "properties": {"name": "Nodaway", "id": "29147", "FIPS": "29147", "FIPS State": 29, "ST": "MO", "County": "Nodaway County,MO", "State": "Missouri"}, "geometry": {"type": "Polygon", "coordinates": [[[-95.163936, 40.576705], [-94.917474, 40.576705], [-94.632673, 40.571228], [-94.599812, 40.385012], [-94.605288, 40.127596], [-95.043444, 40.127596], [-95.180367, 40.264519], [-95.202275, 40.576705], [-95.163936, 40.576705]]]}}, {"type": "Feature", "properties": {"name": "Lancaster", "id": "45057", "FIPS": "45057", "FIPS State": 45, "ST": "SC", "County": "Lancaster County,SC", "State": "South Carolina"}, "geometry": {"type": "Polygon", "coordinates": [[[-80.907461, 35.077857], [-80.907461, 35.077857], [-80.841737, 35.00118], [-80.562413, 34.814964], [-80.409059, 34.612317], [-80.880076, 34.458962], [-80.880076, 34.541117], [-80.896507, 34.820441], [-80.907461, 35.077857]]]}}, {"type": "Feature", "properties": {"name": "Herkimer", "id": "36043", "FIPS": "36043", "FIPS State": 36, "ST": "NY", "County": "Herkimer County,NY", "State": "New York"}, "geometry": {"type": "Polygon", "coordinates": [[[-75.167627, 44.098377], [-74.855442, 44.070993], [-74.713041, 43.28779], [-74.762334, 43.046805], [-74.762334, 42.860589], [-75.096427, 42.904404], [-75.211443, 42.882497], [-75.112858, 43.616407], [-75.167627, 44.098377]]]}}, {"type": "Feature", "properties": {"name": "Coffee", "id": "13069", "FIPS": "13069", "FIPS State": 13, "ST": "GA", "County": "Coffee County,GA", "State": "Georgia"}, "geometry": {"type": "Polygon", "coordinates": [[[-82.994175, 31.780739], [-82.835344, 31.8136], [-82.62722, 31.6712], [-82.599835, 31.468553], [-82.62722, 31.364491], [-83.142052, 31.419261], [-83.147529, 31.47403], [-82.999652, 31.6712], [-82.994175, 31.780739]]]}}, {"type": "Feature", "properties": {"name": "Pickaway", "id": "39129", "FIPS": "39129", "FIPS State": 39, "ST": "OH", "County": "Pickaway County,OH", "State": "Ohio"}, "geometry": {"type": "Polygon", "coordinates": [[[-83.246114, 39.809933], [-83.246114, 39.81541], [-82.82439, 39.793502], [-82.731282, 39.552517], [-82.742236, 39.470363], [-83.268022, 39.514178], [-83.251591, 39.694917], [-83.246114, 39.809933]]]}}, {"type": "Feature", "properties": {"name": "Erath", "id": "48143", "FIPS": "48143", "FIPS State": 48, "ST": "TX", "County": "Erath County,TX", "State": "Texas"}, "geometry": {"type": "Polygon", "coordinates": [[[-98.066715, 32.509172], [-97.946222, 32.235325], [-97.864068, 32.087447], [-98.006468, 32.016247], [-98.209115, 31.917662], [-98.548686, 32.262709], [-98.477485, 32.514649], [-98.066715, 32.509172]]]}}, {"type": "Feature", "properties": {"name": "Henry", "id": "47079", "FIPS": "47079", "FIPS State": 47, "ST": "TN", "County": "Henry County,TN", "State": "Tennessee"}, "geometry": {"type": "Polygon", "coordinates": [[[-88.514931, 36.501861], [-88.487546, 36.501861], [-88.054868, 36.496384], [-87.989145, 36.359461], [-88.213699, 36.118475], [-88.531362, 36.151337], [-88.514931, 36.501861]]]}}, {"type": "Feature", "properties": {"name": "Marshall", "id": "54051", "FIPS": "54051", "FIPS State": 54, "ST": "WV", "County": "Marshall County,WV", "State": "West Virginia"}, "geometry": {"type": "Polygon", "coordinates": [[[-80.726722, 40.034488], [-80.518598, 40.018057], [-80.518598, 39.963288], [-80.518598, 39.722302], [-80.830783, 39.722302], [-80.81983, 39.848272], [-80.732199, 40.034488], [-80.726722, 40.034488]]]}}, {"type": "Feature", "properties": {"name": "Colleton", "id": "45029", "FIPS": "45029", "FIPS State": 45, "ST": "SC", "County": "Colleton County,SC", "State": "South Carolina"}, "geometry": {"type": "Polygon", "coordinates": [[[-80.792445, 33.182835], [-80.403582, 32.859696], [-80.250228, 32.531079], [-80.474782, 32.487264], [-80.825307, 32.706342], [-81.055338, 33.002096], [-81.082723, 33.024004], [-80.797922, 33.177358], [-80.792445, 33.182835]]]}}, {"type": "Feature", "properties": {"name": "Mariposa", "id": "06043", "FIPS": "06043", "FIPS State": 6, "ST": "CA", "County": "Mariposa County,CA", "State": "California"}, "geometry": {"type": "Polygon", "coordinates": [[[-120.084015, 37.827281], [-119.30629, 37.777988], [-120.051153, 37.181002], [-120.385247, 37.635588], [-120.385247, 37.635588], [-120.084015, 37.827281]]]}}, {"type": "Feature", "properties": {"name": "Jackson", "id": "55053", "FIPS": "55053", "FIPS State": 55, "ST": "WI", "County": "Jackson County,WI", "State": "Wisconsin"}, "geometry": {"type": "Polygon", "coordinates": [[[-91.16577, 44.596779], [-90.924785, 44.596779], [-90.316844, 44.426994], [-90.311367, 44.246255], [-90.311367, 44.153147], [-90.492106, 44.158624], [-90.974077, 44.070993], [-91.149339, 44.081947], [-91.16577, 44.596779]]]}}, {"type": "Feature", "properties": {"name": "Brown", "id": "48049", "FIPS": "48049", "FIPS State": 48, "ST": "TX", "County": "Brown County,TX", "State": "Texas"}, "geometry": {"type": "Polygon", "coordinates": [[[-99.118287, 32.08197], [-98.926594, 32.076493], [-98.669178, 31.698584], [-98.992318, 31.484984], [-99.090903, 31.463076], [-99.200441, 31.468553], [-99.194965, 32.08197], [-99.118287, 32.08197]]]}}, {"type": "Feature", "properties": {"name": "Essex", "id": "36031", "FIPS": "36031", "FIPS State": 36, "ST": "NY", "County": "Essex County,NY", "State": "New York"}, "geometry": {"type": "Polygon", "coordinates": [[[-73.338329, 44.547487], [-73.310944, 44.262686], [-73.376668, 43.8081], [-73.436914, 43.802623], [-73.853161, 43.764284], [-74.055808, 43.742376], [-74.280363, 44.120285], [-73.907931, 44.426994], [-73.338329, 44.547487]]]}}, {"type": "Feature", "properties": {"name": "Greene", "id": "05055", "FIPS": "05055", "FIPS State": 5, "ST": "AR", "County": "Greene County,AR", "State": "Arkansas"}, "geometry": {"type": "Polygon", "coordinates": [[[-90.804292, 36.266353], [-90.190875, 36.200629], [-90.377091, 35.997983], [-90.853584, 35.970598], [-90.809769, 36.151337], [-90.804292, 36.266353]]]}}, {"type": "Feature", "properties": {"name": "Wapello", "id": "19179", "FIPS": "19179", "FIPS State": 19, "ST": "IA", "County": "Wapello County,IA", "State": "Iowa"}, "geometry": {"type": "Polygon", "coordinates": [[[-92.261158, 41.162737], [-92.179004, 41.162737], [-92.179004, 40.899844], [-92.639067, 40.899844], [-92.639067, 41.162737], [-92.409035, 41.162737], [-92.261158, 41.162737]]]}}, {"type": "Feature", "properties": {"name": "Randolph", "id": "17157", "FIPS": "17157", "FIPS State": 17, "ST": "IL", "County": "Randolph County,IL", "State": "Illinois"}, "geometry": {"type": "Polygon", "coordinates": [[[-90.03752, 38.22162], [-89.900597, 38.22162], [-89.703427, 38.22162], [-89.593888, 38.22162], [-89.593888, 37.95325], [-89.676042, 37.805373], [-89.938935, 37.876573], [-90.207305, 38.090174], [-90.03752, 38.22162]]]}}, {"type": "Feature", "properties": {"name": "Roane", "id": "47145", "FIPS": "47145", "FIPS State": 47, "ST": "TN", "County": "Roane County,TN", "State": "Tennessee"}, "geometry": {"type": "Polygon", "coordinates": [[[-84.582488, 35.641982], [-84.620826, 35.641982], [-84.724888, 35.75152], [-84.768704, 35.80629], [-84.779657, 35.822721], [-84.681073, 35.910352], [-84.341502, 36.047275], [-84.270302, 35.910352], [-84.264825, 35.899398], [-84.582488, 35.641982]]]}}, {"type": "Feature", "properties": {"name": "Amherst", "id": "51009", "FIPS": "51009", "FIPS State": 51, "ST": "VA", "County": "Amherst County,VA", "State": "Virginia"}, "geometry": {"type": "Polygon", "coordinates": [[[-79.439641, 37.619157], [-79.171271, 37.805373], [-78.870039, 37.54248], [-79.017916, 37.427464], [-79.083639, 37.394602], [-79.187701, 37.465803], [-79.439641, 37.619157]]]}}, {"type": "Feature", "properties": {"name": "Boone", "id": "19015", "FIPS": "19015", "FIPS State": 19, "ST": "IA", "County": "Boone County,IA", "State": "Iowa"}, "geometry": {"type": "Polygon", "coordinates": [[[-93.931625, 42.208833], [-93.696116, 42.208833], [-93.696116, 41.863786], [-93.772794, 41.863786], [-93.816609, 41.863786], [-94.161656, 41.863786], [-94.167133, 42.208833], [-93.931625, 42.208833]]]}}, {"type": "Feature", "properties": {"name": "Webster", "id": "29225", "FIPS": "29225", "FIPS State": 29, "ST": "MO", "County": "Webster County,MO", "State": "Missouri"}, "geometry": {"type": "Polygon", "coordinates": [[[-93.071745, 37.48771], [-92.852668, 37.482234], [-92.688359, 37.482234], [-92.688359, 37.065986], [-92.90196, 37.071463], [-93.066268, 37.087894], [-93.071745, 37.41651], [-93.071745, 37.48771]]]}}, {"type": "Feature", "properties": {"name": "Jones", "id": "28067", "FIPS": "28067", "FIPS State": 28, "ST": "MS", "County": "Jones County,MS", "State": "Mississippi"}, "geometry": {"type": "Polygon", "coordinates": [[[-88.942132, 31.824554], [-88.942132, 31.435691], [-89.144779, 31.435691], [-89.396718, 31.435691], [-89.402195, 31.797169], [-89.314564, 31.802646], [-88.942132, 31.824554]]]}}, {"type": "Feature", "properties": {"name": "Hancock", "id": "28045", "FIPS": "28045", "FIPS State": 28, "ST": "MS", "County": "Hancock County,MS", "State": "Mississippi"}, "geometry": {"type": "Polygon", "coordinates": [[[-89.495303, 30.647012], [-89.341949, 30.647012], [-89.341949, 30.373165], [-89.522688, 30.181472], [-89.686996, 30.460796], [-89.495303, 30.647012]]]}}, {"type": "Feature", "properties": {"name": "Clarke", "id": "01025", "FIPS": "01025", "FIPS State": 1, "ST": "AL", "County": "Clarke County,AL", "State": "Alabama"}, "geometry": {"type": "Polygon", "coordinates": [[[-87.819359, 31.988862], [-87.666005, 31.988862], [-87.501697, 31.830031], [-87.76459, 31.298768], [-87.945329, 31.194706], [-88.087729, 31.698584], [-88.071299, 31.988862], [-87.819359, 31.988862]]]}}, {"type": "Feature", "properties": {"name": "Ashe", "id": "37009", "FIPS": "37009", "FIPS State": 37, "ST": "NC", "County": "Ashe County,NC", "State": "North Carolina"}, "geometry": {"type": "Polygon", "coordinates": [[[-81.351093, 36.573061], [-81.252508, 36.364938], [-81.477062, 36.238968], [-81.734479, 36.392322], [-81.679709, 36.589492], [-81.351093, 36.573061]]]}}, {"type": "Feature", "properties": {"name": "Cherokee", "id": "40021", "FIPS": "40021", "FIPS State": 40, "ST": "OK", "County": "Cherokee County,OK", "State": "Oklahoma"}, "geometry": {"type": "Polygon", "coordinates": [[[-95.027013, 36.162291], [-95.010582, 36.162291], [-94.796981, 36.162291], [-94.807935, 35.636505], [-94.851751, 35.636505], [-95.125598, 35.636505], [-95.267998, 35.811767], [-95.207752, 36.07466], [-95.027013, 36.162291]]]}}, {"type": "Feature", "properties": {"name": "Jefferson", "id": "17081", "FIPS": "17081", "FIPS State": 17, "ST": "IL", "County": "Jefferson County,IL", "State": "Illinois"}, "geometry": {"type": "Polygon", "coordinates": [[[-88.914747, 38.479037], [-88.701147, 38.47356], [-88.701147, 38.254482], [-88.706624, 38.123036], [-88.816163, 38.128512], [-89.128348, 38.123036], [-89.144779, 38.210667], [-89.144779, 38.47356], [-88.914747, 38.479037]]]}}, {"type": "Feature", "properties": {"name": "Dodge", "id": "31053", "FIPS": "31053", "FIPS State": 31, "ST": "NE", "County": "Dodge County,NE", "State": "Nebraska"}, "geometry": {"type": "Polygon", "coordinates": [[[-96.905603, 41.743293], [-96.555079, 41.743293], [-96.44554, 41.683047], [-96.330525, 41.392769], [-96.461971, 41.392769], [-96.472925, 41.392769], [-96.905603, 41.453015], [-96.905603, 41.453015], [-96.905603, 41.743293]]]}}, {"type": "Feature", "properties": {"name": "Houston", "id": "01069", "FIPS": "01069", "FIPS State": 1, "ST": "AL", "County": "Houston County,AL", "State": "Alabama"}, "geometry": {"type": "Polygon", "coordinates": [[[-85.414983, 31.315199], [-85.086366, 31.309722], [-85.02612, 31.074213], [-85.004212, 31.003013], [-85.486183, 30.997536], [-85.486183, 31.200183], [-85.710737, 31.194706], [-85.414983, 31.315199]]]}}, {"type": "Feature", "properties": {"name": "Floyd", "id": "19067", "FIPS": "19067", "FIPS State": 19, "ST": "IA", "County": "Floyd County,IA", "State": "Iowa"}, "geometry": {"type": "Polygon", "coordinates": [[[-92.797898, 43.211113], [-92.556913, 43.211113], [-92.556913, 42.904404], [-93.022453, 42.909881], [-93.022453, 43.211113], [-92.797898, 43.211113]]]}}, {"type": "Feature", "properties": {"name": "Clay", "id": "18021", "FIPS": "18021", "FIPS State": 18, "ST": "IN", "County": "Clay County,IN", "State": "Indiana"}, "geometry": {"type": "Polygon", "coordinates": [[[-87.200465, 39.607286], [-87.014249, 39.607286], [-86.937572, 39.47584], [-87.052588, 39.169131], [-87.211419, 39.169131], [-87.238804, 39.169131], [-87.238804, 39.256762], [-87.200465, 39.607286]]]}}, {"type": "Feature", "properties": {"name": "Greene", "id": "42059", "FIPS": "42059", "FIPS State": 42, "ST": "PA", "County": "Greene County,PA", "State": "Pennsylvania"}, "geometry": {"type": "Polygon", "coordinates": [[[-80.064012, 40.007103], [-79.998289, 39.985195], [-79.916134, 39.722302], [-80.420013, 39.722302], [-80.518598, 39.722302], [-80.518598, 39.963288], [-80.064012, 40.007103]]]}}, {"type": "Feature", "properties": {"name": "Benton", "id": "27009", "FIPS": "27009", "FIPS State": 27, "ST": "MN", "County": "Benton County,MN", "State": "Minnesota"}, "geometry": {"type": "Polygon", "coordinates": [[[-94.008302, 45.823614], [-93.76184, 45.823614], [-93.76184, 45.560721], [-94.150702, 45.560721], [-94.271195, 45.774321], [-94.008302, 45.823614]]]}}, {"type": "Feature", "properties": {"name": "Person", "id": "37145", "FIPS": "37145", "FIPS State": 37, "ST": "NC", "County": "Person County,NC", "State": "North Carolina"}, "geometry": {"type": "Polygon", "coordinates": [[[-79.138409, 36.5402], [-78.798839, 36.5402], [-78.804316, 36.233491], [-78.952193, 36.238968], [-79.15484, 36.244445], [-79.138409, 36.5402]]]}}, {"type": "Feature", "properties": {"name": "Knox", "id": "23013", "FIPS": "23013", "FIPS State": 23, "ST": "ME", "County": "Knox County,ME", "State": "Maine"}, "geometry": {"type": "Polygon", "coordinates": [[[-69.411363, 44.328409], [-69.027977, 44.251732], [-69.373024, 43.966931], [-69.411363, 44.328409]]]}}, {"type": "Feature", "properties": {"name": "Snyder", "id": "42109", "FIPS": "42109", "FIPS State": 42, "ST": "PA", "County": "Snyder County,PA", "State": "Pennsylvania"}, "geometry": {"type": "Polygon", "coordinates": [[[-76.854525, 40.88889], [-76.799755, 40.883413], [-76.936679, 40.636951], [-77.133849, 40.686244], [-77.287203, 40.691721], [-77.358403, 40.806736], [-76.854525, 40.88889]]]}}, {"type": "Feature", "properties": {"name": "Brown", "id": "39015", "FIPS": "39015", "FIPS State": 39, "ST": "OH", "County": "Brown County,OH", "State": "Ohio"}, "geometry": {"type": "Polygon", "coordinates": [[[-83.990978, 39.256762], [-83.865008, 39.245808], [-83.673316, 39.021254], [-83.706177, 38.637868], [-83.848578, 38.747407], [-83.903347, 38.769315], [-84.051224, 38.769315], [-83.990978, 39.256762]]]}}, {"type": "Feature", "properties": {"name": "Marinette", "id": "55075", "FIPS": "55075", "FIPS State": 55, "ST": "WI", "County": "Marinette County,WI", "State": "Wisconsin"}, "geometry": {"type": "Polygon", "coordinates": [[[-88.060345, 45.779798], [-87.846744, 45.725029], [-87.589328, 45.095181], [-87.76459, 44.963734], [-88.4273, 45.374505], [-88.4273, 45.725029], [-88.060345, 45.779798]]]}}, {"type": "Feature", "properties": {"name": "Mercer", "id": "39107", "FIPS": "39107", "FIPS State": 39, "ST": "OH", "County": "Mercer County,OH", "State": "Ohio"}, "geometry": {"type": "Polygon", "coordinates": [[[-84.774181, 40.730059], [-84.456518, 40.686244], [-84.43461, 40.35215], [-84.43461, 40.35215], [-84.456518, 40.35215], [-84.801565, 40.35215], [-84.801565, 40.571228], [-84.801565, 40.730059], [-84.774181, 40.730059]]]}}, {"type": "Feature", "properties": {"name": "Rutherford", "id": "37161", "FIPS": "37161", "FIPS State": 37, "ST": "NC", "County": "Rutherford County,NC", "State": "North Carolina"}, "geometry": {"type": "Polygon", "coordinates": [[[-81.82211, 35.576258], [-81.690663, 35.581735], [-81.76734, 35.181919], [-81.876879, 35.181919], [-81.969987, 35.187396], [-82.09048, 35.357181], [-82.260265, 35.395519], [-82.265742, 35.466719], [-82.167157, 35.526966], [-81.82211, 35.576258]]]}}, {"type": "Feature", "properties": {"name": "Marshall", "id": "18099", "FIPS": "18099", "FIPS State": 18, "ST": "IN", "County": "Marshall County,IN", "State": "Indiana"}, "geometry": {"type": "Polygon", "coordinates": [[[-86.247477, 41.4804], [-86.061262, 41.4804], [-86.061262, 41.436584], [-86.077692, 41.173691], [-86.242001, 41.173691], [-86.466555, 41.173691], [-86.466555, 41.431108], [-86.247477, 41.4804]]]}}, {"type": "Feature", "properties": {"name": "Juneau", "id": "55057", "FIPS": "55057", "FIPS State": 55, "ST": "WI", "County": "Juneau County,WI", "State": "Wisconsin"}, "geometry": {"type": "Polygon", "coordinates": [[[-90.081336, 44.246255], [-89.900597, 44.251732], [-89.785581, 43.638314], [-90.294936, 43.643791], [-90.311367, 43.638314], [-90.311367, 43.731422], [-90.311367, 44.153147], [-90.311367, 44.246255], [-90.081336, 44.246255]]]}}, {"type": "Feature", "properties": {"name": "Newaygo", "id": "26123", "FIPS": "26123", "FIPS State": 26, "ST": "MI", "County": "Newaygo County,MI", "State": "Michigan"}, "geometry": {"type": "Polygon", "coordinates": [[[-85.63406, 43.813577], [-85.56286, 43.813577], [-85.56286, 43.468529], [-85.56286, 43.293267], [-85.792891, 43.293267], [-86.039354, 43.468529], [-86.039354, 43.813577], [-85.63406, 43.813577]]]}}, {"type": "Feature", "properties": {"name": "Livingston", "id": "17105", "FIPS": "17105", "FIPS State": 17, "ST": "IL", "County": "Livingston County,IL", "State": "Illinois"}, "geometry": {"type": "Polygon", "coordinates": [[[-88.410869, 41.107968], [-88.252038, 41.113445], [-88.246561, 40.992952], [-88.460161, 40.615043], [-88.712101, 40.757444], [-88.931178, 40.751967], [-88.931178, 40.927229], [-88.586131, 41.107968], [-88.410869, 41.107968]]]}}, {"type": "Feature", "properties": {"name": "White", "id": "47185", "FIPS": "47185", "FIPS State": 47, "ST": "TN", "County": "White County,TN", "State": "Tennessee"}, "geometry": {"type": "Polygon", "coordinates": [[[-85.508091, 36.080137], [-85.261628, 35.981552], [-85.267105, 35.795336], [-85.42046, 35.817244], [-85.601199, 35.795336], [-85.683353, 35.833674], [-85.645014, 36.014414], [-85.508091, 36.080137]]]}}, {"type": "Feature", "properties": {"name": "Macon", "id": "37113", "FIPS": "37113", "FIPS State": 37, "ST": "NC", "County": "Macon County,NC", "State": "North Carolina"}, "geometry": {"type": "Polygon", "coordinates": [[[-83.339222, 35.329796], [-83.109191, 35.00118], [-83.481623, 34.995703], [-83.739039, 35.154534], [-83.7007, 35.247642], [-83.678792, 35.280503], [-83.339222, 35.329796]]]}}, {"type": "Feature", "properties": {"name": "Dodge", "id": "27039", "FIPS": "27039", "FIPS State": 27, "ST": "MN", "County": "Dodge County,MN", "State": "Minnesota"}, "geometry": {"type": "Polygon", "coordinates": [[[-92.918391, 44.196962], [-92.677405, 44.196962], [-92.688359, 43.846438], [-92.880052, 43.846438], [-93.04436, 43.846438], [-93.04436, 44.196962], [-93.038884, 44.196962], [-92.918391, 44.196962]]]}}, {"type": "Feature", "properties": {"name": "Robeson", "id": "37155", "FIPS": "37155", "FIPS State": 37, "ST": "NC", "County": "Robeson County,NC", "State": "North Carolina"}, "geometry": {"type": "Polygon", "coordinates": [[[-79.034347, 34.951887], [-78.9029, 34.836871], [-78.870039, 34.48087], [-79.072686, 34.300131], [-79.450595, 34.623271], [-79.461548, 34.628748], [-79.346533, 34.836871], [-79.034347, 34.951887]]]}}, {"type": "Feature", "properties": {"name": "Hillsdale", "id": "26059", "FIPS": "26059", "FIPS State": 26, "ST": "MI", "County": "Hillsdale County,MI", "State": "Michigan"}, "geometry": {"type": "Polygon", "coordinates": [[[-84.36341, 42.07191], [-84.357933, 41.704955], [-84.401749, 41.704955], [-84.807042, 41.694001], [-84.823473, 41.759724], [-84.82895, 42.07191], [-84.708457, 42.07191], [-84.36341, 42.07191]]]}}, {"type": "Feature", "properties": {"name": "Delta", "id": "26041", "FIPS": "26041", "FIPS State": 26, "ST": "MI", "County": "Delta County,MI", "State": "Michigan"}, "geometry": {"type": "Polygon", "coordinates": [[[-87.118311, 46.157707], [-86.614433, 46.157707], [-86.461078, 45.75789], [-86.784218, 45.861952], [-87.266188, 45.549767], [-87.37025, 45.987922], [-87.118311, 46.157707]]]}}, {"type": "Feature", "properties": {"name": "Teton", "id": "56039", "FIPS": "56039", "FIPS State": 56, "ST": "WY", "County": "Teton County,WY", "State": "Wyoming"}, "geometry": {"type": "Polygon", "coordinates": [[[-111.058017, 44.667979], [-110.3734, 44.580348], [-110.055737, 44.010746], [-110.05026, 43.463052], [-110.576047, 43.233021], [-111.047063, 43.315175], [-111.047063, 43.501391], [-111.047063, 43.983362], [-111.047063, 44.476286], [-111.058017, 44.667979]]]}}, {"type": "Feature", "properties": {"name": "Logan", "id": "17107", "FIPS": "17107", "FIPS State": 17, "ST": "IL", "County": "Logan County,IL", "State": "Illinois"}, "geometry": {"type": "Polygon", "coordinates": [[[-89.265272, 40.324766], [-89.150256, 40.28095], [-89.144779, 40.050919], [-89.215979, 39.919472], [-89.489826, 39.974241], [-89.577457, 39.974241], [-89.599365, 40.122119], [-89.604842, 40.319289], [-89.265272, 40.324766]]]}}, {"type": "Feature", "properties": {"name": "Lincoln", "id": "23015", "FIPS": "23015", "FIPS State": 23, "ST": "ME", "County": "Lincoln County,ME", "State": "Maine"}, "geometry": {"type": "Polygon", "coordinates": [[[-69.411363, 44.328409], [-69.373024, 43.966931], [-69.696164, 43.82453], [-69.75641, 44.136716], [-69.504471, 44.34484], [-69.411363, 44.328409]]]}}, {"type": "Feature", "properties": {"name": "Mille Lacs", "id": "27095", "FIPS": "27095", "FIPS State": 27, "ST": "MN", "County": "Mille Lacs County,MN", "State": "Minnesota"}, "geometry": {"type": "Polygon", "coordinates": [[[-93.553716, 46.245338], [-93.433223, 46.15223], [-93.515377, 45.735983], [-93.5099, 45.560721], [-93.652301, 45.560721], [-93.76184, 45.560721], [-93.76184, 45.823614], [-93.811132, 46.157707], [-93.794701, 46.245338], [-93.553716, 46.245338]]]}}, {"type": "Feature", "properties": {"name": "Houghton", "id": "26061", "FIPS": "26061", "FIPS State": 26, "ST": "MI", "County": "Houghton County,MI", "State": "Michigan"}, "geometry": {"type": "Polygon", "coordinates": [[[-88.383484, 47.285957], [-88.23013, 47.198326], [-88.449208, 46.94091], [-88.679239, 46.4206], [-88.712101, 46.4206], [-88.991425, 46.4206], [-88.931178, 47.034018], [-88.514931, 47.285957], [-88.383484, 47.285957]]]}}, {"type": "Feature", "properties": {"name": "Overton", "id": "47133", "FIPS": "47133", "FIPS State": 47, "ST": "TN", "County": "Overton County,TN", "State": "Tennessee"}, "geometry": {"type": "Polygon", "coordinates": [[[-85.283536, 36.534723], [-85.119228, 36.408753], [-85.119228, 36.14586], [-85.497137, 36.304691], [-85.497137, 36.403276], [-85.283536, 36.529246], [-85.283536, 36.534723]]]}}, {"type": "Feature", "properties": {"name": "Jefferson", "id": "47089", "FIPS": "47089", "FIPS State": 47, "ST": "TN", "County": "Jefferson County,TN", "State": "Tennessee"}, "geometry": {"type": "Polygon", "coordinates": [[[-83.602115, 36.151337], [-83.465192, 36.173245], [-83.23516, 36.085614], [-83.311837, 35.893921], [-83.673316, 36.036321], [-83.667839, 36.080137], [-83.602115, 36.151337]]]}}, {"type": "Feature", "properties": {"name": "Fremont", "id": "08043", "FIPS": "08043", "FIPS State": 8, "ST": "CO", "County": "Fremont County,CO", "State": "Colorado"}, "geometry": {"type": "Polygon", "coordinates": [[[-105.329138, 38.698114], [-104.940275, 38.648822], [-104.940275, 38.517375], [-105.049814, 38.259959], [-105.794678, 38.265436], [-106.008278, 38.446175], [-105.96994, 38.692637], [-105.329138, 38.698114]]]}}, {"type": "Feature", "properties": {"name": "Colbert", "id": "01033", "FIPS": "01033", "FIPS State": 1, "ST": "AL", "County": "Colbert County,AL", "State": "Alabama"}, "geometry": {"type": "Polygon", "coordinates": [[[-88.098683, 34.891641], [-87.42502, 34.798533], [-87.529082, 34.568501], [-88.142499, 34.579455], [-88.098683, 34.891641]]]}}, {"type": "Feature", "properties": {"name": "Webster", "id": "19187", "FIPS": "19187", "FIPS State": 19, "ST": "IA", "County": "Webster County,IA", "State": "Iowa"}, "geometry": {"type": "Polygon", "coordinates": [[[-94.44098, 42.646988], [-93.969963, 42.646988], [-93.969963, 42.559357], [-93.931625, 42.208833], [-94.167133, 42.208833], [-94.397165, 42.208833], [-94.44098, 42.559357], [-94.44098, 42.646988]]]}}, {"type": "Feature", "properties": {"name": "Henderson", "id": "48213", "FIPS": "48213", "FIPS State": 48, "ST": "TX", "County": "Henderson County,TX", "State": "Texas"}, "geometry": {"type": "Polygon", "coordinates": [[[-96.215509, 32.361294], [-96.078585, 32.355817], [-95.448737, 32.355817], [-95.459691, 32.13674], [-95.42683, 32.08197], [-96.051201, 32.005293], [-96.056678, 32.01077], [-96.385294, 32.328433], [-96.451017, 32.361294], [-96.215509, 32.361294]]]}}, {"type": "Feature", "properties": {"name": "Plumas", "id": "06063", "FIPS": "06063", "FIPS State": 6, "ST": "CA", "County": "Plumas County,CA", "State": "California"}, "geometry": {"type": "Polygon", "coordinates": [[[-121.119157, 40.445258], [-120.209985, 40.08378], [-120.149738, 39.705871], [-121.009618, 39.640148], [-121.075341, 39.596333], [-121.436819, 40.149503], [-121.497066, 40.445258], [-121.327281, 40.445258], [-121.119157, 40.445258]]]}}, {"type": "Feature", "properties": {"name": "Oldham", "id": "21185", "FIPS": "21185", "FIPS State": 21, "ST": "KY", "County": "Oldham County,KY", "State": "Kentucky"}, "geometry": {"type": "Polygon", "coordinates": [[[-85.639537, 38.380452], [-85.431413, 38.522852], [-85.316398, 38.489991], [-85.283536, 38.358544], [-85.469752, 38.287344], [-85.639537, 38.380452]]]}}, {"type": "Feature", "properties": {"name": "Waushara", "id": "55137", "FIPS": "55137", "FIPS State": 55, "ST": "WI", "County": "Waushara County,WI", "State": "Wisconsin"}, "geometry": {"type": "Polygon", "coordinates": [[[-89.599365, 44.246255], [-89.226933, 44.246255], [-88.887363, 44.240778], [-88.887363, 43.983362], [-88.936655, 43.983362], [-89.166687, 43.983362], [-89.599365, 43.983362], [-89.599365, 44.246255]]]}}, {"type": "Feature", "properties": {"name": "Davie", "id": "37059", "FIPS": "37059", "FIPS State": 37, "ST": "NC", "County": "Davie County,NC", "State": "North Carolina"}, "geometry": {"type": "Polygon", "coordinates": [[[-80.69386, 36.052752], [-80.49669, 36.047275], [-80.398105, 35.970598], [-80.458352, 35.740566], [-80.688383, 35.861059], [-80.710291, 35.850105], [-80.69386, 36.052752]]]}}, {"type": "Feature", "properties": {"name": "Ripley", "id": "18137", "FIPS": "18137", "FIPS State": 18, "ST": "IN", "County": "Ripley County,IN", "State": "Indiana"}, "geometry": {"type": "Polygon", "coordinates": [[[-85.09732, 39.311532], [-85.064458, 39.306055], [-85.130182, 38.950054], [-85.135659, 38.928146], [-85.201382, 38.911715], [-85.299967, 38.911715], [-85.442367, 38.911715], [-85.442367, 39.196516], [-85.29449, 39.267716], [-85.09732, 39.311532]]]}}, {"type": "Feature", "properties": {"name": "Piscataquis", "id": "23021", "FIPS": "23021", "FIPS State": 23, "ST": "ME", "County": "Piscataquis County,ME", "State": "Maine"}, "geometry": {"type": "Polygon", "coordinates": [[[-68.819853, 46.393216], [-68.776038, 45.243058], [-69.356593, 45.073273], [-69.619487, 45.013027], [-69.822133, 45.74146], [-69.723548, 46.573955], [-68.819853, 46.573955], [-68.819853, 46.393216]]]}}, {"type": "Feature", "properties": {"name": "Lincoln", "id": "29113", "FIPS": "29113", "FIPS State": 29, "ST": "MO", "County": "Lincoln County,MO", "State": "Missouri"}, "geometry": {"type": "Polygon", "coordinates": [[[-91.149339, 39.229378], [-90.722138, 39.223901], [-90.667368, 38.933623], [-90.957646, 38.873376], [-91.111001, 38.895284], [-91.264355, 38.993869], [-91.258878, 39.141746], [-91.149339, 39.229378]]]}}, {"type": "Feature", "properties": {"name": "Victoria", "id": "48469", "FIPS": "48469", "FIPS State": 48, "ST": "TX", "County": "Victoria County,TX", "State": "Texas"}, "geometry": {"type": "Polygon", "coordinates": [[[-96.976804, 29.102515], [-96.938465, 29.064176], [-96.64271, 28.713652], [-96.653664, 28.702698], [-96.889173, 28.505528], [-97.146589, 28.549344], [-97.16302, 28.554821], [-97.30542, 28.861529], [-96.976804, 29.102515]]]}}, {"type": "Feature", "properties": {"name": "Henry", "id": "51089", "FIPS": "51089", "FIPS State": 51, "ST": "VA", "County": "Henry County,VA", "State": "Virginia"}, "geometry": {"type": "Polygon", "coordinates": [[[-79.647764, 36.852385], [-79.642287, 36.857862], [-79.713488, 36.5402], [-79.965427, 36.5402], [-80.025673, 36.5402], [-80.053058, 36.5402], [-80.042104, 36.792139], [-79.647764, 36.852385]]]}}, {"type": "Feature", "properties": {"name": "Alpena", "id": "26007", "FIPS": "26007", "FIPS State": 26, "ST": "MI", "County": "Alpena County,MI", "State": "Michigan"}, "geometry": {"type": "Polygon", "coordinates": [[[-83.4871, 45.204719], [-83.388515, 45.204719], [-83.322791, 44.859672], [-83.547346, 44.859672], [-83.886916, 44.854195], [-83.881439, 45.204719], [-83.4871, 45.204719]]]}}, {"type": "Feature", "properties": {"name": "Iron", "id": "49021", "FIPS": "49021", "FIPS State": 49, "ST": "UT", "County": "Iron County,UT", "State": "Utah"}, "geometry": {"type": "Polygon", "coordinates": [[[-112.876362, 38.15042], [-112.476545, 38.144943], [-112.684669, 37.54248], [-112.903746, 37.498664], [-112.898269, 37.498664], [-114.053904, 37.602726], [-114.048427, 38.15042], [-112.876362, 38.15042]]]}}, {"type": "Feature", "properties": {"name": "Tazewell", "id": "51185", "FIPS": "51185", "FIPS State": 51, "ST": "VA", "County": "Tazewell County,VA", "State": "Virginia"}, "geometry": {"type": "Polygon", "coordinates": [[[-81.373001, 37.323402], [-81.362047, 37.339833], [-81.225123, 37.235771], [-81.438724, 37.011217], [-81.477062, 36.989309], [-81.778294, 36.956447], [-81.898787, 37.142663], [-81.739956, 37.241248], [-81.373001, 37.323402]]]}}, {"type": "Feature", "properties": {"name": "Kandiyohi", "id": "27067", "FIPS": "27067", "FIPS State": 27, "ST": "MN", "County": "Kandiyohi County,MN", "State": "Minnesota"}, "geometry": {"type": "Polygon", "coordinates": [[[-94.884612, 45.412843], [-94.76412, 45.325212], [-94.758643, 44.892534], [-95.246091, 44.892534], [-95.246091, 45.14995], [-95.257044, 45.412843], [-95.131075, 45.412843], [-94.884612, 45.412843]]]}}, {"type": "Feature", "properties": {"name": "Walton", "id": "12131", "FIPS": "12131", "FIPS State": 12, "ST": "FL", "County": "Walton County,FL", "State": "Florida"}, "geometry": {"type": "Polygon", "coordinates": [[[-86.389878, 30.992059], [-86.187231, 30.992059], [-86.033877, 30.992059], [-85.842184, 30.701781], [-85.990061, 30.389596], [-85.995538, 30.269103], [-86.395355, 30.378642], [-86.389878, 30.992059]]]}}, {"type": "Feature", "properties": {"name": "Whiteside", "id": "17195", "FIPS": "17195", "FIPS State": 17, "ST": "IL", "County": "Whiteside County,IL", "State": "Illinois"}, "geometry": {"type": "Polygon", "coordinates": [[[-89.889643, 41.929509], [-89.686996, 41.929509], [-89.632227, 41.902124], [-89.632227, 41.584462], [-89.862258, 41.584462], [-90.179921, 41.584462], [-90.185398, 41.584462], [-90.240167, 41.781632], [-90.152536, 41.929509], [-89.889643, 41.929509]]]}}, {"type": "Feature", "properties": {"name": "Rio Arriba", "id": "35039", "FIPS": "35039", "FIPS State": 35, "ST": "NM", "County": "Rio Arriba County,NM", "State": "New Mexico"}, "geometry": {"type": "Polygon", "coordinates": [[[-107.421329, 37.000263], [-106.473818, 36.994786], [-106.008278, 36.994786], [-105.958986, 36.353984], [-105.531785, 36.014414], [-105.718001, 35.976075], [-106.068525, 35.997983], [-106.243787, 35.932259], [-106.249264, 35.965121], [-106.884589, 36.21706], [-107.623976, 36.222537], [-107.421329, 37.000263]]]}}, {"type": "Feature", "properties": {"name": "Noble", "id": "18113", "FIPS": "18113", "FIPS State": 18, "ST": "IN", "County": "Noble County,IN", "State": "Indiana"}, "geometry": {"type": "Polygon", "coordinates": [[[-85.195905, 41.524216], [-85.190428, 41.266799], [-85.305444, 41.266799], [-85.650491, 41.294184], [-85.655968, 41.436584], [-85.655968, 41.524216], [-85.195905, 41.524216]]]}}, {"type": "Feature", "properties": {"name": "Montgomery", "id": "20125", "FIPS": "20125", "FIPS State": 20, "ST": "KS", "County": "Montgomery County,KS", "State": "Kansas"}, "geometry": {"type": "Polygon", "coordinates": [[[-95.96357, 37.389126], [-95.525414, 37.383649], [-95.519938, 37.383649], [-95.519938, 37.000263], [-95.613046, 37.000263], [-95.788308, 37.000263], [-95.9088, 37.000263], [-95.96357, 37.000263], [-95.96357, 37.301494], [-95.96357, 37.389126]]]}}, {"type": "Feature", "properties": {"name": "Ogle", "id": "17141", "FIPS": "17141", "FIPS State": 17, "ST": "IL", "County": "Ogle County,IL", "State": "Illinois"}, "geometry": {"type": "Polygon", "coordinates": [[[-89.281702, 42.203356], [-88.942132, 42.154064], [-88.942132, 41.891171], [-89.544596, 41.902124], [-89.632227, 41.902124], [-89.686996, 41.929509], [-89.686996, 42.197879], [-89.396718, 42.203356], [-89.281702, 42.203356]]]}}, {"type": "Feature", "properties": {"name": "Tioga", "id": "36107", "FIPS": "36107", "FIPS State": 36, "ST": "NY", "County": "Tioga County,NY", "State": "New York"}, "geometry": {"type": "Polygon", "coordinates": [[[-76.131569, 42.41148], [-76.104184, 42.000709], [-76.147999, 42.000709], [-76.55877, 42.000709], [-76.536862, 42.280033], [-76.252061, 42.406003], [-76.131569, 42.41148]]]}}, {"type": "Feature", "properties": {"name": "Putnam", "id": "12107", "FIPS": "12107", "FIPS State": 12, "ST": "FL", "County": "Putnam County,FL", "State": "Florida"}, "geometry": {"type": "Polygon", "coordinates": [[[-81.581124, 29.841902], [-81.526355, 29.622824], [-81.433247, 29.39827], [-81.679709, 29.327069], [-81.844017, 29.518762], [-82.057618, 29.46947], [-82.052141, 29.715932], [-82.046664, 29.715932], [-81.581124, 29.841902]]]}}, {"type": "Feature", "properties": {"name": "Stokes", "id": "37169", "FIPS": "37169", "FIPS State": 37, "ST": "NC", "County": "Stokes County,NC", "State": "North Carolina"}, "geometry": {"type": "Polygon", "coordinates": [[[-80.441921, 36.551154], [-80.053058, 36.5402], [-80.025673, 36.5402], [-80.036627, 36.255399], [-80.036627, 36.255399], [-80.452875, 36.260876], [-80.441921, 36.551154]]]}}, {"type": "Feature", "properties": {"name": "Ford", "id": "20057", "FIPS": "20057", "FIPS State": 20, "ST": "KS", "County": "Ford County,KS", "State": "Kansas"}, "geometry": {"type": "Polygon", "coordinates": [[[-99.874105, 37.914912], [-99.567396, 37.914912], [-99.56192, 37.734173], [-99.556443, 37.465803], [-100.054844, 37.47128], [-100.109614, 37.476757], [-100.213675, 37.476757], [-100.224629, 37.914912], [-99.874105, 37.914912]]]}}, {"type": "Feature", "properties": {"name": "Atchison", "id": "20005", "FIPS": "20005", "FIPS State": 20, "ST": "KS", "County": "Atchison County,KS", "State": "Kansas"}, "geometry": {"type": "Polygon", "coordinates": [[[-95.393968, 39.651102], [-95.339199, 39.651102], [-95.054398, 39.623717], [-95.10369, 39.530609], [-94.966767, 39.42107], [-95.065351, 39.42107], [-95.180367, 39.42107], [-95.465168, 39.42107], [-95.56923, 39.42107], [-95.563753, 39.651102], [-95.393968, 39.651102]]]}}, {"type": "Feature", "properties": {"name": "Manistee", "id": "26101", "FIPS": "26101", "FIPS State": 26, "ST": "MI", "County": "Manistee County,MI", "State": "Michigan"}, "geometry": {"type": "Polygon", "coordinates": [[[-86.181754, 44.520102], [-85.814799, 44.514625], [-85.820276, 44.164101], [-86.044831, 44.169578], [-86.384401, 44.180532], [-86.231047, 44.520102], [-86.181754, 44.520102]]]}}, {"type": "Feature", "properties": {"name": "Hancock", "id": "39063", "FIPS": "39063", "FIPS State": 39, "ST": "OH", "County": "Hancock County,OH", "State": "Ohio"}, "geometry": {"type": "Polygon", "coordinates": [[[-83.881439, 41.168214], [-83.421376, 41.168214], [-83.421376, 40.992952], [-83.514484, 40.81769], [-83.574731, 40.81769], [-83.881439, 40.81769], [-83.881439, 40.921752], [-83.881439, 41.168214]]]}}, {"type": "Feature", "properties": {"name": "Montgomery", "id": "36057", "FIPS": "36057", "FIPS State": 36, "ST": "NY", "County": "Montgomery County,NY", "State": "New York"}, "geometry": {"type": "Polygon", "coordinates": [[[-74.581595, 42.997512], [-74.099624, 42.981082], [-74.094147, 42.953697], [-74.263932, 42.794866], [-74.647318, 42.827727], [-74.762334, 42.860589], [-74.762334, 43.046805], [-74.581595, 42.997512]]]}}, {"type": "Feature", "properties": {"name": "Stanly", "id": "37167", "FIPS": "37167", "FIPS State": 37, "ST": "NC", "County": "Stanly County,NC", "State": "North Carolina"}, "geometry": {"type": "Polygon", "coordinates": [[[-80.233797, 35.505058], [-80.184505, 35.505058], [-80.074966, 35.14358], [-80.173551, 35.149057], [-80.277612, 35.198349], [-80.507644, 35.187396], [-80.294043, 35.505058], [-80.233797, 35.505058]]]}}, {"type": "Feature", "properties": {"name": "Miami", "id": "18103", "FIPS": "18103", "FIPS State": 18, "ST": "IN", "County": "Miami County,IN", "State": "Indiana"}, "geometry": {"type": "Polygon", "coordinates": [[[-85.946246, 40.998429], [-85.864092, 40.653382], [-85.864092, 40.565751], [-85.875046, 40.565751], [-86.165323, 40.560274], [-86.1708, 40.910798], [-85.946246, 40.998429]]]}}, {"type": "Feature", "properties": {"name": "Lapeer", "id": "26087", "FIPS": "26087", "FIPS State": 26, "ST": "MI", "County": "Lapeer County,MI", "State": "Michigan"}, "geometry": {"type": "Polygon", "coordinates": [[[-83.191345, 43.326129], [-83.120145, 43.326129], [-82.994175, 43.156344], [-82.983221, 42.893451], [-83.098237, 42.887974], [-83.454238, 42.882497], [-83.459715, 43.222067], [-83.191345, 43.326129]]]}}, {"type": "Feature", "properties": {"name": "Shelby", "id": "21211", "FIPS": "21211", "FIPS State": 21, "ST": "KY", "County": "Shelby County,KY", "State": "Kentucky"}, "geometry": {"type": "Polygon", "coordinates": [[[-85.283536, 38.358544], [-84.998735, 38.336636], [-85.02612, 38.128512], [-85.102797, 38.035405], [-85.425936, 38.144943], [-85.469752, 38.287344], [-85.283536, 38.358544]]]}}, {"type": "Feature", "properties": {"name": "Iberia", "id": "22045", "FIPS": "22045", "FIPS State": 22, "ST": "LA", "County": "Iberia County,LA", "State": "Louisiana"}, "geometry": {"type": "Polygon", "coordinates": [[[-91.724418, 30.121226], [-91.368417, 30.060979], [-91.226016, 30.022641], [-91.253401, 29.973348], [-91.472479, 29.956917], [-91.532725, 29.951441], [-91.877772, 29.721409], [-91.97088, 29.803563], [-91.965403, 30.033595], [-91.948972, 30.071933], [-91.724418, 30.121226]]]}}, {"type": "Feature", "properties": {"name": "Polk", "id": "29167", "FIPS": "29167", "FIPS State": 29, "ST": "MO", "County": "Polk County,MO", "State": "Missouri"}, "geometry": {"type": "Polygon", "coordinates": [[[-93.630393, 37.827281], [-93.575624, 37.827281], [-93.186761, 37.805373], [-93.181284, 37.41651], [-93.619439, 37.427464], [-93.613962, 37.575342], [-93.630393, 37.827281]]]}}, {"type": "Feature", "properties": {"name": "Tipton", "id": "47167", "FIPS": "47167", "FIPS State": 47, "ST": "TN", "County": "Tipton County,TN", "State": "Tennessee"}, "geometry": {"type": "Polygon", "coordinates": [[[-89.643181, 35.647459], [-89.50078, 35.581735], [-89.473395, 35.400996], [-89.550073, 35.400996], [-89.632227, 35.373611], [-89.774627, 35.406473], [-90.075859, 35.384565], [-90.141582, 35.439335], [-89.911551, 35.53792], [-89.643181, 35.647459]]]}}, {"type": "Feature", "properties": {"name": "Barry", "id": "26015", "FIPS": "26015", "FIPS State": 26, "ST": "MI", "County": "Barry County,MI", "State": "Michigan"}, "geometry": {"type": "Polygon", "coordinates": [[[-85.130182, 42.772958], [-85.075412, 42.772958], [-85.069935, 42.422434], [-85.299967, 42.416957], [-85.540952, 42.422434], [-85.546429, 42.767481], [-85.310921, 42.767481], [-85.130182, 42.772958]]]}}, {"type": "Feature", "properties": {"name": "Pearl River", "id": "28109", "FIPS": "28109", "FIPS State": 28, "ST": "MS", "County": "Pearl River County,MS", "State": "Mississippi"}, "geometry": {"type": "Polygon", "coordinates": [[[-89.599365, 31.003013], [-89.347426, 31.00849], [-89.341949, 30.909905], [-89.341949, 30.647012], [-89.495303, 30.647012], [-89.686996, 30.460796], [-89.84035, 30.663443], [-89.730812, 31.003013], [-89.654134, 31.003013], [-89.599365, 31.003013]]]}}, {"type": "Feature", "properties": {"name": "Cullman", "id": "01043", "FIPS": "01043", "FIPS State": 1, "ST": "AL", "County": "Cullman County,AL", "State": "Alabama"}, "geometry": {"type": "Polygon", "coordinates": [[[-86.986864, 34.311085], [-86.581571, 34.305608], [-86.455601, 34.261793], [-86.488463, 34.261793], [-86.964957, 33.856499], [-87.151173, 33.993423], [-87.107357, 34.300131], [-87.112834, 34.311085], [-86.986864, 34.311085]]]}}, {"type": "Feature", "properties": {"name": "Morgan", "id": "54065", "FIPS": "54065", "FIPS State": 54, "ST": "WV", "County": "Morgan County,WV", "State": "West Virginia"}, "geometry": {"type": "Polygon", "coordinates": [[[-78.185421, 39.694917], [-78.021113, 39.61824], [-78.229237, 39.393686], [-78.349729, 39.464886], [-78.470222, 39.514178], [-78.333299, 39.634671], [-78.185421, 39.694917]]]}}, {"type": "Feature", "properties": {"name": "Clinton", "id": "26037", "FIPS": "26037", "FIPS State": 26, "ST": "MI", "County": "Clinton County,MI", "State": "Michigan"}, "geometry": {"type": "Polygon", "coordinates": [[[-84.719411, 43.118005], [-84.368887, 43.118005], [-84.36341, 42.778435], [-84.604395, 42.767481], [-84.834427, 42.772958], [-84.834427, 43.118005], [-84.719411, 43.118005]]]}}, {"type": "Feature", "properties": {"name": "Jackson", "id": "18071", "FIPS": "18071", "FIPS State": 18, "ST": "IN", "County": "Jackson County,IN", "State": "Indiana"}, "geometry": {"type": "Polygon", "coordinates": [[[-85.798368, 39.070546], [-85.792891, 38.807653], [-85.885999, 38.736453], [-86.274862, 38.763838], [-86.318678, 38.988392], [-86.318678, 39.048638], [-86.077692, 39.048638], [-85.798368, 39.070546]]]}}, {"type": "Feature", "properties": {"name": "Crawford", "id": "39033", "FIPS": "39033", "FIPS State": 39, "ST": "OH", "County": "Crawford County,OH", "State": "Ohio"}, "geometry": {"type": "Polygon", "coordinates": [[[-82.725805, 40.998429], [-82.725805, 40.713628], [-82.857251, 40.713628], [-82.857251, 40.702674], [-82.977744, 40.702674], [-83.109191, 40.702674], [-83.114668, 40.992952], [-82.829867, 40.998429], [-82.725805, 40.998429]]]}}, {"type": "Feature", "properties": {"name": "Del Norte", "id": "06015", "FIPS": "06015", "FIPS State": 6, "ST": "CA", "County": "Del Norte County,CA", "State": "California"}, "geometry": {"type": "Polygon", "coordinates": [[[-124.213628, 42.000709], [-123.819288, 41.995232], [-123.518057, 42.000709], [-123.660457, 41.381815], [-124.054797, 41.463969], [-124.065751, 41.463969], [-124.213628, 42.000709]]]}}, {"type": "Feature", "properties": {"name": "Dunn", "id": "55033", "FIPS": "55033", "FIPS State": 55, "ST": "WI", "County": "Dunn County,WI", "State": "Wisconsin"}, "geometry": {"type": "Polygon", "coordinates": [[[-92.157096, 45.210196], [-91.664172, 45.210196], [-91.653218, 44.854195], [-91.647741, 44.68441], [-91.894203, 44.68441], [-92.135188, 44.68441], [-92.135188, 44.859672], [-92.157096, 45.210196]]]}}, {"type": "Feature", "properties": {"name": "Coffee", "id": "47031", "FIPS": "47031", "FIPS State": 47, "ST": "TN", "County": "Coffee County,TN", "State": "Tennessee"}, "geometry": {"type": "Polygon", "coordinates": [[[-86.209139, 35.702228], [-85.984584, 35.658412], [-85.875046, 35.521489], [-85.913384, 35.291457], [-86.214616, 35.346227], [-86.263908, 35.335273], [-86.258431, 35.41195], [-86.258431, 35.41195], [-86.247477, 35.631028], [-86.209139, 35.702228]]]}}, {"type": "Feature", "properties": {"name": "Lake", "id": "30047", "FIPS": "30047", "FIPS State": 30, "ST": "MT", "County": "Lake County,MT", "State": "Montana"}, "geometry": {"type": "Polygon", "coordinates": [[[-114.010088, 48.052728], [-113.632179, 47.598142], [-113.91698, 47.499557], [-114.18535, 47.138079], [-114.601598, 47.789835], [-114.010088, 48.052728]]]}}, {"type": "Feature", "properties": {"name": "Waller", "id": "48473", "FIPS": "48473", "FIPS State": 48, "ST": "TX", "County": "Waller County,TX", "State": "Texas"}, "geometry": {"type": "Polygon", "coordinates": [[[-95.821169, 30.247195], [-95.804738, 30.247195], [-95.804738, 30.088364], [-95.826646, 29.787132], [-95.826646, 29.787132], [-96.03477, 29.726886], [-96.144309, 30.071933], [-96.095016, 30.225288], [-95.821169, 30.247195]]]}}, {"type": "Feature", "properties": {"name": "Allegany", "id": "36003", "FIPS": "36003", "FIPS State": 36, "ST": "NY", "County": "Allegany County,NY", "State": "New York"}, "geometry": {"type": "Polygon", "coordinates": [[[-78.22376, 42.521019], [-78.037544, 42.521019], [-77.725358, 42.471726], [-77.747266, 42.000709], [-78.207329, 42.000709], [-78.305914, 42.000709], [-78.311391, 42.521019], [-78.22376, 42.521019]]]}}, {"type": "Feature", "properties": {"name": "Bryan", "id": "13029", "FIPS": "13029", "FIPS State": 13, "ST": "GA", "County": "Bryan County,GA", "State": "Georgia"}, "geometry": {"type": "Polygon", "coordinates": [[[-81.42777, 32.235325], [-81.389431, 32.098401], [-81.153923, 31.725969], [-81.197738, 31.725969], [-81.707094, 32.087447], [-81.718048, 32.087447], [-81.783771, 32.153171], [-81.433247, 32.240802], [-81.42777, 32.235325]]]}}, {"type": "Feature", "properties": {"name": "Clarendon", "id": "45027", "FIPS": "45027", "FIPS State": 45, "ST": "SC", "County": "Clarendon County,SC", "State": "South Carolina"}, "geometry": {"type": "Polygon", "coordinates": [[[-80.332382, 33.779822], [-79.976381, 33.94413], [-79.877796, 33.883884], [-80.10235, 33.495021], [-80.222843, 33.445728], [-80.49669, 33.560744], [-80.535029, 33.642898], [-80.332382, 33.779822]]]}}, {"type": "Feature", "properties": {"name": "Seneca", "id": "36099", "FIPS": "36099", "FIPS State": 36, "ST": "NY", "County": "Seneca County,NY", "State": "New York"}, "geometry": {"type": "Polygon", "coordinates": [[[-76.712124, 43.024897], [-76.668309, 42.625081], [-76.695693, 42.548403], [-76.70117, 42.548403], [-76.892863, 42.542926], [-76.975017, 42.762004], [-76.964064, 43.013943], [-76.712124, 43.024897]]]}}, {"type": "Feature", "properties": {"name": "Franklin", "id": "37069", "FIPS": "37069", "FIPS State": 37, "ST": "NC", "County": "Franklin County,NC", "State": "North Carolina"}, "geometry": {"type": "Polygon", "coordinates": [[[-78.163514, 36.249922], [-78.004682, 36.200629], [-78.053975, 36.134906], [-78.256622, 35.817244], [-78.546899, 36.01989], [-78.497607, 36.173245], [-78.305914, 36.266353], [-78.163514, 36.249922]]]}}, {"type": "Feature", "properties": {"name": "Cherokee", "id": "37039", "FIPS": "37039", "FIPS State": 37, "ST": "NC", "County": "Cherokee County,NC", "State": "North Carolina"}, "geometry": {"type": "Polygon", "coordinates": [[[-83.7007, 35.247642], [-83.739039, 35.154534], [-84.007409, 34.984749], [-84.127902, 34.990226], [-84.319594, 34.990226], [-84.29221, 35.209303], [-84.029317, 35.291457], [-83.7007, 35.247642]]]}}, {"type": "Feature", "properties": {"name": "Clinton", "id": "42035", "FIPS": "42035", "FIPS State": 42, "ST": "PA", "County": "Clinton County,PA", "State": "Pennsylvania"}, "geometry": {"type": "Polygon", "coordinates": [[[-77.747266, 41.474923], [-77.599389, 41.4804], [-77.144803, 41.069629], [-77.144803, 41.042245], [-77.708927, 41.113445], [-78.037544, 41.151784], [-78.092313, 41.217507], [-77.988251, 41.474923], [-77.747266, 41.474923]]]}}, {"type": "Feature", "properties": {"name": "Rogers", "id": "40131", "FIPS": "40131", "FIPS State": 40, "ST": "OK", "County": "Rogers County,OK", "State": "Oklahoma"}, "geometry": {"type": "Polygon", "coordinates": [[[-95.810215, 36.594969], [-95.432306, 36.594969], [-95.328245, 36.512815], [-95.437783, 36.07466], [-95.618522, 36.162291], [-95.760923, 36.162291], [-95.810215, 36.425184], [-95.810215, 36.594969]]]}}, {"type": "Feature", "properties": {"name": "Addison", "id": "50001", "FIPS": "50001", "FIPS State": 50, "ST": "VT", "County": "Addison County,VT", "State": "Vermont"}, "geometry": {"type": "Polygon", "coordinates": [[[-73.22879, 44.262686], [-72.954943, 44.164101], [-72.741343, 44.027177], [-72.790635, 43.961454], [-72.96042, 43.82453], [-73.365714, 43.75333], [-73.376668, 43.8081], [-73.310944, 44.262686], [-73.22879, 44.262686]]]}}, {"type": "Feature", "properties": {"name": "Bryan", "id": "40013", "FIPS": "40013", "FIPS State": 40, "ST": "OK", "County": "Bryan County,OK", "State": "Oklahoma"}, "geometry": {"type": "Polygon", "coordinates": [[[-96.412679, 34.157731], [-96.407202, 34.157731], [-95.990954, 34.157731], [-95.760923, 33.87293], [-95.843077, 33.840068], [-96.379817, 33.725052], [-96.587941, 33.894838], [-96.587941, 34.113915], [-96.412679, 34.157731]]]}}, {"type": "Feature", "properties": {"name": "White", "id": "05145", "FIPS": "05145", "FIPS State": 5, "ST": "AR", "County": "White County,AR", "State": "Arkansas"}, "geometry": {"type": "Polygon", "coordinates": [[[-91.795618, 35.532443], [-91.582017, 35.532443], [-91.346509, 35.439335], [-91.467002, 35.088811], [-91.587494, 35.023087], [-91.801095, 35.028564], [-92.118758, 35.066903], [-92.113281, 35.362658], [-91.795618, 35.532443]]]}}, {"type": "Feature", "properties": {"name": "New Kent", "id": "51127", "FIPS": "51127", "FIPS State": 51, "ST": "VA", "County": "New Kent County,VA", "State": "Virginia"}, "geometry": {"type": "Polygon", "coordinates": [[[-77.122895, 37.624634], [-76.794278, 37.515095], [-76.739509, 37.465803], [-76.903817, 37.378172], [-77.040741, 37.427464], [-77.177664, 37.493187], [-77.226957, 37.537003], [-77.122895, 37.624634]]]}}, {"type": "Feature", "properties": {"name": "Mower", "id": "27099", "FIPS": "27099", "FIPS State": 27, "ST": "MN", "County": "Mower County,MN", "State": "Minnesota"}, "geometry": {"type": "Polygon", "coordinates": [[[-92.880052, 43.846438], [-92.688359, 43.846438], [-92.447374, 43.835484], [-92.447374, 43.501391], [-92.551436, 43.501391], [-93.022453, 43.501391], [-93.049837, 43.501391], [-93.049837, 43.846438], [-93.04436, 43.846438], [-92.880052, 43.846438]]]}}, {"type": "Feature", "properties": {"name": "Talladega", "id": "01121", "FIPS": "01121", "FIPS State": 1, "ST": "AL", "County": "Talladega County,AL", "State": "Alabama"}, "geometry": {"type": "Polygon", "coordinates": [[[-86.198185, 33.697668], [-86.143416, 33.681237], [-85.798368, 33.555267], [-85.853138, 33.500498], [-85.875046, 33.500498], [-86.176277, 33.106158], [-86.488463, 33.100681], [-86.378924, 33.390959], [-86.198185, 33.697668]]]}}, {"type": "Feature", "properties": {"name": "Warren", "id": "42123", "FIPS": "42123", "FIPS State": 42, "ST": "PA", "County": "Warren County,PA", "State": "Pennsylvania"}, "geometry": {"type": "Polygon", "coordinates": [[[-79.061732, 42.000709], [-78.919331, 42.000709], [-78.95767, 41.6228], [-78.996008, 41.6228], [-79.510841, 41.6228], [-79.614903, 41.6228], [-79.609426, 41.847355], [-79.609426, 42.000709], [-79.061732, 42.000709]]]}}, {"type": "Feature", "properties": {"name": "Becker", "id": "27005", "FIPS": "27005", "FIPS State": 27, "ST": "MN", "County": "Becker County,MN", "State": "Minnesota"}, "geometry": {"type": "Polygon", "coordinates": [[[-95.169413, 47.15451], [-95.163936, 46.803986], [-95.163936, 46.716355], [-96.17717, 46.716355], [-96.193601, 47.149033], [-96.067632, 47.149033], [-95.552799, 47.149033], [-95.169413, 47.15451]]]}}, {"type": "Feature", "properties": {"name": "Cass", "id": "31025", "FIPS": "31025", "FIPS State": 31, "ST": "NE", "County": "Cass County,NE", "State": "Nebraska"}, "geometry": {"type": "Polygon", "coordinates": [[[-96.040247, 41.064153], [-95.881416, 41.053199], [-95.815692, 40.899844], [-95.832123, 40.784829], [-95.892369, 40.784829], [-96.461971, 40.784829], [-96.461971, 41.01486], [-96.319571, 41.047722], [-96.040247, 41.064153]]]}}, {"type": "Feature", "properties": {"name": "Madison", "id": "21151", "FIPS": "21151", "FIPS State": 21, "ST": "KY", "County": "Madison County,KY", "State": "Kentucky"}, "geometry": {"type": "Polygon", "coordinates": [[[-84.270302, 37.914912], [-84.078609, 37.854665], [-84.089563, 37.564388], [-84.199102, 37.520572], [-84.231963, 37.520572], [-84.346979, 37.537003], [-84.527718, 37.767034], [-84.43461, 37.849189], [-84.336025, 37.893004], [-84.270302, 37.914912]]]}}, {"type": "Feature", "properties": {"name": "Shelby", "id": "39149", "FIPS": "39149", "FIPS State": 39, "ST": "OH", "County": "Shelby County,OH", "State": "Ohio"}, "geometry": {"type": "Polygon", "coordinates": [[[-84.105994, 40.483597], [-84.001932, 40.483597], [-84.012886, 40.275473], [-84.02384, 40.182365], [-84.22101, 40.198796], [-84.43461, 40.198796], [-84.43461, 40.35215], [-84.43461, 40.35215], [-84.105994, 40.483597]]]}}, {"type": "Feature", "properties": {"name": "Culpeper", "id": "51047", "FIPS": "51047", "FIPS State": 51, "ST": "VA", "County": "Culpeper County,VA", "State": "Virginia"}, "geometry": {"type": "Polygon", "coordinates": [[[-77.933482, 38.698114], [-77.637727, 38.407836], [-77.621296, 38.369498], [-77.703451, 38.358544], [-77.895143, 38.391406], [-78.092313, 38.309252], [-78.229237, 38.533806], [-77.933482, 38.698114]]]}}, {"type": "Feature", "properties": {"name": "Rhea", "id": "47143", "FIPS": "47143", "FIPS State": 47, "ST": "TN", "County": "Rhea County,TN", "State": "Tennessee"}, "geometry": {"type": "Polygon", "coordinates": [[[-84.768704, 35.80629], [-84.724888, 35.75152], [-85.015166, 35.41195], [-85.130182, 35.455766], [-85.135659, 35.455766], [-84.916581, 35.762474], [-84.779657, 35.822721], [-84.768704, 35.80629]]]}}, {"type": "Feature", "properties": {"name": "Fannin", "id": "48147", "FIPS": "48147", "FIPS State": 48, "ST": "TX", "County": "Fannin County,TX", "State": "Texas"}, "geometry": {"type": "Polygon", "coordinates": [[[-95.843077, 33.840068], [-95.859508, 33.462159], [-95.859508, 33.40739], [-96.297663, 33.35262], [-96.385294, 33.396436], [-96.379817, 33.725052], [-95.843077, 33.840068]]]}}, {"type": "Feature", "properties": {"name": "Madison", "id": "16065", "FIPS": "16065", "FIPS State": 16, "ST": "ID", "County": "Madison County,ID", "State": "Idaho"}, "geometry": {"type": "Polygon", "coordinates": [[[-111.978143, 43.928592], [-111.397588, 43.923115], [-111.397588, 43.621884], [-111.627619, 43.627361], [-111.978143, 43.928592]]]}}, {"type": "Feature", "properties": {"name": "Brookings", "id": "46011", "FIPS": "46011", "FIPS State": 46, "ST": "SD", "County": "Brookings County,SD", "State": "South Dakota"}, "geometry": {"type": "Polygon", "coordinates": [[[-96.451017, 44.54201], [-96.451017, 44.196962], [-96.648187, 44.196962], [-96.889173, 44.196962], [-97.130158, 44.196962], [-97.130158, 44.54201], [-96.883696, 44.54201], [-96.451017, 44.54201]]]}}, {"type": "Feature", "properties": {"name": "Darlington", "id": "45031", "FIPS": "45031", "FIPS State": 45, "ST": "SC", "County": "Darlington County,SC", "State": "South Carolina"}, "geometry": {"type": "Polygon", "coordinates": [[[-79.866842, 34.508255], [-79.828503, 34.530163], [-79.658718, 34.305608], [-80.074966, 34.08653], [-80.244751, 34.322039], [-80.288566, 34.365854], [-80.288566, 34.365854], [-79.866842, 34.508255]]]}}, {"type": "Feature", "properties": {"name": "Orange", "id": "50017", "FIPS": "50017", "FIPS State": 50, "ST": "VT", "County": "Orange County,VT", "State": "Vermont"}, "geometry": {"type": "Polygon", "coordinates": [[[-72.434634, 44.153147], [-72.368911, 44.202439], [-72.040294, 44.153147], [-72.204602, 43.769761], [-72.790635, 43.961454], [-72.741343, 44.027177], [-72.434634, 44.153147]]]}}, {"type": "Feature", "properties": {"name": "Cooke", "id": "48097", "FIPS": "48097", "FIPS State": 48, "ST": "TX", "County": "Cooke County,TX", "State": "Texas"}, "geometry": {"type": "Polygon", "coordinates": [[[-96.943942, 33.949607], [-96.943942, 33.418344], [-97.382097, 33.429298], [-97.486159, 33.434775], [-97.486159, 33.916745], [-96.943942, 33.949607]]]}}, {"type": "Feature", "properties": {"name": "Ottawa", "id": "39123", "FIPS": "39123", "FIPS State": 39, "ST": "OH", "County": "Ottawa County,OH", "State": "Ohio"}, "geometry": {"type": "Polygon", "coordinates": [[[-83.180391, 41.6228], [-83.16396, 41.6228], [-82.692943, 41.491354], [-82.775097, 41.4804], [-82.955836, 41.458492], [-83.415899, 41.502308], [-83.415899, 41.617324], [-83.180391, 41.6228]]]}}, {"type": "Feature", "properties": {"name": "Wayne", "id": "37191", "FIPS": "37191", "FIPS State": 37, "ST": "NC", "County": "Wayne County,NC", "State": "North Carolina"}, "geometry": {"type": "Polygon", "coordinates": [[[-78.064929, 35.587212], [-77.823943, 35.570781], [-77.807512, 35.368135], [-77.834897, 35.176442], [-78.043021, 35.192872], [-78.163514, 35.187396], [-78.305914, 35.28598], [-78.064929, 35.587212]]]}}, {"type": "Feature", "properties": {"name": "Allamakee", "id": "19005", "FIPS": "19005", "FIPS State": 19, "ST": "IA", "County": "Allamakee County,IA", "State": "Iowa"}, "geometry": {"type": "Polygon", "coordinates": [[[-91.368417, 43.501391], [-91.215062, 43.501391], [-91.204109, 43.424714], [-91.176724, 43.079667], [-91.565587, 43.079667], [-91.603925, 43.079667], [-91.609402, 43.501391], [-91.368417, 43.501391]]]}}, {"type": "Feature", "properties": {"name": "Lafayette", "id": "28071", "FIPS": "28071", "FIPS State": 28, "ST": "MS", "County": "Lafayette County,MS", "State": "Mississippi"}, "geometry": {"type": "Polygon", "coordinates": [[[-89.62675, 34.557547], [-89.248841, 34.497301], [-89.248841, 34.376808], [-89.243364, 34.163208], [-89.511734, 34.163208], [-89.719858, 34.190592], [-89.719858, 34.55207], [-89.670565, 34.55207], [-89.62675, 34.557547]]]}}, {"type": "Feature", "properties": {"name": "Muskingum", "id": "39119", "FIPS": "39119", "FIPS State": 39, "ST": "OH", "County": "Muskingum County,OH", "State": "Ohio"}, "geometry": {"type": "Polygon", "coordinates": [[[-82.189065, 40.165934], [-81.718048, 40.149503], [-81.69614, 39.842795], [-81.69614, 39.755164], [-82.074049, 39.771595], [-82.23288, 39.913995], [-82.189065, 40.165934]]]}}, {"type": "Feature", "properties": {"name": "Cass", "id": "26027", "FIPS": "26027", "FIPS State": 26, "ST": "MI", "County": "Cass County,MI", "State": "Michigan"}, "geometry": {"type": "Polygon", "coordinates": [[[-86.22557, 42.07191], [-85.765507, 42.07191], [-85.792891, 41.759724], [-85.990061, 41.759724], [-86.061262, 41.759724], [-86.22557, 41.759724], [-86.22557, 42.07191]]]}}, {"type": "Feature", "properties": {"name": "Angelina", "id": "48005", "FIPS": "48005", "FIPS State": 48, "ST": "TX", "County": "Angelina County,TX", "State": "Texas"}, "geometry": {"type": "Polygon", "coordinates": [[[-94.868182, 31.528799], [-94.325965, 31.222091], [-94.128795, 31.101598], [-94.457411, 31.035875], [-94.561473, 31.057782], [-94.813412, 31.13446], [-94.840797, 31.145414], [-94.950336, 31.342583], [-94.955813, 31.386399], [-95.005105, 31.424737], [-94.868182, 31.528799]]]}}, {"type": "Feature", "properties": {"name": "Morgan", "id": "17137", "FIPS": "17137", "FIPS State": 17, "ST": "IL", "County": "Morgan County,IL", "State": "Illinois"}, "geometry": {"type": "Polygon", "coordinates": [[[-90.585214, 39.875656], [-89.993705, 39.87018], [-89.927981, 39.519655], [-90.152536, 39.519655], [-90.300413, 39.519655], [-90.371614, 39.667533], [-90.601645, 39.788025], [-90.57426, 39.837318], [-90.585214, 39.875656]]]}}, {"type": "Feature", "properties": {"name": "Dearborn", "id": "18029", "FIPS": "18029", "FIPS State": 18, "ST": "IN", "County": "Dearborn County,IN", "State": "Indiana"}, "geometry": {"type": "Polygon", "coordinates": [[[-85.031597, 39.306055], [-84.817996, 39.306055], [-84.817996, 39.103408], [-84.878242, 39.032208], [-84.933012, 39.0103], [-85.130182, 38.950054], [-85.064458, 39.306055], [-85.031597, 39.306055]]]}}, {"type": "Feature", "properties": {"name": "Inyo", "id": "06027", "FIPS": "06027", "FIPS State": 6, "ST": "CA", "County": "Inyo County,CA", "State": "California"}, "geometry": {"type": "Polygon", "coordinates": [[[-117.937054, 37.465803], [-117.832993, 37.465803], [-117.164806, 36.972878], [-115.899633, 36.00346], [-115.647693, 35.80629], [-117.630346, 35.795336], [-118.008255, 35.789859], [-118.358779, 36.742847], [-118.775026, 37.460326], [-117.937054, 37.465803]]]}}, {"type": "Feature", "properties": {"name": "Steele", "id": "27147", "FIPS": "27147", "FIPS State": 27, "ST": "MN", "County": "Steele County,MN", "State": "Minnesota"}, "geometry": {"type": "Polygon", "coordinates": [[[-93.164853, 44.196962], [-93.04436, 44.196962], [-93.04436, 43.846438], [-93.049837, 43.846438], [-93.164853, 43.846438], [-93.405839, 43.846438], [-93.405839, 44.196962], [-93.164853, 44.196962]]]}}, {"type": "Feature", "properties": {"name": "Floyd", "id": "13115", "FIPS": "13115", "FIPS State": 13, "ST": "GA", "County": "Floyd County,GA", "State": "Georgia"}, "geometry": {"type": "Polygon", "coordinates": [[[-85.09732, 34.584932], [-85.069935, 34.584932], [-85.004212, 34.393239], [-85.048028, 34.097484], [-85.42046, 34.081054], [-85.464275, 34.2837], [-85.108274, 34.584932], [-85.09732, 34.584932]]]}}, {"type": "Feature", "properties": {"name": "Chambers", "id": "01017", "FIPS": "01017", "FIPS State": 1, "ST": "AL", "County": "Chambers County,AL", "State": "Alabama"}, "geometry": {"type": "Polygon", "coordinates": [[[-85.404029, 33.106158], [-85.234244, 33.106158], [-85.184951, 32.87065], [-85.130182, 32.74468], [-85.184951, 32.74468], [-85.595722, 32.728249], [-85.595722, 33.106158], [-85.404029, 33.106158]]]}}, {"type": "Feature", "properties": {"name": "Scott", "id": "21209", "FIPS": "21209", "FIPS State": 21, "ST": "KY", "County": "Scott County,KY", "State": "Kentucky"}, "geometry": {"type": "Polygon", "coordinates": [[[-84.555103, 38.495467], [-84.440087, 38.281867], [-84.401749, 38.20519], [-84.626303, 38.117559], [-84.724888, 38.194236], [-84.741319, 38.353067], [-84.582488, 38.47356], [-84.555103, 38.495467]]]}}, {"type": "Feature", "properties": {"name": "Marion", "id": "29127", "FIPS": "29127", "FIPS State": 29, "ST": "MO", "County": "Marion County,MO", "State": "Missouri"}, "geometry": {"type": "Polygon", "coordinates": [[[-91.784664, 39.946857], [-91.43414, 39.946857], [-91.36294, 39.760641], [-91.30817, 39.683964], [-91.686079, 39.683964], [-91.713464, 39.656579], [-91.844911, 39.656579], [-91.839434, 39.946857], [-91.784664, 39.946857]]]}}, {"type": "Feature", "properties": {"name": "Teller", "id": "08119", "FIPS": "08119", "FIPS State": 8, "ST": "CO", "County": "Teller County,CO", "State": "Colorado"}, "geometry": {"type": "Polygon", "coordinates": [[[-105.329138, 39.130793], [-105.329138, 39.130793], [-105.033383, 39.130793], [-104.940275, 38.648822], [-105.329138, 38.698114], [-105.329138, 39.130793]]]}}, {"type": "Feature", "properties": {"name": "Lincoln", "id": "30053", "FIPS": "30053", "FIPS State": 30, "ST": "MT", "County": "Lincoln County,MT", "State": "Montana"}, "geometry": {"type": "Polygon", "coordinates": [[[-114.727567, 49.000239], [-115.012368, 48.019867], [-115.521724, 47.910328], [-115.844863, 48.21156], [-116.04751, 48.217037], [-116.04751, 48.501838], [-116.04751, 49.000239], [-114.727567, 49.000239]]]}}, {"type": "Feature", "properties": {"name": "Bowie", "id": "48037", "FIPS": "48037", "FIPS State": 48, "ST": "TX", "County": "Bowie County,TX", "State": "Texas"}, "geometry": {"type": "Polygon", "coordinates": [[[-94.736735, 33.703145], [-94.484796, 33.637421], [-94.041164, 33.54979], [-94.041164, 33.270466], [-94.194518, 33.297851], [-94.654581, 33.270466], [-94.747689, 33.330713], [-94.736735, 33.703145]]]}}, {"type": "Feature", "properties": {"name": "Logan", "id": "39091", "FIPS": "39091", "FIPS State": 39, "ST": "OH", "County": "Logan County,OH", "State": "Ohio"}, "geometry": {"type": "Polygon", "coordinates": [[[-83.881439, 40.538366], [-83.519961, 40.505505], [-83.552823, 40.231658], [-83.881439, 40.264519], [-84.012886, 40.275473], [-84.001932, 40.483597], [-83.881439, 40.538366]]]}}, {"type": "Feature", "properties": {"name": "Sumner", "id": "20191", "FIPS": "20191", "FIPS State": 20, "ST": "KS", "County": "Sumner County,KS", "State": "Kansas"}, "geometry": {"type": "Polygon", "coordinates": [[[-97.349236, 37.476757], [-97.152066, 37.476757], [-97.146589, 37.000263], [-97.464251, 37.000263], [-97.650467, 37.000263], [-97.803822, 37.000263], [-97.803822, 37.389126], [-97.809299, 37.383649], [-97.809299, 37.476757], [-97.349236, 37.476757]]]}}, {"type": "Feature", "properties": {"name": "Polk", "id": "48373", "FIPS": "48373", "FIPS State": 48, "ST": "TX", "County": "Polk County,TX", "State": "Texas"}, "geometry": {"type": "Polygon", "coordinates": [[[-94.813412, 31.13446], [-94.561473, 31.057782], [-94.545042, 30.526519], [-94.731258, 30.488181], [-94.851751, 30.493658], [-95.202275, 30.822274], [-94.840797, 31.145414], [-94.813412, 31.13446]]]}}, {"type": "Feature", "properties": {"name": "Beltrami", "id": "27007", "FIPS": "27007", "FIPS State": 27, "ST": "MN", "County": "Beltrami County,MN", "State": "Minnesota"}, "geometry": {"type": "Polygon", "coordinates": [[[-95.344675, 48.540176], [-94.430026, 48.364914], [-94.419073, 47.844605], [-94.413596, 47.444788], [-94.671012, 47.411926], [-95.185844, 47.411926], [-95.22966, 48.019867], [-95.580184, 48.019867], [-95.591138, 48.173221], [-95.602092, 48.540176], [-95.344675, 48.540176]]]}}, {"type": "Feature", "properties": {"name": "Barton", "id": "20009", "FIPS": "20009", "FIPS State": 20, "ST": "KS", "County": "Barton County,KS", "State": "Kansas"}, "geometry": {"type": "Polygon", "coordinates": [[[-98.811579, 38.698114], [-98.488439, 38.698114], [-98.482962, 38.522852], [-98.477485, 38.259959], [-98.800625, 38.259959], [-98.910164, 38.259959], [-99.030656, 38.34759], [-99.030656, 38.698114], [-98.811579, 38.698114]]]}}, {"type": "Feature", "properties": {"name": "Kershaw", "id": "45055", "FIPS": "45055", "FIPS State": 45, "ST": "SC", "County": "Kershaw County,SC", "State": "South Carolina"}, "geometry": {"type": "Polygon", "coordinates": [[[-80.387151, 34.595886], [-80.288566, 34.365854], [-80.288566, 34.365854], [-80.480259, 34.168685], [-80.617183, 34.097484], [-80.825307, 34.26727], [-80.880076, 34.458962], [-80.409059, 34.612317], [-80.387151, 34.595886]]]}}, {"type": "Feature", "properties": {"name": "Hoke", "id": "37093", "FIPS": "37093", "FIPS State": 37, "ST": "NC", "County": "Hoke County,NC", "State": "North Carolina"}, "geometry": {"type": "Polygon", "coordinates": [[[-79.127455, 35.165488], [-79.10007, 35.176442], [-79.034347, 34.951887], [-79.346533, 34.836871], [-79.461548, 35.044995], [-79.127455, 35.165488]]]}}, {"type": "Feature", "properties": {"name": "Dawson", "id": "13085", "FIPS": "13085", "FIPS State": 13, "ST": "GA", "County": "Dawson County,GA", "State": "Georgia"}, "geometry": {"type": "Polygon", "coordinates": [[[-84.199102, 34.617794], [-84.188148, 34.601363], [-83.980024, 34.420624], [-83.958116, 34.332993], [-84.259348, 34.332993], [-84.259348, 34.382285], [-84.346979, 34.563024], [-84.199102, 34.617794]]]}}, {"type": "Feature", "properties": {"name": "Columbia", "id": "41009", "FIPS": "41009", "FIPS State": 41, "ST": "OR", "County": "Columbia County,OR", "State": "Oregon"}, "geometry": {"type": "Polygon", "coordinates": [[[-122.784147, 45.850998], [-122.762239, 45.730506], [-122.926547, 45.725029], [-123.134671, 45.779798], [-123.359225, 45.779798], [-123.364702, 46.146753], [-123.211348, 46.174138], [-122.784147, 45.850998]]]}}, {"type": "Feature", "properties": {"name": "Duchesne", "id": "49013", "FIPS": "49013", "FIPS State": 49, "ST": "UT", "County": "Duchesne County,UT", "State": "Utah"}, "geometry": {"type": "Polygon", "coordinates": [[[-110.148845, 40.812213], [-110.000968, 40.812213], [-109.97906, 40.812213], [-109.968106, 39.804456], [-110.855371, 39.81541], [-110.893709, 39.897564], [-110.904663, 40.680767], [-110.148845, 40.812213]]]}}, {"type": "Feature", "properties": {"name": "Caroline", "id": "24011", "FIPS": "24011", "FIPS State": 24, "ST": "MD", "County": "Caroline County,MD", "State": "Maryland"}, "geometry": {"type": "Polygon", "coordinates": [[[-75.748183, 39.141746], [-75.748183, 39.141746], [-75.720798, 38.829561], [-75.709844, 38.637868], [-75.841291, 38.703591], [-75.945353, 38.676207], [-75.95083, 38.917192], [-75.748183, 39.141746]]]}}, {"type": "Feature", "properties": {"name": "Washington", "id": "39167", "FIPS": "39167", "FIPS State": 39, "ST": "OH", "County": "Washington County,OH", "State": "Ohio"}, "geometry": {"type": "Polygon", "coordinates": [[[-81.449678, 39.634671], [-81.28537, 39.607286], [-81.038907, 39.541563], [-81.121061, 39.459409], [-81.373001, 39.344393], [-81.723525, 39.218424], [-81.844017, 39.448455], [-81.586601, 39.585379], [-81.449678, 39.634671]]]}}, {"type": "Feature", "properties": {"name": "Anderson", "id": "47001", "FIPS": "47001", "FIPS State": 47, "ST": "TN", "County": "Anderson County,TN", "State": "Tennessee"}, "geometry": {"type": "Polygon", "coordinates": [[[-84.001932, 36.27183], [-83.941686, 36.184199], [-84.270302, 35.910352], [-84.341502, 36.047275], [-84.440087, 36.162291], [-84.374364, 36.21706], [-84.001932, 36.27183]]]}}, {"type": "Feature", "properties": {"name": "Washington", "id": "36115", "FIPS": "36115", "FIPS State": 36, "ST": "NY", "County": "Washington County,NY", "State": "New York"}, "geometry": {"type": "Polygon", "coordinates": [[[-73.376668, 43.8081], [-73.365714, 43.75333], [-73.256175, 43.315175], [-73.272606, 42.942743], [-73.387622, 42.94822], [-73.634084, 42.942743], [-73.595745, 43.304221], [-73.436914, 43.802623], [-73.376668, 43.8081]]]}}, {"type": "Feature", "properties": {"name": "Butler", "id": "20015", "FIPS": "20015", "FIPS State": 20, "ST": "KS", "County": "Butler County,KS", "State": "Kansas"}, "geometry": {"type": "Polygon", "coordinates": [[[-97.113727, 38.084697], [-96.83988, 38.084697], [-96.522218, 38.084697], [-96.527695, 37.608203], [-96.527695, 37.476757], [-97.080866, 37.476757], [-97.152066, 37.476757], [-97.152066, 37.914912], [-97.152066, 38.090174], [-97.113727, 38.084697]]]}}, {"type": "Feature", "properties": {"name": "Randolph", "id": "37151", "FIPS": "37151", "FIPS State": 37, "ST": "NC", "County": "Randolph County,NC", "State": "North Carolina"}, "geometry": {"type": "Polygon", "coordinates": [[[-80.036627, 35.921306], [-79.543702, 35.899398], [-79.543702, 35.844628], [-79.554656, 35.516012], [-79.768257, 35.510535], [-80.064012, 35.505058], [-80.047581, 35.921306], [-80.036627, 35.921306]]]}}, {"type": "Feature", "properties": {"name": "Langlade", "id": "55067", "FIPS": "55067", "FIPS State": 55, "ST": "WI", "County": "Langlade County,WI", "State": "Wisconsin"}, "geometry": {"type": "Polygon", "coordinates": [[[-89.237887, 45.467613], [-89.046194, 45.462136], [-88.679239, 45.379982], [-88.6409, 45.117088], [-88.974994, 45.117088], [-88.980471, 45.029457], [-88.991425, 45.029457], [-89.221456, 45.029457], [-89.424103, 45.117088], [-89.424103, 45.467613], [-89.237887, 45.467613]]]}}, {"type": "Feature", "properties": {"name": "Muscatine", "id": "19139", "FIPS": "19139", "FIPS State": 19, "ST": "IA", "County": "Muscatine County,IA", "State": "Iowa"}, "geometry": {"type": "Polygon", "coordinates": [[[-91.30817, 41.595416], [-90.8974, 41.595416], [-90.787861, 41.453015], [-91.072662, 41.332523], [-91.368417, 41.425631], [-91.368417, 41.600893], [-91.30817, 41.595416]]]}}, {"type": "Feature", "properties": {"name": "Blaine", "id": "16013", "FIPS": "16013", "FIPS State": 16, "ST": "ID", "County": "Blaine County,ID", "State": "Idaho"}, "geometry": {"type": "Polygon", "coordinates": [[[-114.656367, 43.917638], [-113.796488, 43.567114], [-113.007808, 43.282313], [-113.007808, 43.112528], [-113.23784, 42.625081], [-113.473348, 42.668896], [-113.413102, 43.200159], [-113.714333, 43.200159], [-114.377043, 43.200159], [-114.716614, 43.813577], [-114.990461, 43.857392], [-114.968553, 43.939546], [-114.656367, 43.917638]]]}}, {"type": "Feature", "properties": {"name": "Kay", "id": "40071", "FIPS": "40071", "FIPS State": 40, "ST": "OK", "County": "Kay County,OK", "State": "Oklahoma"}, "geometry": {"type": "Polygon", "coordinates": [[[-96.867265, 37.000263], [-96.752249, 37.000263], [-97.058958, 36.594969], [-97.464251, 36.594969], [-97.464251, 36.594969], [-97.464251, 37.000263], [-97.146589, 37.000263], [-96.867265, 37.000263]]]}}, {"type": "Feature", "properties": {"name": "Franklin", "id": "17055", "FIPS": "17055", "FIPS State": 17, "ST": "IL", "County": "Franklin County,IL", "State": "Illinois"}, "geometry": {"type": "Polygon", "coordinates": [[[-88.816163, 38.128512], [-88.706624, 38.123036], [-88.706624, 37.909435], [-88.706624, 37.865619], [-88.728531, 37.865619], [-89.150256, 37.860142], [-89.177641, 37.947773], [-89.128348, 38.123036], [-88.816163, 38.128512]]]}}, {"type": "Feature", "properties": {"name": "Warren", "id": "47177", "FIPS": "47177", "FIPS State": 47, "ST": "TN", "County": "Warren County,TN", "State": "Tennessee"}, "geometry": {"type": "Polygon", "coordinates": [[[-85.683353, 35.833674], [-85.601199, 35.795336], [-85.557383, 35.532443], [-85.606675, 35.532443], [-85.875046, 35.521489], [-85.984584, 35.658412], [-85.885999, 35.839151], [-85.683353, 35.833674]]]}}, {"type": "Feature", "properties": {"name": "Adams", "id": "31001", "FIPS": "31001", "FIPS State": 31, "ST": "NE", "County": "Adams County,NE", "State": "Nebraska"}, "geometry": {"type": "Polygon", "coordinates": [[[-98.723948, 40.697198], [-98.280315, 40.697198], [-98.280315, 40.697198], [-98.280315, 40.35215], [-98.291269, 40.35215], [-98.723948, 40.35215], [-98.723948, 40.691721], [-98.723948, 40.697198]]]}}, {"type": "Feature", "properties": {"name": "Carlton", "id": "27017", "FIPS": "27017", "FIPS State": 27, "ST": "MN", "County": "Carlton County,MN", "State": "Minnesota"}, "geometry": {"type": "Polygon", "coordinates": [[[-92.49119, 46.765647], [-92.29402, 46.661586], [-92.29402, 46.415123], [-92.962206, 46.4206], [-93.055314, 46.4206], [-93.060791, 46.765647], [-92.49119, 46.765647]]]}}, {"type": "Feature", "properties": {"name": "Isabella", "id": "26073", "FIPS": "26073", "FIPS State": 26, "ST": "MI", "County": "Isabella County,MI", "State": "Michigan"}, "geometry": {"type": "Polygon", "coordinates": [[[-84.752273, 43.813577], [-84.604395, 43.813577], [-84.609872, 43.468529], [-84.774181, 43.468529], [-84.845381, 43.468529], [-85.086366, 43.468529], [-85.086366, 43.813577], [-84.752273, 43.813577]]]}}, {"type": "Feature", "properties": {"name": "Marquette", "id": "26103", "FIPS": "26103", "FIPS State": 26, "ST": "MI", "County": "Marquette County,MI", "State": "Michigan"}, "geometry": {"type": "Polygon", "coordinates": [[[-87.118311, 46.497277], [-87.118311, 46.157707], [-87.37025, 45.987922], [-87.616713, 45.987922], [-87.802929, 46.245338], [-88.115114, 46.245338], [-88.115114, 46.4206], [-88.043914, 46.913525], [-87.118311, 46.497277]]]}}, {"type": "Feature", "properties": {"name": "Gordon", "id": "13129", "FIPS": "13129", "FIPS State": 13, "ST": "GA", "County": "Gordon County,GA", "State": "Georgia"}, "geometry": {"type": "Polygon", "coordinates": [[[-84.916581, 34.634225], [-84.653688, 34.584932], [-84.653688, 34.546593], [-84.653688, 34.415147], [-84.933012, 34.398716], [-85.004212, 34.393239], [-85.069935, 34.584932], [-85.048028, 34.623271], [-84.916581, 34.634225]]]}}, {"type": "Feature", "properties": {"name": "Transylvania", "id": "37175", "FIPS": "37175", "FIPS State": 37, "ST": "NC", "County": "Transylvania County,NC", "State": "North Carolina"}, "geometry": {"type": "Polygon", "coordinates": [[[-82.747713, 35.422904], [-82.572451, 35.14358], [-82.764143, 35.066903], [-82.89559, 35.055949], [-83.010606, 35.028564], [-82.922975, 35.291457], [-82.747713, 35.422904]]]}}, {"type": "Feature", "properties": {"name": "Trempealeau", "id": "55121", "FIPS": "55121", "FIPS State": 55, "ST": "WI", "County": "Trempealeau County,WI", "State": "Wisconsin"}, "geometry": {"type": "Polygon", "coordinates": [[[-91.286263, 44.596779], [-91.16577, 44.596779], [-91.149339, 44.081947], [-91.176724, 44.087424], [-91.423186, 43.983362], [-91.56011, 44.027177], [-91.527248, 44.596779], [-91.286263, 44.596779]]]}}, {"type": "Feature", "properties": {"name": "Albany", "id": "56001", "FIPS": "56001", "FIPS State": 56, "ST": "WY", "County": "Albany County,WY", "State": "Wyoming"}, "geometry": {"type": "Polygon", "coordinates": [[[-106.074002, 42.433388], [-105.285322, 42.433388], [-105.279845, 41.655662], [-105.279845, 40.998429], [-106.189017, 40.998429], [-106.320464, 40.998429], [-106.068525, 41.392769], [-106.074002, 42.433388]]]}}, {"type": "Feature", "properties": {"name": "Lincoln", "id": "55069", "FIPS": "55069", "FIPS State": 55, "ST": "WI", "County": "Lincoln County,WI", "State": "Wisconsin"}, "geometry": {"type": "Polygon", "coordinates": [[[-89.424103, 45.467613], [-89.424103, 45.117088], [-90.042997, 45.122565], [-90.042997, 45.379982], [-90.042997, 45.555244], [-89.424103, 45.467613]]]}}, {"type": "Feature", "properties": {"name": "Brooke", "id": "54009", "FIPS": "54009", "FIPS State": 54, "ST": "WV", "County": "Brooke County,WV", "State": "West Virginia"}, "geometry": {"type": "Polygon", "coordinates": [[[-80.518598, 40.401443], [-80.518598, 40.160457], [-80.682906, 40.187842], [-80.633614, 40.395966], [-80.518598, 40.401443]]]}}]}