{"type": "FeatureCollection", "crs": {"type": "name", "properties": {"name": "urn:ogc:def:crs:OGC:1.3:CRS84"}}, "features": [{"type": "Feature", "properties": {"name": "Bell", "id": "21013", "FIPS": "21013", "FIPS State": 21, "ST": "KY", "County": "Bell County,KY", "State": "Kentucky"}, "geometry": {"type": "Polygon", "coordinates": [[[-83.509007, 36.940016], [-83.492576, 36.896201], [-83.459715, 36.666169], [-83.673316, 36.600446], [-83.930732, 36.589492], [-83.875962, 36.688077], [-83.591161, 36.956447], [-83.509007, 36.940016]]]}}, {"type": "Feature", "properties": {"name": "Cook", "id": "13075", "FIPS": "13075", "FIPS State": 13, "ST": "GA", "County": "Cook County,GA", "State": "Georgia"}, "geometry": {"type": "Polygon", "coordinates": [[[-83.43233, 31.34806], [-83.295407, 31.024921], [-83.383038, 31.030398], [-83.476146, 31.030398], [-83.498053, 31.052306], [-83.574731, 31.07969], [-83.514484, 31.326153], [-83.43233, 31.34806]]]}}, {"type": "Feature", "properties": {"name": "Live Oak", "id": "48297", "FIPS": "48297", "FIPS State": 48, "ST": "TX", "County": "Live Oak County,TX", "State": "Texas"}, "geometry": {"type": "Polygon", "coordinates": [[[-98.099576, 28.784852], [-98.006468, 28.691744], [-97.820252, 28.176912], [-97.880499, 28.056419], [-98.2365, 28.056419], [-98.335085, 28.056419], [-98.335085, 28.615067], [-98.099576, 28.784852]]]}}, {"type": "Feature", "properties": {"name": "Adair", "id": "29001", "FIPS": "29001", "FIPS State": 29, "ST": "MO", "County": "Adair County,MO", "State": "Missouri"}, "geometry": {"type": "Polygon", "coordinates": [[[-92.348789, 40.346673], [-92.348789, 40.302858], [-92.343312, 40.039965], [-92.677405, 40.039965], [-92.847191, 40.039965], [-92.858145, 40.039965], [-92.858145, 40.341196], [-92.682882, 40.341196], [-92.348789, 40.346673]]]}}, {"type": "Feature", "properties": {"name": "Limestone", "id": "48293", "FIPS": "48293", "FIPS State": 48, "ST": "TX", "County": "Limestone County,TX", "State": "Texas"}, "geometry": {"type": "Polygon", "coordinates": [[[-96.719387, 31.8136], [-96.494833, 31.797169], [-96.237417, 31.413784], [-96.319571, 31.359014], [-96.598895, 31.222091], [-96.801542, 31.523322], [-96.932988, 31.709538], [-96.719387, 31.8136]]]}}, {"type": "Feature", "properties": {"name": "Camp", "id": "48063", "FIPS": "48063", "FIPS State": 48, "ST": "TX", "County": "Camp County,TX", "State": "Texas"}, "geometry": {"type": "Polygon", "coordinates": [[[-95.125598, 33.034958], [-94.818889, 32.980189], [-94.720304, 32.903511], [-94.780551, 32.903511], [-95.152983, 32.903511], [-95.152983, 33.01305], [-95.125598, 33.034958]]]}}, {"type": "Feature", "properties": {"name": "Mathews", "id": "51115", "FIPS": "51115", "FIPS State": 51, "ST": "VA", "County": "Mathews County,VA", "State": "Virginia"}, "geometry": {"type": "Polygon", "coordinates": [[[-76.356123, 37.526049], [-76.356123, 37.526049], [-76.405416, 37.400079], [-76.438277, 37.515095], [-76.356123, 37.526049]]]}}, {"type": "Feature", "properties": {"name": "Ida", "id": "19093", "FIPS": "19093", "FIPS State": 19, "ST": "IA", "County": "Ida County,IA", "State": "Iowa"}, "geometry": {"type": "Polygon", "coordinates": [[[-95.465168, 42.559357], [-95.388491, 42.559357], [-95.322768, 42.208833], [-95.64043, 42.208833], [-95.673292, 42.208833], [-95.739015, 42.559357], [-95.465168, 42.559357]]]}}, {"type": "Feature", "properties": {"name": "Clinton", "id": "21053", "FIPS": "21053", "FIPS State": 21, "ST": "KY", "County": "Clinton County,KY", "State": "Kentucky"}, "geometry": {"type": "Polygon", "coordinates": [[[-85.217813, 36.852385], [-85.064458, 36.857862], [-84.976827, 36.616877], [-85.278059, 36.627831], [-85.29449, 36.627831], [-85.217813, 36.852385]]]}}, {"type": "Feature", "properties": {"name": "Lincoln", "id": "40081", "FIPS": "40081", "FIPS State": 40, "ST": "OK", "County": "Lincoln County,OK", "State": "Oklahoma"}, "geometry": {"type": "Polygon", "coordinates": [[[-97.080866, 35.943213], [-96.620803, 35.943213], [-96.620803, 35.636505], [-96.626279, 35.461243], [-97.141112, 35.466719], [-97.141112, 35.724136], [-97.141112, 35.943213], [-97.080866, 35.943213]]]}}, {"type": "Feature", "properties": {"name": "Jefferson", "id": "31095", "FIPS": "31095", "FIPS State": 31, "ST": "NE", "County": "Jefferson County,NE", "State": "Nebraska"}, "geometry": {"type": "Polygon", "coordinates": [[[-97.365666, 40.35215], [-96.916557, 40.35215], [-96.916557, 40.001626], [-97.349236, 40.001626], [-97.371143, 40.001626], [-97.365666, 40.35215]]]}}, {"type": "Feature", "properties": {"name": "Anderson", "id": "21005", "FIPS": "21005", "FIPS State": 21, "ST": "KY", "County": "Anderson County,KY", "State": "Kentucky"}, "geometry": {"type": "Polygon", "coordinates": [[[-84.998735, 38.128512], [-84.867289, 38.117559], [-84.796088, 37.969681], [-85.031597, 37.893004], [-85.152089, 37.898481], [-85.16852, 37.969681], [-85.102797, 38.035405], [-85.02612, 38.128512], [-84.998735, 38.128512]]]}}, {"type": "Feature", "properties": {"name": "Wilkes", "id": "13317", "FIPS": "13317", "FIPS State": 13, "ST": "GA", "County": "Wilkes County,GA", "State": "Georgia"}, "geometry": {"type": "Polygon", "coordinates": [[[-82.731282, 33.982469], [-82.643651, 33.982469], [-82.479343, 33.637421], [-82.649128, 33.610037], [-82.681989, 33.599083], [-82.950359, 33.736006], [-82.780574, 33.971515], [-82.731282, 33.982469]]]}}, {"type": "Feature", "properties": {"name": "Rock", "id": "27133", "FIPS": "27133", "FIPS State": 27, "ST": "MN", "County": "Rock County,MN", "State": "Minnesota"}, "geometry": {"type": "Polygon", "coordinates": [[[-96.451017, 43.851915], [-96.062155, 43.846438], [-96.051201, 43.846438], [-96.051201, 43.501391], [-96.451017, 43.501391], [-96.451017, 43.851915]]]}}, {"type": "Feature", "properties": {"name": "Major", "id": "40093", "FIPS": "40093", "FIPS State": 40, "ST": "OK", "County": "Major County,OK", "State": "Oklahoma"}, "geometry": {"type": "Polygon", "coordinates": [[[-98.959456, 36.501861], [-98.959456, 36.507338], [-98.532255, 36.463523], [-98.105053, 36.463523], [-98.105053, 36.162291], [-98.209115, 36.162291], [-98.488439, 36.162291], [-98.636317, 36.162291], [-98.953979, 36.162291], [-98.959456, 36.501861]]]}}, {"type": "Feature", "properties": {"name": "Holmes", "id": "39075", "FIPS": "39075", "FIPS State": 39, "ST": "OH", "County": "Holmes County,OH", "State": "Ohio"}, "geometry": {"type": "Polygon", "coordinates": [[[-81.657801, 40.669813], [-81.652325, 40.669813], [-81.652325, 40.636951], [-81.707094, 40.445258], [-82.183588, 40.456212], [-82.221926, 40.565751], [-82.128818, 40.669813], [-81.657801, 40.669813]]]}}, {"type": "Feature", "properties": {"name": "Montezuma", "id": "08083", "FIPS": "08083", "FIPS State": 8, "ST": "CO", "County": "Montezuma County,CO", "State": "Colorado"}, "geometry": {"type": "Polygon", "coordinates": [[[-107.9745, 37.641065], [-108.379794, 37.000263], [-109.042503, 37.000263], [-109.042503, 37.482234], [-107.9745, 37.641065]]]}}, {"type": "Feature", "properties": {"name": "Pierce", "id": "38069", "FIPS": "38069", "FIPS State": 38, "ST": "ND", "County": "Pierce County,ND", "State": "North Dakota"}, "geometry": {"type": "Polygon", "coordinates": [[[-99.616689, 48.545653], [-99.490719, 48.545653], [-99.490719, 48.370391], [-99.819336, 48.370391], [-99.813859, 47.850082], [-100.000075, 47.850082], [-100.071275, 47.844605], [-100.197245, 47.850082], [-100.279399, 48.545653], [-100.147952, 48.545653], [-99.616689, 48.545653]]]}}, {"type": "Feature", "properties": {"name": "Union", "id": "28145", "FIPS": "28145", "FIPS State": 28, "ST": "MS", "County": "Union County,MS", "State": "Mississippi"}, "geometry": {"type": "Polygon", "coordinates": [[[-89.09001, 34.595886], [-88.734008, 34.595886], [-88.734008, 34.508255], [-88.827116, 34.365854], [-89.09001, 34.382285], [-89.248841, 34.376808], [-89.248841, 34.497301], [-89.243364, 34.584932], [-89.09001, 34.595886]]]}}, {"type": "Feature", "properties": {"name": "Tishomingo", "id": "28141", "FIPS": "28141", "FIPS State": 28, "ST": "MS", "County": "Tishomingo County,MS", "State": "Mississippi"}, "geometry": {"type": "Polygon", "coordinates": [[[-88.252038, 34.995703], [-88.202745, 34.995703], [-88.098683, 34.891641], [-88.142499, 34.579455], [-88.15893, 34.464439], [-88.328715, 34.464439], [-88.367053, 34.754717], [-88.361576, 34.995703], [-88.252038, 34.995703]]]}}, {"type": "Feature", "properties": {"name": "Pike", "id": "28113", "FIPS": "28113", "FIPS State": 28, "ST": "MS", "County": "Pike County,MS", "State": "Mississippi"}, "geometry": {"type": "Polygon", "coordinates": [[[-90.355183, 31.34806], [-90.262075, 31.34806], [-90.262075, 31.003013], [-90.349706, 31.003013], [-90.371614, 30.997536], [-90.546876, 30.997536], [-90.546876, 31.34806], [-90.355183, 31.34806]]]}}, {"type": "Feature", "properties": {"name": "Robertson", "id": "48395", "FIPS": "48395", "FIPS State": 48, "ST": "TX", "County": "Robertson County,TX", "State": "Texas"}, "geometry": {"type": "Polygon", "coordinates": [[[-96.319571, 31.359014], [-96.242894, 30.975628], [-96.566033, 30.696304], [-96.620803, 30.729166], [-96.828926, 31.107075], [-96.598895, 31.222091], [-96.319571, 31.359014]]]}}, {"type": "Feature", "properties": {"name": "Gillespie", "id": "48171", "FIPS": "48171", "FIPS State": 48, "ST": "TX", "County": "Gillespie County,TX", "State": "Texas"}, "geometry": {"type": "Polygon", "coordinates": [[[-99.304503, 30.499135], [-98.964933, 30.499135], [-98.592501, 30.499135], [-98.587024, 30.137656], [-98.921118, 30.137656], [-99.304503, 30.285534], [-99.304503, 30.499135]]]}}, {"type": "Feature", "properties": {"name": "Conway", "id": "05029", "FIPS": "05029", "FIPS State": 5, "ST": "AR", "County": "Conway County,AR", "State": "Arkansas"}, "geometry": {"type": "Polygon", "coordinates": [[[-92.852668, 35.461243], [-92.480236, 35.368135], [-92.556913, 35.110718], [-93.038884, 35.077857], [-92.896483, 35.170965], [-92.852668, 35.461243]]]}}, {"type": "Feature", "properties": {"name": "Stevens", "id": "27149", "FIPS": "27149", "FIPS State": 27, "ST": "MN", "County": "Stevens County,MN", "State": "Minnesota"}, "geometry": {"type": "Polygon", "coordinates": [[[-96.253848, 45.75789], [-95.760923, 45.75789], [-95.749969, 45.412843], [-95.974524, 45.412843], [-96.116924, 45.412843], [-96.253848, 45.588105], [-96.253848, 45.75789]]]}}, {"type": "Feature", "properties": {"name": "Murray", "id": "27101", "FIPS": "27101", "FIPS State": 27, "ST": "MN", "County": "Murray County,MN", "State": "Minnesota"}, "geometry": {"type": "Polygon", "coordinates": [[[-96.012862, 44.196962], [-95.591138, 44.196962], [-95.459691, 44.196962], [-95.465168, 43.846438], [-96.051201, 43.846438], [-96.062155, 43.846438], [-96.062155, 44.196962], [-96.012862, 44.196962]]]}}, {"type": "Feature", "properties": {"name": "Bennington", "id": "50003", "FIPS": "50003", "FIPS State": 50, "ST": "VT", "County": "Bennington County,VT", "State": "Vermont"}, "geometry": {"type": "Polygon", "coordinates": [[[-73.256175, 43.315175], [-72.867312, 43.298744], [-72.81802, 43.254929], [-72.927559, 42.740096], [-73.020667, 42.740096], [-73.267129, 42.745573], [-73.272606, 42.942743], [-73.256175, 43.315175]]]}}, {"type": "Feature", "properties": {"name": "Mahnomen", "id": "27087", "FIPS": "27087", "FIPS State": 27, "ST": "MN", "County": "Mahnomen County,MN", "State": "Minnesota"}, "geometry": {"type": "Polygon", "coordinates": [[[-95.552799, 47.149033], [-96.067632, 47.149033], [-96.067632, 47.499557], [-95.552799, 47.499557], [-95.552799, 47.149033]]]}}, {"type": "Feature", "properties": {"name": "La Paz", "id": "04012", "FIPS": "04012", "FIPS State": 4, "ST": "AZ", "County": "La Paz County,AZ", "State": "Arizona"}, "geometry": {"type": "Polygon", "coordinates": [[[-113.418579, 34.300131], [-113.330948, 34.316562], [-113.336425, 33.998899], [-113.336425, 33.380005], [-113.993657, 33.462159], [-114.513967, 33.029481], [-114.628982, 33.434775], [-114.43729, 34.081054], [-114.136058, 34.305608], [-113.418579, 34.300131]]]}}, {"type": "Feature", "properties": {"name": "Walsh", "id": "38099", "FIPS": "38099", "FIPS State": 38, "ST": "ND", "County": "Walsh County,ND", "State": "North Dakota"}, "geometry": {"type": "Polygon", "coordinates": [[[-98.017422, 48.545653], [-97.929791, 48.545653], [-97.16302, 48.540176], [-97.141112, 48.195129], [-97.825729, 48.195129], [-97.902407, 48.195129], [-97.91336, 48.195129], [-98.291269, 48.195129], [-98.318654, 48.545653], [-98.017422, 48.545653]]]}}, {"type": "Feature", "properties": {"name": "Atkinson", "id": "13003", "FIPS": "13003", "FIPS State": 13, "ST": "GA", "County": "Atkinson County,GA", "State": "Georgia"}, "geometry": {"type": "Polygon", "coordinates": [[[-83.142052, 31.419261], [-82.62722, 31.364491], [-82.671035, 31.183752], [-82.972267, 31.183752], [-83.032514, 31.183752], [-83.048944, 31.183752], [-83.142052, 31.419261]]]}}, {"type": "Feature", "properties": {"name": "Edwards", "id": "48137", "FIPS": "48137", "FIPS State": 48, "ST": "TX", "County": "Edwards County,TX", "State": "Texas"}, "geometry": {"type": "Polygon", "coordinates": [[[-99.753612, 30.291011], [-99.759089, 30.071933], [-100.016506, 29.622824], [-100.109614, 29.622824], [-100.575153, 29.622824], [-100.701123, 29.622824], [-100.701123, 30.291011], [-100.115091, 30.291011], [-99.753612, 30.291011]]]}}, {"type": "Feature", "properties": {"name": "Musselshell", "id": "30065", "FIPS": "30065", "FIPS State": 30, "ST": "MT", "County": "Musselshell County,MT", "State": "Montana"}, "geometry": {"type": "Polygon", "coordinates": [[[-107.837576, 46.754694], [-107.826623, 46.754694], [-107.782807, 46.497277], [-108.77961, 46.130322], [-109.009642, 46.749217], [-108.631733, 46.749217], [-107.837576, 46.754694]]]}}, {"type": "Feature", "properties": {"name": "Archuleta", "id": "08007", "FIPS": "08007", "FIPS State": 8, "ST": "CO", "County": "Archuleta County,CO", "State": "Colorado"}, "geometry": {"type": "Polygon", "coordinates": [[[-107.131051, 37.421987], [-106.709327, 37.405556], [-106.676465, 37.405556], [-106.473818, 36.994786], [-107.421329, 37.000263], [-107.481575, 37.000263], [-107.481575, 37.421987], [-107.131051, 37.421987]]]}}, {"type": "Feature", "properties": {"name": "Clay", "id": "21051", "FIPS": "21051", "FIPS State": 21, "ST": "KY", "County": "Clay County,KY", "State": "Kentucky"}, "geometry": {"type": "Polygon", "coordinates": [[[-83.574731, 37.279587], [-83.525438, 37.257679], [-83.509007, 37.235771], [-83.509007, 36.940016], [-83.591161, 36.956447], [-83.788331, 37.033124], [-83.870485, 37.055032], [-83.941686, 37.252202], [-83.782854, 37.350787], [-83.574731, 37.279587]]]}}, {"type": "Feature", "properties": {"name": "Clay", "id": "19041", "FIPS": "19041", "FIPS State": 19, "ST": "IA", "County": "Clay County,IA", "State": "Iowa"}, "geometry": {"type": "Polygon", "coordinates": [[[-95.169413, 43.254929], [-94.911997, 43.254929], [-94.911997, 42.909881], [-95.251567, 42.909881], [-95.388491, 42.909881], [-95.388491, 43.254929], [-95.169413, 43.254929]]]}}, {"type": "Feature", "properties": {"name": "Clatsop", "id": "41007", "FIPS": "41007", "FIPS State": 41, "ST": "OR", "County": "Clatsop County,OR", "State": "Oregon"}, "geometry": {"type": "Polygon", "coordinates": [[[-123.364702, 46.146753], [-123.359225, 45.779798], [-123.841196, 45.785275], [-123.967166, 45.785275], [-124.010981, 46.22343], [-123.545441, 46.261769], [-123.364702, 46.146753]]]}}, {"type": "Feature", "properties": {"name": "Wells", "id": "18179", "FIPS": "18179", "FIPS State": 18, "ST": "IN", "County": "Wells County,IN", "State": "Indiana"}, "geometry": {"type": "Polygon", "coordinates": [[[-85.108274, 40.916275], [-85.075412, 40.916275], [-85.069935, 40.565751], [-85.201382, 40.565751], [-85.22329, 40.565751], [-85.447844, 40.565751], [-85.447844, 40.653382], [-85.338305, 40.916275], [-85.108274, 40.916275]]]}}, {"type": "Feature", "properties": {"name": "Socorro", "id": "35053", "FIPS": "35053", "FIPS State": 35, "ST": "NM", "County": "Socorro County,NM", "State": "New Mexico"}, "geometry": {"type": "Polygon", "coordinates": [[[-107.536345, 34.579455], [-107.202251, 34.579455], [-106.419049, 34.442532], [-105.926124, 34.261793], [-106.052094, 33.648375], [-106.375233, 33.47859], [-107.711607, 33.47859], [-107.722561, 34.579455], [-107.536345, 34.579455]]]}}, {"type": "Feature", "properties": {"name": "Kershaw", "id": "45055", "FIPS": "45055", "FIPS State": 45, "ST": "SC", "County": "Kershaw County,SC", "State": "South Carolina"}, "geometry": {"type": "Polygon", "coordinates": [[[-80.387151, 34.595886], [-80.288566, 34.365854], [-80.288566, 34.365854], [-80.480259, 34.168685], [-80.617183, 34.097484], [-80.825307, 34.26727], [-80.880076, 34.458962], [-80.409059, 34.612317], [-80.387151, 34.595886]]]}}, {"type": "Feature", "properties": {"name": "Mills", "id": "19129", "FIPS": "19129", "FIPS State": 19, "ST": "IA", "County": "Mills County,IA", "State": "Iowa"}, "geometry": {"type": "Polygon", "coordinates": [[[-95.673292, 41.157261], [-95.383014, 41.157261], [-95.383014, 40.899844], [-95.519938, 40.899844], [-95.815692, 40.899844], [-95.881416, 41.053199], [-95.881416, 41.157261], [-95.673292, 41.157261]]]}}, {"type": "Feature", "properties": {"name": "Henry", "id": "19087", "FIPS": "19087", "FIPS State": 19, "ST": "IA", "County": "Henry County,IA", "State": "Iowa"}, "geometry": {"type": "Polygon", "coordinates": [[[-91.598448, 41.162737], [-91.483432, 41.162737], [-91.368417, 41.075106], [-91.406755, 40.812213], [-91.603925, 40.812213], [-91.718941, 40.812213], [-91.718941, 40.899844], [-91.713464, 41.162737], [-91.598448, 41.162737]]]}}, {"type": "Feature", "properties": {"name": "Meade", "id": "46093", "FIPS": "46093", "FIPS State": 46, "ST": "SD", "County": "Meade County,SD", "State": "South Dakota"}, "geometry": {"type": "Polygon", "coordinates": [[[-102.042974, 45.040411], [-101.999158, 45.040411], [-101.999158, 44.509148], [-101.999158, 44.509148], [-102.119651, 44.437948], [-102.388021, 44.142193], [-103.450547, 44.142193], [-103.565563, 44.602256], [-102.963099, 44.602256], [-102.957623, 45.040411], [-102.042974, 45.040411]]]}}, {"type": "Feature", "properties": {"name": "Cherokee", "id": "40021", "FIPS": "40021", "FIPS State": 40, "ST": "OK", "County": "Cherokee County,OK", "State": "Oklahoma"}, "geometry": {"type": "Polygon", "coordinates": [[[-95.027013, 36.162291], [-95.010582, 36.162291], [-94.796981, 36.162291], [-94.807935, 35.636505], [-94.851751, 35.636505], [-95.125598, 35.636505], [-95.267998, 35.811767], [-95.207752, 36.07466], [-95.027013, 36.162291]]]}}, {"type": "Feature", "properties": {"name": "Sanborn", "id": "46111", "FIPS": "46111", "FIPS State": 46, "ST": "SD", "County": "Sanborn County,SD", "State": "South Dakota"}, "geometry": {"type": "Polygon", "coordinates": [[[-98.209115, 44.196962], [-97.853114, 44.196962], [-97.847637, 44.196962], [-97.853114, 43.851915], [-97.96813, 43.851915], [-98.203638, 43.851915], [-98.324131, 43.851915], [-98.329608, 43.939546], [-98.329608, 44.196962], [-98.209115, 44.196962]]]}}, {"type": "Feature", "properties": {"name": "Nelson", "id": "38063", "FIPS": "38063", "FIPS State": 38, "ST": "ND", "County": "Nelson County,ND", "State": "North Dakota"}, "geometry": {"type": "Polygon", "coordinates": [[[-97.91336, 48.195129], [-97.902407, 48.195129], [-97.880499, 47.67482], [-97.979084, 47.67482], [-97.984561, 47.67482], [-98.11053, 47.67482], [-98.499393, 47.67482], [-98.526778, 47.844605], [-98.526778, 47.915805], [-98.291269, 48.195129], [-97.91336, 48.195129]]]}}, {"type": "Feature", "properties": {"name": "Furnas", "id": "31065", "FIPS": "31065", "FIPS State": 31, "ST": "NE", "County": "Furnas County,NE", "State": "Nebraska"}, "geometry": {"type": "Polygon", "coordinates": [[[-99.989121, 40.35215], [-99.644074, 40.35215], [-99.63312, 40.35215], [-99.627643, 40.001626], [-100.175337, 40.001626], [-100.191768, 40.001626], [-100.197245, 40.35215], [-100.093183, 40.35215], [-99.989121, 40.35215]]]}}, {"type": "Feature", "properties": {"name": "Franklin", "id": "31061", "FIPS": "31061", "FIPS State": 31, "ST": "NE", "County": "Franklin County,NE", "State": "Nebraska"}, "geometry": {"type": "Polygon", "coordinates": [[[-99.11281, 40.35215], [-98.729425, 40.35215], [-98.723948, 40.001626], [-99.068995, 40.001626], [-99.123764, 40.001626], [-99.178534, 40.001626], [-99.178534, 40.35215], [-99.11281, 40.35215]]]}}, {"type": "Feature", "properties": {"name": "Beckham", "id": "40009", "FIPS": "40009", "FIPS State": 40, "ST": "OK", "County": "Beckham County,OK", "State": "Oklahoma"}, "geometry": {"type": "Polygon", "coordinates": [[[-99.36475, 35.510535], [-99.36475, 35.466719], [-99.359273, 35.116195], [-99.408565, 35.116195], [-99.709797, 35.116195], [-99.890536, 35.028564], [-99.934351, 35.028564], [-100.000075, 35.028564], [-100.000075, 35.181919], [-100.000075, 35.422904], [-99.36475, 35.510535]]]}}, {"type": "Feature", "properties": {"name": "Butte", "id": "46019", "FIPS": "46019", "FIPS State": 46, "ST": "SD", "County": "Butte County,SD", "State": "South Dakota"}, "geometry": {"type": "Polygon", "coordinates": [[[-104.042057, 45.210196], [-102.957623, 45.210196], [-102.957623, 45.040411], [-102.963099, 44.602256], [-103.565563, 44.602256], [-103.812025, 44.602256], [-104.058488, 44.569394], [-104.058488, 44.996596], [-104.042057, 45.210196]]]}}, {"type": "Feature", "properties": {"name": "Nottoway", "id": "51135", "FIPS": "51135", "FIPS State": 51, "ST": "VA", "County": "Nottoway County,VA", "State": "Virginia"}, "geometry": {"type": "Polygon", "coordinates": [[[-78.229237, 37.296018], [-77.796559, 37.191956], [-77.889666, 36.989309], [-78.004682, 37.022171], [-78.240191, 37.120755], [-78.229237, 37.296018]]]}}, {"type": "Feature", "properties": {"name": "Howard", "id": "29089", "FIPS": "29089", "FIPS State": 29, "ST": "MO", "County": "Howard County,MO", "State": "Missouri"}, "geometry": {"type": "Polygon", "coordinates": [[[-92.847191, 39.223901], [-92.70479, 39.322485], [-92.430943, 39.251285], [-92.556913, 38.971961], [-92.918391, 39.032208], [-92.934822, 39.065069], [-92.847191, 39.223901]]]}}, {"type": "Feature", "properties": {"name": "Grant", "id": "27051", "FIPS": "27051", "FIPS State": 27, "ST": "MN", "County": "Grant County,MN", "State": "Minnesota"}, "geometry": {"type": "Polygon", "coordinates": [[[-96.264801, 46.108415], [-95.771877, 46.108415], [-95.760923, 45.75789], [-96.253848, 45.75789], [-96.264801, 46.020784], [-96.264801, 46.108415]]]}}, {"type": "Feature", "properties": {"name": "Benzie", "id": "26019", "FIPS": "26019", "FIPS State": 26, "ST": "MI", "County": "Benzie County,MI", "State": "Michigan"}, "geometry": {"type": "Polygon", "coordinates": [[[-86.039354, 44.777518], [-85.814799, 44.772041], [-85.814799, 44.514625], [-86.181754, 44.520102], [-86.231047, 44.520102], [-86.072215, 44.777518], [-86.039354, 44.777518]]]}}, {"type": "Feature", "properties": {"name": "Lamar", "id": "13171", "FIPS": "13171", "FIPS State": 13, "ST": "GA", "County": "Lamar County,GA", "State": "Georgia"}, "geometry": {"type": "Polygon", "coordinates": [[[-84.040271, 33.204743], [-84.122425, 32.930896], [-84.270302, 32.991142], [-84.248394, 33.188312], [-84.122425, 33.204743], [-84.040271, 33.204743]]]}}, {"type": "Feature", "properties": {"name": "Mason", "id": "26105", "FIPS": "26105", "FIPS State": 26, "ST": "MI", "County": "Mason County,MI", "State": "Michigan"}, "geometry": {"type": "Polygon", "coordinates": [[[-86.384401, 44.180532], [-86.044831, 44.169578], [-86.039354, 43.813577], [-86.433693, 43.819054], [-86.384401, 44.180532]]]}}, {"type": "Feature", "properties": {"name": "Arenac", "id": "26011", "FIPS": "26011", "FIPS State": 26, "ST": "MI", "County": "Arenac County,MI", "State": "Michigan"}, "geometry": {"type": "Polygon", "coordinates": [[[-83.569254, 44.164101], [-83.563777, 44.164101], [-83.908824, 43.912162], [-84.105994, 43.999793], [-84.16624, 43.994316], [-84.16624, 44.164101], [-83.886916, 44.164101], [-83.569254, 44.164101]]]}}, {"type": "Feature", "properties": {"name": "Wythe", "id": "51197", "FIPS": "51197", "FIPS State": 51, "ST": "VA", "County": "Wythe County,VA", "State": "Virginia"}, "geometry": {"type": "Polygon", "coordinates": [[[-80.912938, 37.071463], [-80.743152, 36.87977], [-81.044384, 36.80857], [-81.263462, 36.764754], [-81.378478, 36.95097], [-80.912938, 37.071463]]]}}, {"type": "Feature", "properties": {"name": "Washington", "id": "51191", "FIPS": "51191", "FIPS State": 51, "ST": "VA", "County": "Washington County,VA", "State": "Virginia"}, "geometry": {"type": "Polygon", "coordinates": [[[-81.838541, 36.929063], [-81.608509, 36.638785], [-81.646848, 36.6114], [-81.827587, 36.616877], [-82.145249, 36.594969], [-82.145249, 36.671646], [-82.243834, 36.594969], [-82.293127, 36.594969], [-82.331465, 36.709985], [-81.838541, 36.929063]]]}}, {"type": "Feature", "properties": {"name": "Meriwether", "id": "13199", "FIPS": "13199", "FIPS State": 13, "ST": "GA", "County": "Meriwether County,GA", "State": "Georgia"}, "geometry": {"type": "Polygon", "coordinates": [[[-84.861812, 33.193789], [-84.500334, 33.221174], [-84.494857, 33.182835], [-84.527718, 32.969235], [-84.50581, 32.881604], [-84.70298, 32.843265], [-84.861812, 32.87065], [-84.861812, 32.87065], [-84.861812, 33.193789]]]}}, {"type": "Feature", "properties": {"name": "Montgomery", "id": "19137", "FIPS": "19137", "FIPS State": 19, "ST": "IA", "County": "Montgomery County,IA", "State": "Iowa"}, "geometry": {"type": "Polygon", "coordinates": [[[-95.267998, 41.157261], [-95.158459, 41.157261], [-94.928428, 41.157261], [-94.928428, 40.899844], [-95.289906, 40.899844], [-95.383014, 40.899844], [-95.383014, 41.157261], [-95.267998, 41.157261]]]}}, {"type": "Feature", "properties": {"name": "Wapello", "id": "19179", "FIPS": "19179", "FIPS State": 19, "ST": "IA", "County": "Wapello County,IA", "State": "Iowa"}, "geometry": {"type": "Polygon", "coordinates": [[[-92.261158, 41.162737], [-92.179004, 41.162737], [-92.179004, 40.899844], [-92.639067, 40.899844], [-92.639067, 41.162737], [-92.409035, 41.162737], [-92.261158, 41.162737]]]}}, {"type": "Feature", "properties": {"name": "Smyth", "id": "51173", "FIPS": "51173", "FIPS State": 51, "ST": "VA", "County": "Smyth County,VA", "State": "Virginia"}, "geometry": {"type": "Polygon", "coordinates": [[[-81.477062, 36.989309], [-81.438724, 37.011217], [-81.378478, 36.95097], [-81.263462, 36.764754], [-81.608509, 36.638785], [-81.838541, 36.929063], [-81.778294, 36.956447], [-81.477062, 36.989309]]]}}, {"type": "Feature", "properties": {"name": "Mason", "id": "17125", "FIPS": "17125", "FIPS State": 17, "ST": "IL", "County": "Mason County,IL", "State": "Illinois"}, "geometry": {"type": "Polygon", "coordinates": [[[-89.89512, 40.434304], [-89.604842, 40.319289], [-89.599365, 40.122119], [-89.670565, 40.160457], [-89.993705, 40.105688], [-90.355183, 40.122119], [-90.201828, 40.182365], [-89.922504, 40.434304], [-89.89512, 40.434304]]]}}, {"type": "Feature", "properties": {"name": "Jefferson", "id": "18077", "FIPS": "18077", "FIPS State": 18, "ST": "IN", "County": "Jefferson County,IN", "State": "Indiana"}, "geometry": {"type": "Polygon", "coordinates": [[[-85.299967, 38.911715], [-85.201382, 38.911715], [-85.201382, 38.692637], [-85.332828, 38.736453], [-85.425936, 38.588575], [-85.568337, 38.605006], [-85.683353, 38.81313], [-85.442367, 38.911715], [-85.299967, 38.911715]]]}}, {"type": "Feature", "properties": {"name": "Mitchell", "id": "19131", "FIPS": "19131", "FIPS State": 19, "ST": "IA", "County": "Mitchell County,IA", "State": "Iowa"}, "geometry": {"type": "Polygon", "coordinates": [[[-92.551436, 43.501391], [-92.556913, 43.211113], [-92.797898, 43.211113], [-93.022453, 43.211113], [-93.022453, 43.254929], [-93.022453, 43.501391], [-92.551436, 43.501391]]]}}, {"type": "Feature", "properties": {"name": "Aitkin", "id": "27001", "FIPS": "27001", "FIPS State": 27, "ST": "MN", "County": "Aitkin County,MN", "State": "Minnesota"}, "geometry": {"type": "Polygon", "coordinates": [[[-93.712547, 47.028541], [-93.055314, 47.028541], [-93.060791, 46.765647], [-93.055314, 46.4206], [-93.055314, 46.157707], [-93.307254, 46.157707], [-93.433223, 46.15223], [-93.553716, 46.245338], [-93.794701, 46.245338], [-93.778271, 46.803986], [-93.772794, 47.028541], [-93.712547, 47.028541]]]}}, {"type": "Feature", "properties": {"name": "Simpson", "id": "21213", "FIPS": "21213", "FIPS State": 21, "ST": "KY", "County": "Simpson County,KY", "State": "Kentucky"}, "geometry": {"type": "Polygon", "coordinates": [[[-86.608956, 36.885247], [-86.406309, 36.775708], [-86.411786, 36.649739], [-86.56514, 36.633308], [-86.76231, 36.649739], [-86.608956, 36.885247]]]}}, {"type": "Feature", "properties": {"name": "Morgan", "id": "17137", "FIPS": "17137", "FIPS State": 17, "ST": "IL", "County": "Morgan County,IL", "State": "Illinois"}, "geometry": {"type": "Polygon", "coordinates": [[[-90.585214, 39.875656], [-89.993705, 39.87018], [-89.927981, 39.519655], [-90.152536, 39.519655], [-90.300413, 39.519655], [-90.371614, 39.667533], [-90.601645, 39.788025], [-90.57426, 39.837318], [-90.585214, 39.875656]]]}}, {"type": "Feature", "properties": {"name": "Franklin", "id": "22041", "FIPS": "22041", "FIPS State": 22, "ST": "LA", "County": "Franklin County,LA", "State": "Louisiana"}, "geometry": {"type": "Polygon", "coordinates": [[[-91.57654, 32.40511], [-91.477956, 32.40511], [-91.494386, 32.202463], [-91.57654, 31.8848], [-91.647741, 31.972432], [-91.888726, 31.972432], [-91.894203, 32.153171], [-91.57654, 32.40511]]]}}, {"type": "Feature", "properties": {"name": "Ware", "id": "13299", "FIPS": "13299", "FIPS State": 13, "ST": "GA", "County": "Ware County,GA", "State": "Georgia"}, "geometry": {"type": "Polygon", "coordinates": [[[-82.473866, 31.419261], [-82.419096, 31.419261], [-82.282173, 31.227568], [-82.134295, 31.00849], [-82.216449, 30.570335], [-82.419096, 30.581289], [-82.671035, 31.183752], [-82.62722, 31.364491], [-82.599835, 31.468553], [-82.473866, 31.419261]]]}}, {"type": "Feature", "properties": {"name": "Lincoln", "id": "56023", "FIPS": "56023", "FIPS State": 56, "ST": "WY", "County": "Lincoln County,WY", "State": "Wyoming"}, "geometry": {"type": "Polygon", "coordinates": [[[-111.047063, 43.315175], [-110.576047, 43.233021], [-110.543185, 42.280033], [-110.055737, 42.269079], [-110.05026, 41.578985], [-111.047063, 41.578985], [-111.047063, 42.000709], [-111.047063, 42.515542], [-111.041587, 43.01942], [-111.047063, 43.315175]]]}}, {"type": "Feature", "properties": {"name": "Prince Edward", "id": "51147", "FIPS": "51147", "FIPS State": 51, "ST": "VA", "County": "Prince Edward County,VA", "State": "Virginia"}, "geometry": {"type": "Polygon", "coordinates": [[[-78.262098, 37.34531], [-78.234714, 37.367218], [-78.229237, 37.296018], [-78.240191, 37.120755], [-78.399022, 37.087894], [-78.442837, 37.07694], [-78.683823, 37.246725], [-78.596192, 37.400079], [-78.464745, 37.339833], [-78.262098, 37.34531]]]}}, {"type": "Feature", "properties": {"name": "Logan", "id": "38047", "FIPS": "38047", "FIPS State": 38, "ST": "ND", "County": "Logan County,ND", "State": "North Dakota"}, "geometry": {"type": "Polygon", "coordinates": [[[-99.917921, 46.634201], [-99.452381, 46.634201], [-99.036133, 46.628724], [-99.036133, 46.283677], [-99.348319, 46.283677], [-99.879582, 46.283677], [-99.917921, 46.634201]]]}}, {"type": "Feature", "properties": {"name": "Boundary", "id": "16021", "FIPS": "16021", "FIPS State": 16, "ST": "ID", "County": "Boundary County,ID", "State": "Idaho"}, "geometry": {"type": "Polygon", "coordinates": [[[-116.04751, 49.000239], [-116.04751, 48.501838], [-116.786897, 48.501838], [-116.836189, 48.846885], [-117.033359, 48.846885], [-117.033359, 49.000239], [-116.04751, 49.000239]]]}}, {"type": "Feature", "properties": {"name": "Clay", "id": "37043", "FIPS": "37043", "FIPS State": 37, "ST": "NC", "County": "Clay County,NC", "State": "North Carolina"}, "geometry": {"type": "Polygon", "coordinates": [[[-83.739039, 35.154534], [-83.481623, 34.995703], [-83.547346, 34.990226], [-83.936209, 34.984749], [-84.007409, 34.984749], [-83.739039, 35.154534]]]}}, {"type": "Feature", "properties": {"name": "Monroe", "id": "13207", "FIPS": "13207", "FIPS State": 13, "ST": "GA", "County": "Monroe County,GA", "State": "Georgia"}, "geometry": {"type": "Polygon", "coordinates": [[[-84.001932, 33.204743], [-83.821193, 33.182835], [-83.815716, 33.133543], [-83.711654, 32.952804], [-83.722608, 32.952804], [-83.892393, 32.848742], [-84.122425, 32.848742], [-84.122425, 32.930896], [-84.040271, 33.204743], [-84.001932, 33.204743]]]}}, {"type": "Feature", "properties": {"name": "Morgan", "id": "54065", "FIPS": "54065", "FIPS State": 54, "ST": "WV", "County": "Morgan County,WV", "State": "West Virginia"}, "geometry": {"type": "Polygon", "coordinates": [[[-78.185421, 39.694917], [-78.021113, 39.61824], [-78.229237, 39.393686], [-78.349729, 39.464886], [-78.470222, 39.514178], [-78.333299, 39.634671], [-78.185421, 39.694917]]]}}, {"type": "Feature", "properties": {"name": "Dickinson", "id": "19059", "FIPS": "19059", "FIPS State": 19, "ST": "IA", "County": "Dickinson County,IA", "State": "Iowa"}, "geometry": {"type": "Polygon", "coordinates": [[[-95.092736, 43.501391], [-94.917474, 43.501391], [-94.911997, 43.254929], [-95.169413, 43.254929], [-95.388491, 43.254929], [-95.388491, 43.501391], [-95.092736, 43.501391]]]}}, {"type": "Feature", "properties": {"name": "Suwannee", "id": "12121", "FIPS": "12121", "FIPS State": 12, "ST": "FL", "County": "Suwannee County,FL", "State": "Florida"}, "geometry": {"type": "Polygon", "coordinates": [[[-83.081806, 30.438888], [-82.797005, 30.334826], [-82.802482, 29.93501], [-82.879159, 29.885717], [-83.246114, 30.258149], [-83.169437, 30.384119], [-83.081806, 30.438888]]]}}, {"type": "Feature", "properties": {"name": "Union", "id": "47173", "FIPS": "47173", "FIPS State": 47, "ST": "TN", "County": "Union County,TN", "State": "Tennessee"}, "geometry": {"type": "Polygon", "coordinates": [[[-83.903347, 36.419707], [-83.667839, 36.34303], [-83.733562, 36.162291], [-83.925255, 36.173245], [-83.941686, 36.184199], [-84.001932, 36.27183], [-83.903347, 36.419707]]]}}, {"type": "Feature", "properties": {"name": "Trousdale", "id": "47169", "FIPS": "47169", "FIPS State": 47, "ST": "TN", "County": "Trousdale County,TN", "State": "Tennessee"}, "geometry": {"type": "Polygon", "coordinates": [[[-86.231047, 36.48543], [-85.979107, 36.425184], [-86.137939, 36.293737], [-86.285816, 36.348507], [-86.231047, 36.48543]]]}}, {"type": "Feature", "properties": {"name": "Teton", "id": "30099", "FIPS": "30099", "FIPS State": 30, "ST": "MT", "County": "Teton County,MT", "State": "Montana"}, "geometry": {"type": "Polygon", "coordinates": [[[-112.898269, 48.134883], [-111.408542, 47.987005], [-111.408542, 47.696727], [-111.419495, 47.696727], [-112.049344, 47.515988], [-112.816115, 47.609096], [-112.9859, 47.954144], [-113.018762, 48.134883], [-112.898269, 48.134883]]]}}, {"type": "Feature", "properties": {"name": "Toole", "id": "30101", "FIPS": "30101", "FIPS State": 30, "ST": "MT", "County": "Toole County,MT", "State": "Montana"}, "geometry": {"type": "Polygon", "coordinates": [[[-111.271618, 48.994762], [-111.408542, 48.217037], [-112.186267, 48.47993], [-112.191744, 49.000239], [-111.271618, 48.994762]]]}}, {"type": "Feature", "properties": {"name": "Trigg", "id": "21221", "FIPS": "21221", "FIPS State": 21, "ST": "KY", "County": "Trigg County,KY", "State": "Kentucky"}, "geometry": {"type": "Polygon", "coordinates": [[[-87.731728, 37.000263], [-87.69339, 36.638785], [-88.071299, 36.677123], [-88.109637, 36.748324], [-88.15893, 36.868816], [-87.879606, 36.961924], [-87.731728, 37.000263]]]}}, {"type": "Feature", "properties": {"name": "Osborne", "id": "20141", "FIPS": "20141", "FIPS State": 20, "ST": "KS", "County": "Osborne County,KS", "State": "Kansas"}, "geometry": {"type": "Polygon", "coordinates": [[[-98.849917, 39.568948], [-98.50487, 39.568948], [-98.488439, 39.568948], [-98.488439, 39.218424], [-98.488439, 39.130793], [-98.510347, 39.130793], [-99.036133, 39.130793], [-99.047087, 39.130793], [-99.04161, 39.568948], [-98.849917, 39.568948]]]}}, {"type": "Feature", "properties": {"name": "Livingston", "id": "36051", "FIPS": "36051", "FIPS State": 36, "ST": "NY", "County": "Livingston County,NY", "State": "New York"}, "geometry": {"type": "Polygon", "coordinates": [[[-77.823943, 42.986559], [-77.582958, 42.942743], [-77.48985, 42.575788], [-77.648681, 42.581265], [-77.725358, 42.471726], [-78.037544, 42.521019], [-77.95539, 42.860589], [-77.911574, 42.986559], [-77.823943, 42.986559]]]}}, {"type": "Feature", "properties": {"name": "Scott", "id": "21209", "FIPS": "21209", "FIPS State": 21, "ST": "KY", "County": "Scott County,KY", "State": "Kentucky"}, "geometry": {"type": "Polygon", "coordinates": [[[-84.555103, 38.495467], [-84.440087, 38.281867], [-84.401749, 38.20519], [-84.626303, 38.117559], [-84.724888, 38.194236], [-84.741319, 38.353067], [-84.582488, 38.47356], [-84.555103, 38.495467]]]}}, {"type": "Feature", "properties": {"name": "Gage", "id": "31067", "FIPS": "31067", "FIPS State": 31, "ST": "NE", "County": "Gage County,NE", "State": "Nebraska"}, "geometry": {"type": "Polygon", "coordinates": [[[-96.478402, 40.521935], [-96.461971, 40.521935], [-96.461971, 40.264519], [-96.461971, 40.001626], [-96.692003, 40.001626], [-96.807019, 40.001626], [-96.916557, 40.001626], [-96.916557, 40.35215], [-96.91108, 40.521935], [-96.478402, 40.521935]]]}}, {"type": "Feature", "properties": {"name": "Hickman", "id": "47081", "FIPS": "47081", "FIPS State": 47, "ST": "TN", "County": "Hickman County,TN", "State": "Tennessee"}, "geometry": {"type": "Polygon", "coordinates": [[[-87.512651, 35.992506], [-87.205942, 35.959644], [-87.216896, 35.850105], [-87.337389, 35.658412], [-87.660528, 35.60912], [-87.720774, 35.795336], [-87.715298, 35.839151], [-87.534558, 35.992506], [-87.512651, 35.992506]]]}}, {"type": "Feature", "properties": {"name": "Hardin", "id": "47071", "FIPS": "47071", "FIPS State": 47, "ST": "TN", "County": "Hardin County,TN", "State": "Tennessee"}, "geometry": {"type": "Polygon", "coordinates": [[[-88.361576, 35.417427], [-88.241084, 35.422904], [-88.022006, 35.390042], [-87.983668, 35.006656], [-88.202745, 34.995703], [-88.252038, 34.995703], [-88.361576, 34.995703], [-88.378007, 34.995703], [-88.361576, 35.379088], [-88.361576, 35.417427]]]}}, {"type": "Feature", "properties": {"name": "Logan", "id": "54045", "FIPS": "54045", "FIPS State": 54, "ST": "WV", "County": "Logan County,WV", "State": "West Virginia"}, "geometry": {"type": "Polygon", "coordinates": [[[-81.931648, 38.024451], [-81.608509, 37.788942], [-81.800202, 37.662973], [-82.189065, 37.975158], [-81.931648, 38.024451]]]}}, {"type": "Feature", "properties": {"name": "Williamsburg", "id": "45089", "FIPS": "45089", "FIPS State": 45, "ST": "SC", "County": "Williamsburg County,SC", "State": "South Carolina"}, "geometry": {"type": "Polygon", "coordinates": [[[-79.83398, 33.883884], [-79.324625, 33.80173], [-79.319148, 33.779822], [-79.319148, 33.779822], [-79.675149, 33.303328], [-80.053058, 33.505975], [-80.10235, 33.495021], [-79.877796, 33.883884], [-79.83398, 33.883884]]]}}, {"type": "Feature", "properties": {"name": "Humboldt", "id": "32013", "FIPS": "32013", "FIPS State": 32, "ST": "NV", "County": "Humboldt County,NV", "State": "Nevada"}, "geometry": {"type": "Polygon", "coordinates": [[[-117.027882, 42.000709], [-117.016928, 42.000709], [-117.016928, 40.998429], [-117.301729, 40.527412], [-118.013732, 40.856029], [-119.311766, 40.960091], [-119.32272, 41.995232], [-118.194471, 41.995232], [-117.027882, 42.000709]]]}}, {"type": "Feature", "properties": {"name": "Tripp", "id": "46123", "FIPS": "46123", "FIPS State": 46, "ST": "SD", "County": "Tripp County,SD", "State": "South Dakota"}, "geometry": {"type": "Polygon", "coordinates": [[[-99.665981, 43.75333], [-99.534535, 43.501391], [-99.534535, 42.997512], [-100.126044, 42.997512], [-100.197245, 42.997512], [-100.213675, 43.391852], [-100.230106, 43.714992], [-99.665981, 43.75333]]]}}, {"type": "Feature", "properties": {"name": "Valley", "id": "31175", "FIPS": "31175", "FIPS State": 31, "ST": "NE", "County": "Valley County,NE", "State": "Nebraska"}, "geometry": {"type": "Polygon", "coordinates": [[[-99.074472, 41.737816], [-98.756809, 41.737816], [-98.751332, 41.737816], [-98.751332, 41.392769], [-98.822533, 41.392769], [-99.205918, 41.392769], [-99.211395, 41.743293], [-99.074472, 41.737816]]]}}, {"type": "Feature", "properties": {"name": "Greenlee", "id": "04011", "FIPS": "04011", "FIPS State": 4, "ST": "AZ", "County": "Greenlee County,AZ", "State": "Arizona"}, "geometry": {"type": "Polygon", "coordinates": [[[-109.497089, 33.653852], [-109.04798, 33.779822], [-109.04798, 33.21022], [-109.04798, 32.777542], [-109.04798, 32.427018], [-109.113704, 32.427018], [-109.497089, 33.078773], [-109.497089, 33.653852]]]}}, {"type": "Feature", "properties": {"name": "Lauderdale", "id": "47097", "FIPS": "47097", "FIPS State": 47, "ST": "TN", "County": "Lauderdale County,TN", "State": "Tennessee"}, "geometry": {"type": "Polygon", "coordinates": [[[-89.489826, 35.94869], [-89.341949, 35.882967], [-89.35838, 35.817244], [-89.50078, 35.581735], [-89.643181, 35.647459], [-89.911551, 35.53792], [-89.643181, 35.904875], [-89.489826, 35.94869]]]}}, {"type": "Feature", "properties": {"name": "Frio", "id": "48163", "FIPS": "48163", "FIPS State": 48, "ST": "TX", "County": "Frio County,TX", "State": "Texas"}, "geometry": {"type": "Polygon", "coordinates": [[[-98.904687, 29.091561], [-98.806102, 29.091561], [-98.800625, 28.647929], [-99.397611, 28.642452], [-99.408565, 28.642452], [-99.414042, 29.091561], [-98.904687, 29.091561]]]}}, {"type": "Feature", "properties": {"name": "Knox", "id": "17095", "FIPS": "17095", "FIPS State": 17, "ST": "IL", "County": "Knox County,IL", "State": "Illinois"}, "geometry": {"type": "Polygon", "coordinates": [[[-90.207305, 41.151784], [-89.982751, 41.151784], [-89.988228, 40.976521], [-89.988228, 40.713628], [-90.442814, 40.713628], [-90.437337, 41.064153], [-90.437337, 41.151784], [-90.207305, 41.151784]]]}}, {"type": "Feature", "properties": {"name": "White", "id": "17193", "FIPS": "17193", "FIPS State": 17, "ST": "IL", "County": "White County,IL", "State": "Illinois"}, "geometry": {"type": "Polygon", "coordinates": [[[-88.005575, 38.259959], [-87.989145, 38.259959], [-87.972714, 38.232574], [-87.978191, 38.232574], [-88.054868, 37.88205], [-88.137022, 37.909435], [-88.37253, 37.909435], [-88.37253, 38.254482], [-88.153453, 38.254482], [-88.005575, 38.259959]]]}}, {"type": "Feature", "properties": {"name": "Yuma", "id": "08125", "FIPS": "08125", "FIPS State": 8, "ST": "CO", "County": "Yuma County,CO", "State": "Colorado"}, "geometry": {"type": "Polygon", "coordinates": [[[-102.426359, 40.439781], [-102.053927, 40.439781], [-102.053927, 40.346673], [-102.053927, 40.001626], [-102.04845, 39.574425], [-102.426359, 39.568948], [-102.804268, 39.568948], [-102.78236, 40.439781], [-102.667345, 40.439781], [-102.426359, 40.439781]]]}}, {"type": "Feature", "properties": {"name": "Reagan", "id": "48383", "FIPS": "48383", "FIPS State": 48, "ST": "TX", "County": "Reagan County,TX", "State": "Texas"}, "geometry": {"type": "Polygon", "coordinates": [[[-101.686972, 31.649292], [-101.265248, 31.649292], [-101.265248, 31.556184], [-101.265248, 31.528799], [-101.276202, 31.07969], [-101.774603, 31.07969], [-101.774603, 31.649292], [-101.686972, 31.649292]]]}}, {"type": "Feature", "properties": {"name": "Edgecombe", "id": "37065", "FIPS": "37065", "FIPS State": 37, "ST": "NC", "County": "Edgecombe County,NC", "State": "North Carolina"}, "geometry": {"type": "Polygon", "coordinates": [[[-77.697974, 36.151337], [-77.402219, 36.00346], [-77.352926, 35.817244], [-77.413173, 35.822721], [-77.659635, 35.674843], [-77.82942, 35.866536], [-77.82942, 35.866536], [-77.697974, 36.151337]]]}}, {"type": "Feature", "properties": {"name": "Panola", "id": "48365", "FIPS": "48365", "FIPS State": 48, "ST": "TX", "County": "Panola County,TX", "State": "Texas"}, "geometry": {"type": "Polygon", "coordinates": [[[-94.462888, 32.377725], [-94.041164, 32.394156], [-94.041164, 32.196986], [-94.013779, 31.977908], [-94.134272, 31.977908], [-94.512181, 31.972432], [-94.490273, 32.394156], [-94.462888, 32.377725]]]}}, {"type": "Feature", "properties": {"name": "Jefferson", "id": "28063", "FIPS": "28063", "FIPS State": 28, "ST": "MS", "County": "Jefferson County,MS", "State": "Mississippi"}, "geometry": {"type": "Polygon", "coordinates": [[[-91.247924, 31.86837], [-90.738569, 31.786216], [-90.738569, 31.698584], [-90.738569, 31.610953], [-91.154816, 31.610953], [-91.319124, 31.758831], [-91.346509, 31.753354], [-91.247924, 31.86837]]]}}, {"type": "Feature", "properties": {"name": "Lawrence", "id": "17101", "FIPS": "17101", "FIPS State": 17, "ST": "IL", "County": "Lawrence County,IL", "State": "Illinois"}, "geometry": {"type": "Polygon", "coordinates": [[[-87.534558, 38.851469], [-87.649574, 38.566668], [-87.912467, 38.572145], [-87.90699, 38.851469], [-87.534558, 38.851469]]]}}, {"type": "Feature", "properties": {"name": "Preston", "id": "54077", "FIPS": "54077", "FIPS State": 54, "ST": "WV", "County": "Preston County,WV", "State": "West Virginia"}, "geometry": {"type": "Polygon", "coordinates": [[[-79.609426, 39.722302], [-79.477979, 39.722302], [-79.488933, 39.20747], [-79.488933, 39.196516], [-79.812073, 39.229378], [-79.894227, 39.300578], [-79.894227, 39.437501], [-79.76278, 39.722302], [-79.609426, 39.722302]]]}}, {"type": "Feature", "properties": {"name": "Murray", "id": "40099", "FIPS": "40099", "FIPS State": 40, "ST": "OK", "County": "Murray County,OK", "State": "Oklahoma"}, "geometry": {"type": "Polygon", "coordinates": [[[-97.091819, 34.639701], [-96.932988, 34.634225], [-96.828926, 34.508255], [-96.878219, 34.502778], [-96.932988, 34.332993], [-97.354713, 34.508255], [-97.091819, 34.639701]]]}}, {"type": "Feature", "properties": {"name": "Russell", "id": "51167", "FIPS": "51167", "FIPS State": 51, "ST": "VA", "County": "Russell County,VA", "State": "Virginia"}, "geometry": {"type": "Polygon", "coordinates": [[[-81.898787, 37.142663], [-81.778294, 36.956447], [-81.838541, 36.929063], [-82.331465, 36.709985], [-82.408142, 36.874293], [-82.325988, 36.972878], [-82.150726, 37.044078], [-81.898787, 37.142663]]]}}, {"type": "Feature", "properties": {"name": "Patrick", "id": "51141", "FIPS": "51141", "FIPS State": 51, "ST": "VA", "County": "Patrick County,VA", "State": "Virginia"}, "geometry": {"type": "Polygon", "coordinates": [[[-80.233797, 36.874293], [-80.042104, 36.792139], [-80.053058, 36.5402], [-80.441921, 36.551154], [-80.611706, 36.556631], [-80.463828, 36.709985], [-80.233797, 36.874293]]]}}, {"type": "Feature", "properties": {"name": "Boise", "id": "16015", "FIPS": "16015", "FIPS State": 16, "ST": "ID", "County": "Boise County,ID", "State": "Idaho"}, "geometry": {"type": "Polygon", "coordinates": [[[-115.680555, 44.235301], [-115.297169, 44.339363], [-114.990461, 43.9505], [-115.1712, 44.087424], [-115.97631, 43.589022], [-116.283018, 43.8081], [-116.211818, 44.153147], [-115.680555, 44.235301]]]}}, {"type": "Feature", "properties": {"name": "Hudspeth", "id": "48229", "FIPS": "48229", "FIPS State": 48, "ST": "TX", "County": "Hudspeth County,TX", "State": "Texas"}, "geometry": {"type": "Polygon", "coordinates": [[[-105.997324, 31.999816], [-104.918367, 31.999816], [-104.918367, 30.663443], [-104.98409, 30.630581], [-104.98409, 30.630581], [-105.997324, 31.386399], [-105.997324, 31.999816]]]}}, {"type": "Feature", "properties": {"name": "Miami", "id": "18103", "FIPS": "18103", "FIPS State": 18, "ST": "IN", "County": "Miami County,IN", "State": "Indiana"}, "geometry": {"type": "Polygon", "coordinates": [[[-85.946246, 40.998429], [-85.864092, 40.653382], [-85.864092, 40.565751], [-85.875046, 40.565751], [-86.165323, 40.560274], [-86.1708, 40.910798], [-85.946246, 40.998429]]]}}, {"type": "Feature", "properties": {"name": "Harrison", "id": "29081", "FIPS": "29081", "FIPS State": 29, "ST": "MO", "County": "Harrison County,MO", "State": "Missouri"}, "geometry": {"type": "Polygon", "coordinates": [[[-93.772794, 40.576705], [-93.76184, 40.264519], [-93.76184, 40.133073], [-94.216426, 40.13855], [-94.216426, 40.385012], [-94.232857, 40.571228], [-94.013779, 40.571228], [-93.772794, 40.576705]]]}}, {"type": "Feature", "properties": {"name": "Winneshiek", "id": "19191", "FIPS": "19191", "FIPS State": 19, "ST": "IA", "County": "Winneshiek County,IA", "State": "Iowa"}, "geometry": {"type": "Polygon", "coordinates": [[[-91.850387, 43.501391], [-91.729895, 43.501391], [-91.609402, 43.501391], [-91.603925, 43.079667], [-92.080419, 43.085144], [-92.080419, 43.211113], [-92.080419, 43.501391], [-91.850387, 43.501391]]]}}, {"type": "Feature", "properties": {"name": "Pittsburg", "id": "40121", "FIPS": "40121", "FIPS State": 40, "ST": "OK", "County": "Pittsburg County,OK", "State": "Oklahoma"}, "geometry": {"type": "Polygon", "coordinates": [[[-95.706154, 35.203826], [-95.448737, 35.296934], [-95.350152, 35.055949], [-95.514461, 34.683517], [-95.673292, 34.595886], [-96.089539, 34.67804], [-96.089539, 34.765671], [-95.985477, 35.149057], [-95.706154, 35.203826]]]}}, {"type": "Feature", "properties": {"name": "Waushara", "id": "55137", "FIPS": "55137", "FIPS State": 55, "ST": "WI", "County": "Waushara County,WI", "State": "Wisconsin"}, "geometry": {"type": "Polygon", "coordinates": [[[-89.599365, 44.246255], [-89.226933, 44.246255], [-88.887363, 44.240778], [-88.887363, 43.983362], [-88.936655, 43.983362], [-89.166687, 43.983362], [-89.599365, 43.983362], [-89.599365, 44.246255]]]}}, {"type": "Feature", "properties": {"name": "Sharp", "id": "05135", "FIPS": "05135", "FIPS State": 5, "ST": "AR", "County": "Sharp County,AR", "State": "Arkansas"}, "geometry": {"type": "Polygon", "coordinates": [[[-91.450571, 36.496384], [-91.406755, 36.496384], [-91.258878, 36.255399], [-91.357463, 35.888444], [-91.707987, 35.943213], [-91.691556, 36.255399], [-91.450571, 36.496384], [-91.450571, 36.496384]]]}}, {"type": "Feature", "properties": {"name": "Randolph", "id": "01111", "FIPS": "01111", "FIPS State": 1, "ST": "AL", "County": "Randolph County,AL", "State": "Alabama"}, "geometry": {"type": "Polygon", "coordinates": [[[-85.645014, 33.495021], [-85.305444, 33.484067], [-85.29449, 33.429298], [-85.234244, 33.128066], [-85.234244, 33.106158], [-85.404029, 33.106158], [-85.595722, 33.106158], [-85.655968, 33.106158], [-85.645014, 33.495021]]]}}]}