{"type": "FeatureCollection", "crs": {"type": "name", "properties": {"name": "urn:ogc:def:crs:OGC:1.3:CRS84"}}, "features": [{"type": "Feature", "properties": {"name": "Roane", "id": "47145", "FIPS": "47145", "FIPS State": 47, "ST": "TN", "County": "Roane County,TN", "State": "Tennessee"}, "geometry": {"type": "Polygon", "coordinates": [[[-84.582488, 35.641982], [-84.620826, 35.641982], [-84.724888, 35.75152], [-84.768704, 35.80629], [-84.779657, 35.822721], [-84.681073, 35.910352], [-84.341502, 36.047275], [-84.270302, 35.910352], [-84.264825, 35.899398], [-84.582488, 35.641982]]]}}, {"type": "Feature", "properties": {"name": "Emmet", "id": "26047", "FIPS": "26047", "FIPS State": 26, "ST": "MI", "County": "Emmet County,MI", "State": "Michigan"}, "geometry": {"type": "Polygon", "coordinates": [[[-84.730365, 45.785275], [-84.730365, 45.779798], [-84.730365, 45.286874], [-85.09732, 45.363551], [-85.09732, 45.369028], [-84.730365, 45.785275]]]}}, {"type": "Feature", "properties": {"name": "Trempealeau", "id": "55121", "FIPS": "55121", "FIPS State": 55, "ST": "WI", "County": "Trempealeau County,WI", "State": "Wisconsin"}, "geometry": {"type": "Polygon", "coordinates": [[[-91.286263, 44.596779], [-91.16577, 44.596779], [-91.149339, 44.081947], [-91.176724, 44.087424], [-91.423186, 43.983362], [-91.56011, 44.027177], [-91.527248, 44.596779], [-91.286263, 44.596779]]]}}, {"type": "Feature", "properties": {"name": "Auglaize", "id": "39011", "FIPS": "39011", "FIPS State": 39, "ST": "OH", "County": "Auglaize County,OH", "State": "Ohio"}, "geometry": {"type": "Polygon", "coordinates": [[[-84.253871, 40.686244], [-83.881439, 40.642428], [-83.881439, 40.538366], [-84.001932, 40.483597], [-84.105994, 40.483597], [-84.43461, 40.35215], [-84.456518, 40.686244], [-84.396272, 40.686244], [-84.253871, 40.686244]]]}}, {"type": "Feature", "properties": {"name": "Linn", "id": "41043", "FIPS": "41043", "FIPS State": 41, "ST": "OR", "County": "Linn County,OR", "State": "Oregon"}, "geometry": {"type": "Polygon", "coordinates": [[[-122.658177, 44.777518], [-121.79282, 44.68441], [-121.842113, 44.394132], [-121.798297, 44.257209], [-123.200394, 44.284593], [-123.151102, 44.722749], [-123.145625, 44.750133], [-122.658177, 44.777518]]]}}, {"type": "Feature", "properties": {"name": "Butler", "id": "20015", "FIPS": "20015", "FIPS State": 20, "ST": "KS", "County": "Butler County,KS", "State": "Kansas"}, "geometry": {"type": "Polygon", "coordinates": [[[-97.113727, 38.084697], [-96.83988, 38.084697], [-96.522218, 38.084697], [-96.527695, 37.608203], [-96.527695, 37.476757], [-97.080866, 37.476757], [-97.152066, 37.476757], [-97.152066, 37.914912], [-97.152066, 38.090174], [-97.113727, 38.084697]]]}}, {"type": "Feature", "properties": {"name": "Marion", "id": "17121", "FIPS": "17121", "FIPS State": 17, "ST": "IL", "County": "Marion County,IL", "State": "Illinois"}, "geometry": {"type": "Polygon", "coordinates": [[[-88.777824, 38.824084], [-88.69567, 38.824084], [-88.701147, 38.605006], [-88.701147, 38.47356], [-88.914747, 38.479037], [-89.144779, 38.47356], [-89.144779, 38.500944], [-89.139302, 38.736453], [-88.777824, 38.824084]]]}}, {"type": "Feature", "properties": {"name": "Fentress", "id": "47049", "FIPS": "47049", "FIPS State": 47, "ST": "TN", "County": "Fentress County,TN", "State": "Tennessee"}, "geometry": {"type": "Polygon", "coordinates": [[[-85.009689, 36.567584], [-84.730365, 36.523769], [-84.70298, 36.370415], [-84.724888, 36.375892], [-84.905627, 36.156814], [-84.987781, 36.162291], [-85.102797, 36.140383], [-85.119228, 36.14586], [-85.119228, 36.408753], [-85.009689, 36.567584]]]}}, {"type": "Feature", "properties": {"name": "Iowa", "id": "55049", "FIPS": "55049", "FIPS State": 55, "ST": "WI", "County": "Iowa County,WI", "State": "Wisconsin"}, "geometry": {"type": "Polygon", "coordinates": [[[-90.294936, 43.205636], [-90.196352, 43.161821], [-89.84035, 43.205636], [-89.84035, 42.855112], [-89.84035, 42.811297], [-90.30589, 42.816773], [-90.426383, 42.811297], [-90.43186, 43.200159], [-90.294936, 43.205636]]]}}, {"type": "Feature", "properties": {"name": "Carroll", "id": "13045", "FIPS": "13045", "FIPS State": 13, "ST": "GA", "County": "Carroll County,GA", "State": "Georgia"}, "geometry": {"type": "Polygon", "coordinates": [[[-85.037074, 33.812683], [-84.90015, 33.779822], [-84.807042, 33.571698], [-84.850858, 33.511452], [-85.015166, 33.423821], [-85.29449, 33.429298], [-85.305444, 33.484067], [-85.338305, 33.653852], [-85.037074, 33.812683]]]}}, {"type": "Feature", "properties": {"name": "Cheatham", "id": "47021", "FIPS": "47021", "FIPS State": 47, "ST": "TN", "County": "Cheatham County,TN", "State": "Tennessee"}, "geometry": {"type": "Polygon", "coordinates": [[[-87.118311, 36.458046], [-86.915664, 36.381369], [-87.052588, 36.047275], [-87.184034, 36.047275], [-87.288096, 36.321122], [-87.118311, 36.458046]]]}}, {"type": "Feature", "properties": {"name": "Cook", "id": "27031", "FIPS": "27031", "FIPS State": 27, "ST": "MN", "County": "Cook County,MN", "State": "Minnesota"}, "geometry": {"type": "Polygon", "coordinates": [[[-91.023369, 47.466696], [-91.034323, 48.189652], [-89.582934, 47.997959], [-91.023369, 47.466696]]]}}, {"type": "Feature", "properties": {"name": "Faulkner", "id": "05045", "FIPS": "05045", "FIPS State": 5, "ST": "AR", "County": "Faulkner County,AR", "State": "Arkansas"}, "geometry": {"type": "Polygon", "coordinates": [[[-92.480236, 35.368135], [-92.250204, 35.362658], [-92.113281, 35.362658], [-92.118758, 35.066903], [-92.118758, 35.012133], [-92.228296, 34.957364], [-92.545959, 34.951887], [-92.556913, 35.110718], [-92.480236, 35.368135], [-92.480236, 35.368135]]]}}, {"type": "Feature", "properties": {"name": "Carbon", "id": "42025", "FIPS": "42025", "FIPS State": 42, "ST": "PA", "County": "Carbon County,PA", "State": "Pennsylvania"}, "geometry": {"type": "Polygon", "coordinates": [[[-75.687936, 41.129876], [-75.649598, 41.124399], [-75.474336, 40.812213], [-75.611259, 40.784829], [-75.759137, 40.735536], [-75.994645, 40.910798], [-75.687936, 41.129876]]]}}, {"type": "Feature", "properties": {"name": "Washington", "id": "12133", "FIPS": "12133", "FIPS State": 12, "ST": "FL", "County": "Washington County,FL", "State": "Florida"}, "geometry": {"type": "Polygon", "coordinates": [[[-85.601199, 30.833228], [-85.43689, 30.570335], [-85.990061, 30.389596], [-85.842184, 30.701781], [-85.601199, 30.833228]]]}}, {"type": "Feature", "properties": {"name": "Laurens", "id": "45059", "FIPS": "45059", "FIPS State": 45, "ST": "SC", "County": "Laurens County,SC", "State": "South Carolina"}, "geometry": {"type": "Polygon", "coordinates": [[[-82.145249, 34.787579], [-81.854971, 34.595886], [-81.641371, 34.53564], [-81.646848, 34.519209], [-81.942602, 34.201546], [-82.243834, 34.40967], [-82.315034, 34.486347], [-82.145249, 34.787579]]]}}, {"type": "Feature", "properties": {"name": "Franklin", "id": "42055", "FIPS": "42055", "FIPS State": 42, "ST": "PA", "County": "Franklin County,PA", "State": "Pennsylvania"}, "geometry": {"type": "Polygon", "coordinates": [[[-77.670589, 40.291904], [-77.615819, 40.198796], [-77.473419, 39.946857], [-77.456988, 39.722302], [-77.467942, 39.722302], [-78.09779, 39.722302], [-77.862282, 40.061872], [-77.703451, 40.264519], [-77.670589, 40.291904]]]}}, {"type": "Feature", "properties": {"name": "Shelby", "id": "39149", "FIPS": "39149", "FIPS State": 39, "ST": "OH", "County": "Shelby County,OH", "State": "Ohio"}, "geometry": {"type": "Polygon", "coordinates": [[[-84.105994, 40.483597], [-84.001932, 40.483597], [-84.012886, 40.275473], [-84.02384, 40.182365], [-84.22101, 40.198796], [-84.43461, 40.198796], [-84.43461, 40.35215], [-84.43461, 40.35215], [-84.105994, 40.483597]]]}}, {"type": "Feature", "properties": {"name": "Vermilion", "id": "17183", "FIPS": "17183", "FIPS State": 17, "ST": "IL", "County": "Vermilion County,IL", "State": "Illinois"}, "geometry": {"type": "Polygon", "coordinates": [[[-87.841267, 40.489074], [-87.529082, 40.489074], [-87.529082, 40.47812], [-87.529082, 40.149503], [-87.534558, 39.881133], [-87.939852, 39.881133], [-87.934375, 40.401443], [-87.934375, 40.483597], [-87.841267, 40.489074]]]}}, {"type": "Feature", "properties": {"name": "Holmes", "id": "39075", "FIPS": "39075", "FIPS State": 39, "ST": "OH", "County": "Holmes County,OH", "State": "Ohio"}, "geometry": {"type": "Polygon", "coordinates": [[[-81.657801, 40.669813], [-81.652325, 40.669813], [-81.652325, 40.636951], [-81.707094, 40.445258], [-82.183588, 40.456212], [-82.221926, 40.565751], [-82.128818, 40.669813], [-81.657801, 40.669813]]]}}, {"type": "Feature", "properties": {"name": "Andrews", "id": "48003", "FIPS": "48003", "FIPS State": 48, "ST": "TX", "County": "Andrews County,TX", "State": "Texas"}, "geometry": {"type": "Polygon", "coordinates": [[[-102.995961, 32.525602], [-102.212759, 32.525602], [-102.212759, 32.087447], [-102.289436, 32.087447], [-102.798791, 32.087447], [-103.061684, 32.087447], [-103.067161, 32.520126], [-102.995961, 32.525602]]]}}, {"type": "Feature", "properties": {"name": "Perry", "id": "42099", "FIPS": "42099", "FIPS State": 42, "ST": "PA", "County": "Perry County,PA", "State": "Pennsylvania"}, "geometry": {"type": "Polygon", "coordinates": [[[-76.95311, 40.60409], [-76.914771, 40.330243], [-77.122895, 40.297381], [-77.615819, 40.198796], [-77.670589, 40.291904], [-76.947633, 40.625997], [-76.95311, 40.60409]]]}}, {"type": "Feature", "properties": {"name": "Stokes", "id": "37169", "FIPS": "37169", "FIPS State": 37, "ST": "NC", "County": "Stokes County,NC", "State": "North Carolina"}, "geometry": {"type": "Polygon", "coordinates": [[[-80.441921, 36.551154], [-80.053058, 36.5402], [-80.025673, 36.5402], [-80.036627, 36.255399], [-80.036627, 36.255399], [-80.452875, 36.260876], [-80.441921, 36.551154]]]}}, {"type": "Feature", "properties": {"name": "Chambers", "id": "01017", "FIPS": "01017", "FIPS State": 1, "ST": "AL", "County": "Chambers County,AL", "State": "Alabama"}, "geometry": {"type": "Polygon", "coordinates": [[[-85.404029, 33.106158], [-85.234244, 33.106158], [-85.184951, 32.87065], [-85.130182, 32.74468], [-85.184951, 32.74468], [-85.595722, 32.728249], [-85.595722, 33.106158], [-85.404029, 33.106158]]]}}, {"type": "Feature", "properties": {"name": "Union", "id": "05139", "FIPS": "05139", "FIPS State": 5, "ST": "AR", "County": "Union County,AR", "State": "Arkansas"}, "geometry": {"type": "Polygon", "coordinates": [[[-92.737652, 33.385482], [-92.567867, 33.369051], [-92.348789, 33.297851], [-92.135188, 33.160928], [-92.069465, 33.007573], [-92.710267, 33.01305], [-92.726698, 33.01305], [-92.989591, 33.018527], [-92.978637, 33.380005], [-92.737652, 33.385482]]]}}, {"type": "Feature", "properties": {"name": "Lee", "id": "28081", "FIPS": "28081", "FIPS State": 28, "ST": "MS", "County": "Lee County,MS", "State": "Mississippi"}, "geometry": {"type": "Polygon", "coordinates": [[[-88.635423, 34.508255], [-88.542316, 34.464439], [-88.542316, 34.08653], [-88.706624, 34.092007], [-88.717578, 34.075577], [-88.827116, 34.075577], [-88.827116, 34.365854], [-88.734008, 34.508255], [-88.635423, 34.508255]]]}}, {"type": "Feature", "properties": {"name": "Walker", "id": "13295", "FIPS": "13295", "FIPS State": 13, "ST": "GA", "County": "Walker County,GA", "State": "Georgia"}, "geometry": {"type": "Polygon", "coordinates": [[[-85.272582, 34.984749], [-85.267105, 34.984749], [-85.146612, 34.765671], [-85.048028, 34.623271], [-85.069935, 34.584932], [-85.09732, 34.584932], [-85.108274, 34.584932], [-85.529998, 34.590409], [-85.535475, 34.623271], [-85.36569, 34.984749], [-85.272582, 34.984749]]]}}, {"type": "Feature", "properties": {"name": "Clearfield", "id": "42033", "FIPS": "42033", "FIPS State": 42, "ST": "PA", "County": "Clearfield County,PA", "State": "Pennsylvania"}, "geometry": {"type": "Polygon", "coordinates": [[[-78.234714, 41.228461], [-78.092313, 41.217507], [-78.037544, 41.151784], [-78.360683, 40.735536], [-78.349729, 40.724582], [-78.804316, 40.724582], [-78.804316, 40.905321], [-78.711208, 41.201076], [-78.234714, 41.228461]]]}}, {"type": "Feature", "properties": {"name": "Hancock", "id": "23009", "FIPS": "23009", "FIPS State": 23, "ST": "ME", "County": "Hancock County,ME", "State": "Maine"}, "geometry": {"type": "Polygon", "coordinates": [[[-68.058559, 45.254012], [-67.954497, 44.41604], [-68.797945, 44.470809], [-68.814376, 44.68441], [-68.058559, 45.254012]]]}}, {"type": "Feature", "properties": {"name": "Stark", "id": "38089", "FIPS": "38089", "FIPS State": 38, "ST": "ND", "County": "Stark County,ND", "State": "North Dakota"}, "geometry": {"type": "Polygon", "coordinates": [[[-102.147035, 47.01211], [-102.097743, 46.979248], [-102.097743, 46.716355], [-102.097743, 46.628724], [-102.17442, 46.628724], [-102.930238, 46.628724], [-103.23147, 46.628724], [-103.0343, 46.979248], [-102.147035, 47.01211]]]}}, {"type": "Feature", "properties": {"name": "Huntingdon", "id": "42061", "FIPS": "42061", "FIPS State": 42, "ST": "PA", "County": "Huntingdon County,PA", "State": "Pennsylvania"}, "geometry": {"type": "Polygon", "coordinates": [[[-78.114221, 40.741013], [-77.681543, 40.730059], [-77.752743, 40.379535], [-77.703451, 40.264519], [-77.862282, 40.061872], [-78.136129, 40.165934], [-78.256622, 40.297381], [-78.114221, 40.741013]]]}}, {"type": "Feature", "properties": {"name": "Anderson", "id": "47001", "FIPS": "47001", "FIPS State": 47, "ST": "TN", "County": "Anderson County,TN", "State": "Tennessee"}, "geometry": {"type": "Polygon", "coordinates": [[[-84.001932, 36.27183], [-83.941686, 36.184199], [-84.270302, 35.910352], [-84.341502, 36.047275], [-84.440087, 36.162291], [-84.374364, 36.21706], [-84.001932, 36.27183]]]}}, {"type": "Feature", "properties": {"name": "Rogers", "id": "40131", "FIPS": "40131", "FIPS State": 40, "ST": "OK", "County": "Rogers County,OK", "State": "Oklahoma"}, "geometry": {"type": "Polygon", "coordinates": [[[-95.810215, 36.594969], [-95.432306, 36.594969], [-95.328245, 36.512815], [-95.437783, 36.07466], [-95.618522, 36.162291], [-95.760923, 36.162291], [-95.810215, 36.425184], [-95.810215, 36.594969]]]}}, {"type": "Feature", "properties": {"name": "Love", "id": "40085", "FIPS": "40085", "FIPS State": 40, "ST": "OK", "County": "Love County,OK", "State": "Oklahoma"}, "geometry": {"type": "Polygon", "coordinates": [[[-97.562836, 34.0701], [-96.971327, 34.0701], [-96.932988, 33.955084], [-96.943942, 33.949607], [-97.486159, 33.916745], [-97.562836, 33.894838], [-97.562836, 34.0701]]]}}, {"type": "Feature", "properties": {"name": "Ellis", "id": "48139", "FIPS": "48139", "FIPS State": 48, "ST": "TX", "County": "Ellis County,TX", "State": "Texas"}, "geometry": {"type": "Polygon", "coordinates": [[[-97.086342, 32.54751], [-97.03705, 32.54751], [-96.527695, 32.54751], [-96.451017, 32.361294], [-96.385294, 32.328433], [-96.89465, 32.076493], [-97.086342, 32.268186], [-97.086342, 32.54751]]]}}, {"type": "Feature", "properties": {"name": "Navajo", "id": "04017", "FIPS": "04017", "FIPS State": 4, "ST": "AZ", "County": "Navajo County,AZ", "State": "Arizona"}, "geometry": {"type": "Polygon", "coordinates": [[[-110.000968, 37.000263], [-110.000968, 35.663889], [-109.842137, 35.516012], [-109.891429, 33.566221], [-110.000968, 33.577175], [-110.000968, 33.998899], [-110.751309, 33.998899], [-110.751309, 34.261793], [-110.751309, 37.00574], [-110.000968, 37.000263]]]}}, {"type": "Feature", "properties": {"name": "Snyder", "id": "42109", "FIPS": "42109", "FIPS State": 42, "ST": "PA", "County": "Snyder County,PA", "State": "Pennsylvania"}, "geometry": {"type": "Polygon", "coordinates": [[[-76.854525, 40.88889], [-76.799755, 40.883413], [-76.936679, 40.636951], [-77.133849, 40.686244], [-77.287203, 40.691721], [-77.358403, 40.806736], [-76.854525, 40.88889]]]}}, {"type": "Feature", "properties": {"name": "Scioto", "id": "39145", "FIPS": "39145", "FIPS State": 39, "ST": "OH", "County": "Scioto County,OH", "State": "Ohio"}, "geometry": {"type": "Polygon", "coordinates": [[[-83.273499, 39.0103], [-83.273499, 39.015777], [-82.807959, 38.950054], [-82.649128, 38.851469], [-82.813436, 38.572145], [-83.032514, 38.725499], [-83.268022, 38.61596], [-83.273499, 39.0103]]]}}, {"type": "Feature", "properties": {"name": "Bryan", "id": "13029", "FIPS": "13029", "FIPS State": 13, "ST": "GA", "County": "Bryan County,GA", "State": "Georgia"}, "geometry": {"type": "Polygon", "coordinates": [[[-81.42777, 32.235325], [-81.389431, 32.098401], [-81.153923, 31.725969], [-81.197738, 31.725969], [-81.707094, 32.087447], [-81.718048, 32.087447], [-81.783771, 32.153171], [-81.433247, 32.240802], [-81.42777, 32.235325]]]}}, {"type": "Feature", "properties": {"name": "Venango", "id": "42121", "FIPS": "42121", "FIPS State": 42, "ST": "PA", "County": "Venango County,PA", "State": "Pennsylvania"}, "geometry": {"type": "Polygon", "coordinates": [[[-79.510841, 41.6228], [-79.477979, 41.387292], [-79.697057, 41.173691], [-79.998289, 41.173691], [-79.998289, 41.491354], [-79.614903, 41.6228], [-79.510841, 41.6228]]]}}, {"type": "Feature", "properties": {"name": "Shelby", "id": "21211", "FIPS": "21211", "FIPS State": 21, "ST": "KY", "County": "Shelby County,KY", "State": "Kentucky"}, "geometry": {"type": "Polygon", "coordinates": [[[-85.283536, 38.358544], [-84.998735, 38.336636], [-85.02612, 38.128512], [-85.102797, 38.035405], [-85.425936, 38.144943], [-85.469752, 38.287344], [-85.283536, 38.358544]]]}}, {"type": "Feature", "properties": {"name": "Mason", "id": "54053", "FIPS": "54053", "FIPS State": 54, "ST": "WV", "County": "Mason County,WV", "State": "West Virginia"}, "geometry": {"type": "Polygon", "coordinates": [[[-81.909741, 38.878853], [-81.772817, 38.681683], [-82.057618, 38.47356], [-82.216449, 38.594052], [-82.101434, 38.95553], [-81.909741, 38.878853]]]}}, {"type": "Feature", "properties": {"name": "Jo Daviess", "id": "17085", "FIPS": "17085", "FIPS State": 17, "ST": "IL", "County": "Jo Daviess County,IL", "State": "Illinois"}, "geometry": {"type": "Polygon", "coordinates": [[[-90.639984, 42.510065], [-90.426383, 42.504588], [-89.927981, 42.504588], [-89.917028, 42.197879], [-90.316844, 42.192402], [-90.475675, 42.384095], [-90.639984, 42.510065]]]}}, {"type": "Feature", "properties": {"name": "Wilson", "id": "37195", "FIPS": "37195", "FIPS State": 37, "ST": "NC", "County": "Wilson County,NC", "State": "North Carolina"}, "geometry": {"type": "Polygon", "coordinates": [[[-77.82942, 35.866536], [-77.659635, 35.674843], [-77.697974, 35.652935], [-77.823943, 35.570781], [-78.064929, 35.587212], [-78.190898, 35.729613], [-77.82942, 35.866536], [-77.82942, 35.866536]]]}}, {"type": "Feature", "properties": {"name": "Erie", "id": "39043", "FIPS": "39043", "FIPS State": 39, "ST": "OH", "County": "Erie County,OH", "State": "Ohio"}, "geometry": {"type": "Polygon", "coordinates": [[[-82.775097, 41.4804], [-82.692943, 41.491354], [-82.347896, 41.431108], [-82.342419, 41.28323], [-82.840821, 41.288707], [-82.955836, 41.458492], [-82.775097, 41.4804]]]}}, {"type": "Feature", "properties": {"name": "Mecosta", "id": "26107", "FIPS": "26107", "FIPS State": 26, "ST": "MI", "County": "Mecosta County,MI", "State": "Michigan"}, "geometry": {"type": "Polygon", "coordinates": [[[-85.540952, 43.813577], [-85.086366, 43.813577], [-85.086366, 43.468529], [-85.551906, 43.468529], [-85.56286, 43.468529], [-85.56286, 43.813577], [-85.540952, 43.813577]]]}}, {"type": "Feature", "properties": {"name": "Wyoming", "id": "42131", "FIPS": "42131", "FIPS State": 42, "ST": "PA", "County": "Wyoming County,PA", "State": "Pennsylvania"}, "geometry": {"type": "Polygon", "coordinates": [[[-76.2192, 41.540646], [-76.115138, 41.650185], [-75.720798, 41.644708], [-75.835814, 41.425631], [-75.835814, 41.425631], [-76.284923, 41.376338], [-76.2192, 41.540646]]]}}, {"type": "Feature", "properties": {"name": "Albany", "id": "56001", "FIPS": "56001", "FIPS State": 56, "ST": "WY", "County": "Albany County,WY", "State": "Wyoming"}, "geometry": {"type": "Polygon", "coordinates": [[[-106.074002, 42.433388], [-105.285322, 42.433388], [-105.279845, 41.655662], [-105.279845, 40.998429], [-106.189017, 40.998429], [-106.320464, 40.998429], [-106.068525, 41.392769], [-106.074002, 42.433388]]]}}, {"type": "Feature", "properties": {"name": "Macon", "id": "29121", "FIPS": "29121", "FIPS State": 29, "ST": "MO", "County": "Macon County,MO", "State": "Missouri"}, "geometry": {"type": "Polygon", "coordinates": [[[-92.677405, 40.039965], [-92.343312, 40.039965], [-92.288543, 39.952334], [-92.299497, 39.607286], [-92.299497, 39.607286], [-92.693836, 39.612763], [-92.858145, 39.700394], [-92.847191, 40.039965], [-92.677405, 40.039965]]]}}, {"type": "Feature", "properties": {"name": "Hillsdale", "id": "26059", "FIPS": "26059", "FIPS State": 26, "ST": "MI", "County": "Hillsdale County,MI", "State": "Michigan"}, "geometry": {"type": "Polygon", "coordinates": [[[-84.36341, 42.07191], [-84.357933, 41.704955], [-84.401749, 41.704955], [-84.807042, 41.694001], [-84.823473, 41.759724], [-84.82895, 42.07191], [-84.708457, 42.07191], [-84.36341, 42.07191]]]}}, {"type": "Feature", "properties": {"name": "Habersham", "id": "13137", "FIPS": "13137", "FIPS State": 13, "ST": "GA", "County": "Habersham County,GA", "State": "Georgia"}, "geometry": {"type": "Polygon", "coordinates": [[[-83.651408, 34.820441], [-83.350176, 34.716379], [-83.339222, 34.688994], [-83.459715, 34.48087], [-83.552823, 34.486347], [-83.613069, 34.431578], [-83.667839, 34.502778], [-83.684269, 34.798533], [-83.651408, 34.820441]]]}}, {"type": "Feature", "properties": {"name": "Iron", "id": "49021", "FIPS": "49021", "FIPS State": 49, "ST": "UT", "County": "Iron County,UT", "State": "Utah"}, "geometry": {"type": "Polygon", "coordinates": [[[-112.876362, 38.15042], [-112.476545, 38.144943], [-112.684669, 37.54248], [-112.903746, 37.498664], [-112.898269, 37.498664], [-114.053904, 37.602726], [-114.048427, 38.15042], [-112.876362, 38.15042]]]}}, {"type": "Feature", "properties": {"name": "Manitowoc", "id": "55071", "FIPS": "55071", "FIPS State": 55, "ST": "WI", "County": "Manitowoc County,WI", "State": "Wisconsin"}, "geometry": {"type": "Polygon", "coordinates": [[[-87.885083, 44.328409], [-87.76459, 44.328409], [-87.545512, 44.328409], [-87.731728, 43.890254], [-87.770067, 43.890254], [-88.043914, 43.890254], [-88.043914, 44.240778], [-87.885083, 44.328409]]]}}, {"type": "Feature", "properties": {"name": "Guthrie", "id": "19077", "FIPS": "19077", "FIPS State": 19, "ST": "IA", "County": "Guthrie County,IA", "State": "Iowa"}, "geometry": {"type": "Polygon", "coordinates": [[[-94.484796, 41.863786], [-94.282149, 41.863786], [-94.24381, 41.502308], [-94.660058, 41.502308], [-94.698396, 41.502308], [-94.742212, 41.863786], [-94.627196, 41.863786], [-94.484796, 41.863786]]]}}, {"type": "Feature", "properties": {"name": "Clarke", "id": "19039", "FIPS": "19039", "FIPS State": 19, "ST": "IA", "County": "Clarke County,IA", "State": "Iowa"}, "geometry": {"type": "Polygon", "coordinates": [[[-93.674209, 41.162737], [-93.559193, 41.162737], [-93.559193, 40.899844], [-93.663255, 40.899844], [-94.013779, 40.894367], [-94.013779, 41.157261], [-93.789224, 41.162737], [-93.674209, 41.162737]]]}}, {"type": "Feature", "properties": {"name": "Saline", "id": "29195", "FIPS": "29195", "FIPS State": 29, "ST": "MO", "County": "Saline County,MO", "State": "Missouri"}, "geometry": {"type": "Polygon", "coordinates": [[[-93.274392, 39.317009], [-93.104607, 39.382732], [-92.847191, 39.223901], [-92.934822, 39.065069], [-93.049837, 38.928146], [-93.498947, 38.944577], [-93.477039, 39.295101], [-93.274392, 39.317009]]]}}, {"type": "Feature", "properties": {"name": "Miller", "id": "05091", "FIPS": "05091", "FIPS State": 5, "ST": "AR", "County": "Miller County,AR", "State": "Arkansas"}, "geometry": {"type": "Polygon", "coordinates": [[[-93.827563, 33.610037], [-93.723501, 33.484067], [-93.805655, 33.018527], [-93.816609, 33.018527], [-94.041164, 33.018527], [-94.041164, 33.270466], [-94.041164, 33.54979], [-93.827563, 33.610037]]]}}, {"type": "Feature", "properties": {"name": "Gloucester", "id": "51073", "FIPS": "51073", "FIPS State": 51, "ST": "VA", "County": "Gloucester County,VA", "State": "Virginia"}, "geometry": {"type": "Polygon", "coordinates": [[[-76.62997, 37.591772], [-76.438277, 37.515095], [-76.405416, 37.400079], [-76.498524, 37.241248], [-76.657355, 37.378172], [-76.712124, 37.432941], [-76.651878, 37.602726], [-76.62997, 37.591772]]]}}, {"type": "Feature", "properties": {"name": "Bannock", "id": "16005", "FIPS": "16005", "FIPS State": 16, "ST": "ID", "County": "Bannock County,ID", "State": "Idaho"}, "geometry": {"type": "Polygon", "coordinates": [[[-112.388914, 43.01942], [-112.065774, 43.024897], [-111.874081, 42.416957], [-112.126021, 42.28551], [-112.421776, 42.504588], [-112.750392, 42.953697], [-112.388914, 43.01942]]]}}, {"type": "Feature", "properties": {"name": "Delaware", "id": "18035", "FIPS": "18035", "FIPS State": 18, "ST": "IN", "County": "Delaware County,IN", "State": "Indiana"}, "geometry": {"type": "Polygon", "coordinates": [[[-85.513567, 40.379535], [-85.442367, 40.379535], [-85.217813, 40.379535], [-85.217813, 40.308335], [-85.212336, 40.078303], [-85.327352, 40.078303], [-85.573814, 40.078303], [-85.579291, 40.379535], [-85.513567, 40.379535]]]}}, {"type": "Feature", "properties": {"name": "Loudon", "id": "47105", "FIPS": "47105", "FIPS State": 47, "ST": "TN", "County": "Loudon County,TN", "State": "Tennessee"}, "geometry": {"type": "Polygon", "coordinates": [[[-84.264825, 35.899398], [-84.16624, 35.80629], [-84.188148, 35.60912], [-84.43461, 35.669366], [-84.527718, 35.625551], [-84.582488, 35.641982], [-84.264825, 35.899398]]]}}, {"type": "Feature", "properties": {"name": "Coles", "id": "17029", "FIPS": "17029", "FIPS State": 17, "ST": "IL", "County": "Coles County,IL", "State": "Illinois"}, "geometry": {"type": "Polygon", "coordinates": [[[-88.065822, 39.651102], [-87.967237, 39.683964], [-87.96176, 39.481317], [-88.011052, 39.377255], [-88.142499, 39.377255], [-88.471115, 39.371778], [-88.471115, 39.448455], [-88.471115, 39.651102], [-88.065822, 39.651102]]]}}, {"type": "Feature", "properties": {"name": "Lincoln", "id": "37109", "FIPS": "37109", "FIPS State": 37, "ST": "NC", "County": "Lincoln County,NC", "State": "North Carolina"}, "geometry": {"type": "Polygon", "coordinates": [[[-81.488016, 35.570781], [-80.96223, 35.548874], [-80.945799, 35.488627], [-80.956753, 35.400996], [-81.455155, 35.417427], [-81.537309, 35.565304], [-81.531832, 35.570781], [-81.488016, 35.570781]]]}}, {"type": "Feature", "properties": {"name": "Sullivan", "id": "36105", "FIPS": "36105", "FIPS State": 36, "ST": "NY", "County": "Sullivan County,NY", "State": "New York"}, "geometry": {"type": "Polygon", "coordinates": [[[-74.789718, 42.011663], [-74.778764, 42.01714], [-74.367994, 41.589939], [-74.756857, 41.425631], [-75.069042, 41.600893], [-75.145719, 41.852832], [-74.789718, 42.011663]]]}}, {"type": "Feature", "properties": {"name": "Windham", "id": "50025", "FIPS": "50025", "FIPS State": 50, "ST": "VT", "County": "Windham County,VT", "State": "Vermont"}, "geometry": {"type": "Polygon", "coordinates": [[[-72.81802, 43.254929], [-72.434634, 43.233021], [-72.451065, 43.161821], [-72.456542, 42.729142], [-72.927559, 42.740096], [-72.81802, 43.254929]]]}}, {"type": "Feature", "properties": {"name": "Lincoln", "id": "13181", "FIPS": "13181", "FIPS State": 13, "ST": "GA", "County": "Lincoln County,GA", "State": "Georgia"}, "geometry": {"type": "Polygon", "coordinates": [[[-82.643651, 33.982469], [-82.566974, 33.955084], [-82.216449, 33.686714], [-82.424573, 33.648375], [-82.479343, 33.637421], [-82.643651, 33.982469]]]}}, {"type": "Feature", "properties": {"name": "Franklin", "id": "21073", "FIPS": "21073", "FIPS State": 21, "ST": "KY", "County": "Franklin County,KY", "State": "Kentucky"}, "geometry": {"type": "Polygon", "coordinates": [[[-84.861812, 38.358544], [-84.741319, 38.353067], [-84.724888, 38.194236], [-84.867289, 38.117559], [-84.998735, 38.128512], [-85.02612, 38.128512], [-84.998735, 38.336636], [-84.872765, 38.358544], [-84.861812, 38.358544]]]}}, {"type": "Feature", "properties": {"name": "Ashe", "id": "37009", "FIPS": "37009", "FIPS State": 37, "ST": "NC", "County": "Ashe County,NC", "State": "North Carolina"}, "geometry": {"type": "Polygon", "coordinates": [[[-81.351093, 36.573061], [-81.252508, 36.364938], [-81.477062, 36.238968], [-81.734479, 36.392322], [-81.679709, 36.589492], [-81.351093, 36.573061]]]}}, {"type": "Feature", "properties": {"name": "Clay", "id": "12019", "FIPS": "12019", "FIPS State": 12, "ST": "FL", "County": "Clay County,FL", "State": "Florida"}, "geometry": {"type": "Polygon", "coordinates": [[[-81.701617, 30.192426], [-81.679709, 30.121226], [-81.581124, 29.841902], [-82.046664, 29.715932], [-82.052141, 30.143133], [-82.052141, 30.186949], [-81.701617, 30.192426]]]}}, {"type": "Feature", "properties": {"name": "Bradford", "id": "42015", "FIPS": "42015", "FIPS State": 42, "ST": "PA", "County": "Bradford County,PA", "State": "Pennsylvania"}, "geometry": {"type": "Polygon", "coordinates": [[[-76.920248, 42.000709], [-76.55877, 42.000709], [-76.147999, 42.000709], [-76.115138, 41.650185], [-76.2192, 41.540646], [-76.816186, 41.589939], [-76.876433, 41.595416], [-76.925725, 42.000709], [-76.920248, 42.000709]]]}}, {"type": "Feature", "properties": {"name": "Clinton", "id": "42035", "FIPS": "42035", "FIPS State": 42, "ST": "PA", "County": "Clinton County,PA", "State": "Pennsylvania"}, "geometry": {"type": "Polygon", "coordinates": [[[-77.747266, 41.474923], [-77.599389, 41.4804], [-77.144803, 41.069629], [-77.144803, 41.042245], [-77.708927, 41.113445], [-78.037544, 41.151784], [-78.092313, 41.217507], [-77.988251, 41.474923], [-77.747266, 41.474923]]]}}, {"type": "Feature", "properties": {"name": "Rapides", "id": "22079", "FIPS": "22079", "FIPS State": 22, "ST": "LA", "County": "Rapides County,LA", "State": "Louisiana"}, "geometry": {"type": "Polygon", "coordinates": [[[-92.721221, 31.517845], [-92.195435, 31.479507], [-92.085896, 31.337106], [-92.283066, 30.964674], [-92.387128, 31.003013], [-92.595251, 30.893474], [-92.660975, 30.898951], [-92.825283, 30.887997], [-92.984114, 31.34806], [-92.721221, 31.517845]]]}}, {"type": "Feature", "properties": {"name": "Botetourt", "id": "51023", "FIPS": "51023", "FIPS State": 51, "ST": "VA", "County": "Botetourt County,VA", "State": "Virginia"}, "geometry": {"type": "Polygon", "coordinates": [[[-79.790165, 37.794419], [-79.675149, 37.761557], [-79.499887, 37.531526], [-79.844934, 37.306971], [-80.074966, 37.421987], [-80.020196, 37.646542], [-79.790165, 37.794419]]]}}, {"type": "Feature", "properties": {"name": "Rutherford", "id": "37161", "FIPS": "37161", "FIPS State": 37, "ST": "NC", "County": "Rutherford County,NC", "State": "North Carolina"}, "geometry": {"type": "Polygon", "coordinates": [[[-81.82211, 35.576258], [-81.690663, 35.581735], [-81.76734, 35.181919], [-81.876879, 35.181919], [-81.969987, 35.187396], [-82.09048, 35.357181], [-82.260265, 35.395519], [-82.265742, 35.466719], [-82.167157, 35.526966], [-81.82211, 35.576258]]]}}, {"type": "Feature", "properties": {"name": "Chattooga", "id": "13055", "FIPS": "13055", "FIPS State": 13, "ST": "GA", "County": "Chattooga County,GA", "State": "Georgia"}, "geometry": {"type": "Polygon", "coordinates": [[[-85.108274, 34.584932], [-85.464275, 34.2837], [-85.513567, 34.524686], [-85.529998, 34.590409], [-85.108274, 34.584932]]]}}, {"type": "Feature", "properties": {"name": "Miami", "id": "39109", "FIPS": "39109", "FIPS State": 39, "ST": "OH", "County": "Miami County,OH", "State": "Ohio"}, "geometry": {"type": "Polygon", "coordinates": [[[-84.22101, 40.198796], [-84.02384, 40.182365], [-84.034794, 40.039965], [-84.051224, 39.881133], [-84.155286, 39.924949], [-84.423656, 39.919472], [-84.43461, 40.198796], [-84.22101, 40.198796]]]}}, {"type": "Feature", "properties": {"name": "Pickens", "id": "13227", "FIPS": "13227", "FIPS State": 13, "ST": "GA", "County": "Pickens County,GA", "State": "Georgia"}, "geometry": {"type": "Polygon", "coordinates": [[[-84.346979, 34.563024], [-84.259348, 34.382285], [-84.582488, 34.387762], [-84.653688, 34.415147], [-84.653688, 34.546593], [-84.346979, 34.563024]]]}}, {"type": "Feature", "properties": {"name": "Uinta", "id": "56041", "FIPS": "56041", "FIPS State": 56, "ST": "WY", "County": "Uinta County,WY", "State": "Wyoming"}, "geometry": {"type": "Polygon", "coordinates": [[[-111.047063, 41.578985], [-110.05026, 41.578985], [-110.05026, 40.998429], [-111.047063, 40.998429], [-111.047063, 41.250368], [-111.047063, 41.578985]]]}}, {"type": "Feature", "properties": {"name": "Crow Wing", "id": "27035", "FIPS": "27035", "FIPS State": 27, "ST": "MN", "County": "Crow Wing County,MN", "State": "Minnesota"}, "geometry": {"type": "Polygon", "coordinates": [[[-94.282149, 46.803986], [-93.778271, 46.803986], [-93.794701, 46.245338], [-93.811132, 46.157707], [-94.342395, 46.2782], [-94.282149, 46.803986]]]}}, {"type": "Feature", "properties": {"name": "Somerset", "id": "42111", "FIPS": "42111", "FIPS State": 42, "ST": "PA", "County": "Somerset County,PA", "State": "Pennsylvania"}, "geometry": {"type": "Polygon", "coordinates": [[[-79.001485, 40.286427], [-78.656438, 40.242611], [-78.809792, 39.722302], [-78.930285, 39.722302], [-79.390348, 39.722302], [-79.291763, 40.039965], [-79.056255, 40.286427], [-79.001485, 40.286427]]]}}, {"type": "Feature", "properties": {"name": "Santa Rosa", "id": "12113", "FIPS": "12113", "FIPS State": 12, "ST": "FL", "County": "Santa Rosa County,FL", "State": "Florida"}, "geometry": {"type": "Polygon", "coordinates": [[[-87.162127, 30.997536], [-86.784218, 30.997536], [-86.800648, 30.384119], [-86.921141, 30.373165], [-87.310004, 30.734643], [-87.162127, 30.997536]]]}}, {"type": "Feature", "properties": {"name": "Terrebonne", "id": "22109", "FIPS": "22109", "FIPS State": 22, "ST": "LA", "County": "Terrebonne County,LA", "State": "Louisiana"}, "geometry": {"type": "Polygon", "coordinates": [[[-90.815246, 29.776178], [-90.409952, 29.195623], [-90.837154, 29.036791], [-91.275309, 29.474947], [-91.083616, 29.628301], [-91.006939, 29.715932], [-90.815246, 29.776178]]]}}, {"type": "Feature", "properties": {"name": "Napa", "id": "06055", "FIPS": "06055", "FIPS State": 6, "ST": "CA", "County": "Napa County,CA", "State": "California"}, "geometry": {"type": "Polygon", "coordinates": [[[-122.395284, 38.862422], [-122.105006, 38.511898], [-122.406238, 38.155897], [-122.625315, 38.665253], [-122.395284, 38.862422]]]}}, {"type": "Feature", "properties": {"name": "Houghton", "id": "26061", "FIPS": "26061", "FIPS State": 26, "ST": "MI", "County": "Houghton County,MI", "State": "Michigan"}, "geometry": {"type": "Polygon", "coordinates": [[[-88.383484, 47.285957], [-88.23013, 47.198326], [-88.449208, 46.94091], [-88.679239, 46.4206], [-88.712101, 46.4206], [-88.991425, 46.4206], [-88.931178, 47.034018], [-88.514931, 47.285957], [-88.383484, 47.285957]]]}}, {"type": "Feature", "properties": {"name": "Dale", "id": "01045", "FIPS": "01045", "FIPS State": 1, "ST": "AL", "County": "Dale County,AL", "State": "Alabama"}, "geometry": {"type": "Polygon", "coordinates": [[[-85.694307, 31.61643], [-85.414983, 31.621907], [-85.414983, 31.315199], [-85.710737, 31.194706], [-85.792891, 31.194706], [-85.787415, 31.61643], [-85.749076, 31.61643], [-85.694307, 31.61643]]]}}, {"type": "Feature", "properties": {"name": "Payne", "id": "40119", "FIPS": "40119", "FIPS State": 40, "ST": "OK", "County": "Payne County,OK", "State": "Oklahoma"}, "geometry": {"type": "Polygon", "coordinates": [[[-97.031573, 36.244445], [-96.927511, 36.244445], [-96.620803, 36.162291], [-96.620803, 35.943213], [-97.080866, 35.943213], [-97.141112, 35.943213], [-97.354713, 36.156814], [-97.031573, 36.244445]]]}}, {"type": "Feature", "properties": {"name": "Columbia", "id": "05027", "FIPS": "05027", "FIPS State": 5, "ST": "AR", "County": "Columbia County,AR", "State": "Arkansas"}, "geometry": {"type": "Polygon", "coordinates": [[[-93.247007, 33.440252], [-93.115561, 33.451205], [-92.978637, 33.380005], [-92.989591, 33.018527], [-93.236053, 33.018527], [-93.487993, 33.018527], [-93.3675, 33.445728], [-93.247007, 33.440252]]]}}, {"type": "Feature", "properties": {"name": "Otsego", "id": "36077", "FIPS": "36077", "FIPS State": 36, "ST": "NY", "County": "Otsego County,NY", "State": "New York"}, "geometry": {"type": "Polygon", "coordinates": [[[-75.096427, 42.904404], [-74.762334, 42.860589], [-74.647318, 42.827727], [-74.713041, 42.515542], [-74.844488, 42.510065], [-75.414089, 42.312895], [-75.293597, 42.745573], [-75.249781, 42.871543], [-75.211443, 42.882497], [-75.096427, 42.904404]]]}}, {"type": "Feature", "properties": {"name": "Covington", "id": "28031", "FIPS": "28031", "FIPS State": 28, "ST": "MS", "County": "Covington County,MS", "State": "Mississippi"}, "geometry": {"type": "Polygon", "coordinates": [[[-89.402195, 31.797169], [-89.396718, 31.435691], [-89.42958, 31.435691], [-89.451488, 31.435691], [-89.588411, 31.435691], [-89.752719, 31.775262], [-89.654134, 31.780739], [-89.402195, 31.797169]]]}}, {"type": "Feature", "properties": {"name": "Bradford", "id": "12007", "FIPS": "12007", "FIPS State": 12, "ST": "FL", "County": "Bradford County,FL", "State": "Florida"}, "geometry": {"type": "Polygon", "coordinates": [[[-82.145249, 30.143133], [-82.052141, 30.143133], [-82.046664, 29.715932], [-82.052141, 29.715932], [-82.419096, 29.924056], [-82.145249, 30.143133]]]}}, {"type": "Feature", "properties": {"name": "Jay", "id": "18075", "FIPS": "18075", "FIPS State": 18, "ST": "IN", "County": "Jay County,IN", "State": "Indiana"}, "geometry": {"type": "Polygon", "coordinates": [[[-84.801565, 40.571228], [-84.801565, 40.35215], [-84.801565, 40.308335], [-84.807042, 40.308335], [-85.217813, 40.308335], [-85.217813, 40.379535], [-85.201382, 40.565751], [-85.069935, 40.565751], [-84.801565, 40.571228]]]}}, {"type": "Feature", "properties": {"name": "La Salle", "id": "17099", "FIPS": "17099", "FIPS State": 17, "ST": "IL", "County": "La Salle County,IL", "State": "Illinois"}, "geometry": {"type": "Polygon", "coordinates": [[[-88.618993, 41.633754], [-88.602562, 41.633754], [-88.597085, 41.458492], [-88.586131, 41.107968], [-88.931178, 40.927229], [-89.046194, 40.927229], [-89.16121, 41.102491], [-89.16121, 41.310615], [-89.166687, 41.584462], [-88.936655, 41.628277], [-88.618993, 41.633754]]]}}, {"type": "Feature", "properties": {"name": "Alamosa", "id": "08003", "FIPS": "08003", "FIPS State": 8, "ST": "CO", "County": "Alamosa County,CO", "State": "Colorado"}, "geometry": {"type": "Polygon", "coordinates": [[[-105.707047, 37.750604], [-105.455107, 37.750604], [-105.487969, 37.575342], [-105.745385, 37.356264], [-106.04114, 37.400079], [-106.04114, 37.750604], [-105.707047, 37.750604]]]}}, {"type": "Feature", "properties": {"name": "Cheboygan", "id": "26031", "FIPS": "26031", "FIPS State": 26, "ST": "MI", "County": "Cheboygan County,MI", "State": "Michigan"}, "geometry": {"type": "Polygon", "coordinates": [[[-84.730365, 45.779798], [-84.730365, 45.785275], [-84.204579, 45.626444], [-84.248394, 45.199243], [-84.368887, 45.199243], [-84.735842, 45.204719], [-84.730365, 45.286874], [-84.730365, 45.779798]]]}}, {"type": "Feature", "properties": {"name": "Flathead", "id": "30029", "FIPS": "30029", "FIPS State": 30, "ST": "MT", "County": "Flathead County,MT", "State": "Montana"}, "geometry": {"type": "Polygon", "coordinates": [[[-114.070335, 49.000239], [-113.347378, 48.310145], [-113.018762, 48.134883], [-112.9859, 47.954144], [-113.144732, 47.598142], [-113.467871, 47.598142], [-113.632179, 47.598142], [-114.010088, 48.052728], [-114.601598, 47.789835], [-115.012368, 48.019867], [-114.727567, 49.000239], [-114.070335, 49.000239]]]}}, {"type": "Feature", "properties": {"name": "Madera", "id": "06039", "FIPS": "06039", "FIPS State": 6, "ST": "CA", "County": "Madera County,CA", "State": "California"}, "geometry": {"type": "Polygon", "coordinates": [[[-119.267951, 37.73965], [-119.021489, 37.586295], [-119.821122, 36.846908], [-120.281185, 36.764754], [-120.544078, 37.044078], [-120.051153, 37.181002], [-119.30629, 37.777988], [-119.267951, 37.73965]]]}}, {"type": "Feature", "properties": {"name": "Richland", "id": "39139", "FIPS": "39139", "FIPS State": 39, "ST": "OH", "County": "Richland County,OH", "State": "Ohio"}, "geometry": {"type": "Polygon", "coordinates": [[[-82.687466, 40.992952], [-82.435527, 40.992952], [-82.336942, 40.554797], [-82.621743, 40.54932], [-82.725805, 40.713628], [-82.725805, 40.998429], [-82.687466, 40.992952]]]}}, {"type": "Feature", "properties": {"name": "Lycoming", "id": "42081", "FIPS": "42081", "FIPS State": 42, "ST": "PA", "County": "Lycoming County,PA", "State": "Pennsylvania"}, "geometry": {"type": "Polygon", "coordinates": [[[-76.876433, 41.595416], [-76.816186, 41.589939], [-76.449231, 41.277753], [-76.640924, 41.157261], [-76.734032, 41.173691], [-76.799755, 41.173691], [-76.89834, 41.14083], [-77.144803, 41.069629], [-77.599389, 41.4804], [-77.599389, 41.540646], [-76.876433, 41.595416]]]}}, {"type": "Feature", "properties": {"name": "Crittenden", "id": "05035", "FIPS": "05035", "FIPS State": 5, "ST": "AR", "County": "Crittenden County,AR", "State": "Arkansas"}, "geometry": {"type": "Polygon", "coordinates": [[[-90.50306, 35.439335], [-90.289459, 35.439335], [-90.141582, 35.439335], [-90.075859, 35.384565], [-90.311367, 34.995703], [-90.30589, 34.858779], [-90.409952, 34.831394], [-90.409952, 34.902595], [-90.50306, 35.14358], [-90.50306, 35.439335]]]}}, {"type": "Feature", "properties": {"name": "Apache", "id": "04001", "FIPS": "04001", "FIPS State": 4, "ST": "AZ", "County": "Apache County,AZ", "State": "Arizona"}, "geometry": {"type": "Polygon", "coordinates": [[[-110.000968, 37.000263], [-109.042503, 37.000263], [-109.04798, 36.00346], [-109.04798, 34.957364], [-109.04798, 34.579455], [-109.04798, 33.779822], [-109.497089, 33.653852], [-109.743552, 33.500498], [-109.891429, 33.566221], [-109.842137, 35.516012], [-110.000968, 35.663889], [-110.000968, 37.000263]]]}}, {"type": "Feature", "properties": {"name": "Barbour", "id": "01005", "FIPS": "01005", "FIPS State": 1, "ST": "AL", "County": "Barbour County,AL", "State": "Alabama"}, "geometry": {"type": "Polygon", "coordinates": [[[-85.354736, 32.147694], [-85.053504, 32.06554], [-85.069935, 31.994339], [-85.141136, 31.780739], [-85.124705, 31.764308], [-85.414983, 31.621907], [-85.694307, 31.61643], [-85.749076, 31.61643], [-85.655968, 31.879324], [-85.409506, 32.147694], [-85.354736, 32.147694]]]}}, {"type": "Feature", "properties": {"name": "Platte", "id": "29165", "FIPS": "29165", "FIPS State": 29, "ST": "MO", "County": "Platte County,MO", "State": "Missouri"}, "geometry": {"type": "Polygon", "coordinates": [[[-95.10369, 39.530609], [-94.599812, 39.530609], [-94.599812, 39.453932], [-94.599812, 39.158177], [-94.775074, 39.201993], [-94.966767, 39.42107], [-95.10369, 39.530609]]]}}, {"type": "Feature", "properties": {"name": "Jefferson", "id": "47089", "FIPS": "47089", "FIPS State": 47, "ST": "TN", "County": "Jefferson County,TN", "State": "Tennessee"}, "geometry": {"type": "Polygon", "coordinates": [[[-83.602115, 36.151337], [-83.465192, 36.173245], [-83.23516, 36.085614], [-83.311837, 35.893921], [-83.673316, 36.036321], [-83.667839, 36.080137], [-83.602115, 36.151337]]]}}, {"type": "Feature", "properties": {"name": "Tooele", "id": "49045", "FIPS": "49045", "FIPS State": 49, "ST": "UT", "County": "Tooele County,UT", "State": "Utah"}, "geometry": {"type": "Polygon", "coordinates": [[[-113.073531, 40.998429], [-112.492976, 41.075106], [-112.262944, 40.773875], [-112.175313, 40.467166], [-112.18079, 40.01258], [-112.339621, 39.903041], [-114.048427, 39.908518], [-114.048427, 40.116642], [-114.04295, 40.998429], [-113.073531, 40.998429]]]}}, {"type": "Feature", "properties": {"name": "Warrick", "id": "18173", "FIPS": "18173", "FIPS State": 18, "ST": "IN", "County": "Warrick County,IN", "State": "Indiana"}, "geometry": {"type": "Polygon", "coordinates": [[[-87.310004, 38.243528], [-87.074495, 38.232574], [-87.019726, 38.20519], [-87.266188, 37.876573], [-87.304527, 37.898481], [-87.452404, 37.942297], [-87.468835, 38.166851], [-87.315481, 38.243528], [-87.310004, 38.243528]]]}}, {"type": "Feature", "properties": {"name": "Shiawassee", "id": "26155", "FIPS": "26155", "FIPS State": 26, "ST": "MI", "County": "Shiawassee County,MI", "State": "Michigan"}, "geometry": {"type": "Polygon", "coordinates": [[[-83.941686, 43.134436], [-83.930732, 43.134436], [-83.925255, 42.778435], [-84.160763, 42.778435], [-84.270302, 42.778435], [-84.36341, 42.778435], [-84.368887, 43.118005], [-84.368887, 43.128959], [-83.941686, 43.134436]]]}}, {"type": "Feature", "properties": {"name": "Chisago", "id": "27025", "FIPS": "27025", "FIPS State": 27, "ST": "MN", "County": "Chisago County,MN", "State": "Minnesota"}, "geometry": {"type": "Polygon", "coordinates": [[[-93.066268, 45.730506], [-92.841714, 45.730506], [-92.885529, 45.642875], [-92.743129, 45.297827], [-93.016976, 45.297827], [-93.016976, 45.412843], [-93.142945, 45.730506], [-93.066268, 45.730506]]]}}, {"type": "Feature", "properties": {"name": "Crawford", "id": "42039", "FIPS": "42039", "FIPS State": 42, "ST": "PA", "County": "Crawford County,PA", "State": "Pennsylvania"}, "geometry": {"type": "Polygon", "coordinates": [[[-79.708011, 41.852832], [-79.609426, 41.847355], [-79.614903, 41.6228], [-79.998289, 41.491354], [-80.003765, 41.491354], [-80.518598, 41.491354], [-80.518598, 41.502308], [-80.518598, 41.847355], [-79.708011, 41.852832]]]}}, {"type": "Feature", "properties": {"name": "Nash", "id": "37127", "FIPS": "37127", "FIPS State": 37, "ST": "NC", "County": "Nash County,NC", "State": "North Carolina"}, "geometry": {"type": "Polygon", "coordinates": [[[-78.053975, 36.134906], [-78.004682, 36.200629], [-77.697974, 36.151337], [-77.82942, 35.866536], [-78.190898, 35.729613], [-78.256622, 35.817244], [-78.053975, 36.134906]]]}}, {"type": "Feature", "properties": {"name": "Marshall", "id": "18099", "FIPS": "18099", "FIPS State": 18, "ST": "IN", "County": "Marshall County,IN", "State": "Indiana"}, "geometry": {"type": "Polygon", "coordinates": [[[-86.247477, 41.4804], [-86.061262, 41.4804], [-86.061262, 41.436584], [-86.077692, 41.173691], [-86.242001, 41.173691], [-86.466555, 41.173691], [-86.466555, 41.431108], [-86.247477, 41.4804]]]}}, {"type": "Feature", "properties": {"name": "Grand Forks", "id": "38035", "FIPS": "38035", "FIPS State": 38, "ST": "ND", "County": "Grand Forks County,ND", "State": "North Dakota"}, "geometry": {"type": "Polygon", "coordinates": [[[-97.825729, 48.195129], [-97.141112, 48.195129], [-97.146589, 48.173221], [-96.889173, 47.67482], [-97.475205, 47.669343], [-97.880499, 47.67482], [-97.902407, 48.195129], [-97.825729, 48.195129]]]}}, {"type": "Feature", "properties": {"name": "Armstrong", "id": "42005", "FIPS": "42005", "FIPS State": 42, "ST": "PA", "County": "Armstrong County,PA", "State": "Pennsylvania"}, "geometry": {"type": "Polygon", "coordinates": [[[-79.603949, 41.020337], [-79.215086, 41.053199], [-79.215086, 40.910798], [-79.450595, 40.527412], [-79.538226, 40.54932], [-79.69158, 40.669813], [-79.69158, 40.669813], [-79.69158, 41.168214], [-79.603949, 41.020337]]]}}, {"type": "Feature", "properties": {"name": "Waupaca", "id": "55135", "FIPS": "55135", "FIPS State": 55, "ST": "WI", "County": "Waupaca County,WI", "State": "Wisconsin"}, "geometry": {"type": "Polygon", "coordinates": [[[-89.221456, 44.678933], [-88.608039, 44.591302], [-88.739485, 44.240778], [-88.887363, 44.240778], [-89.226933, 44.246255], [-89.221456, 44.678933]]]}}, {"type": "Feature", "properties": {"name": "Yankton", "id": "46135", "FIPS": "46135", "FIPS State": 46, "ST": "SD", "County": "Yankton County,SD", "State": "South Dakota"}, "geometry": {"type": "Polygon", "coordinates": [[[-97.343759, 43.167298], [-97.157543, 43.085144], [-97.16302, 42.800343], [-97.486159, 42.849635], [-97.634037, 42.849635], [-97.639513, 43.167298], [-97.398528, 43.167298], [-97.343759, 43.167298]]]}}, {"type": "Feature", "properties": {"name": "Elmore", "id": "01051", "FIPS": "01051", "FIPS State": 1, "ST": "AL", "County": "Elmore County,AL", "State": "Alabama"}, "geometry": {"type": "Polygon", "coordinates": [[[-86.006492, 32.755634], [-85.885999, 32.492741], [-86.022923, 32.421541], [-86.307724, 32.416064], [-86.411786, 32.410587], [-86.411786, 32.706342], [-86.378924, 32.755634], [-86.006492, 32.755634]]]}}, {"type": "Feature", "properties": {"name": "Waldo", "id": "23027", "FIPS": "23027", "FIPS State": 23, "ST": "ME", "County": "Waldo County,ME", "State": "Maine"}, "geometry": {"type": "Polygon", "coordinates": [[[-69.471609, 44.695364], [-69.268962, 44.722749], [-68.814376, 44.68441], [-68.797945, 44.470809], [-69.027977, 44.251732], [-69.411363, 44.328409], [-69.504471, 44.34484], [-69.471609, 44.695364]]]}}, {"type": "Feature", "properties": {"name": "Laclede", "id": "29105", "FIPS": "29105", "FIPS State": 29, "ST": "MO", "County": "Laclede County,MO", "State": "Missouri"}, "geometry": {"type": "Polygon", "coordinates": [[[-92.852668, 37.893004], [-92.409035, 37.860142], [-92.250204, 37.602726], [-92.250204, 37.47128], [-92.688359, 37.482234], [-92.852668, 37.482234], [-92.852668, 37.893004]]]}}, {"type": "Feature", "properties": {"name": "Franklin", "id": "29071", "FIPS": "29071", "FIPS State": 29, "ST": "MO", "County": "Franklin County,MO", "State": "Missouri"}, "geometry": {"type": "Polygon", "coordinates": [[[-90.963123, 38.550237], [-90.733092, 38.637868], [-90.738569, 38.47356], [-90.782384, 38.20519], [-91.09457, 38.20519], [-91.368417, 38.210667], [-91.368417, 38.698114], [-90.963123, 38.550237]]]}}, {"type": "Feature", "properties": {"name": "Latah", "id": "16057", "FIPS": "16057", "FIPS State": 16, "ST": "ID", "County": "Latah County,ID", "State": "Idaho"}, "geometry": {"type": "Polygon", "coordinates": [[[-117.000498, 47.132602], [-116.332311, 47.023064], [-116.332311, 46.935433], [-116.458281, 46.628724], [-116.644497, 46.61777], [-117.038836, 46.541093], [-117.038836, 47.127126], [-117.000498, 47.132602]]]}}, {"type": "Feature", "properties": {"name": "Clay", "id": "20027", "FIPS": "20027", "FIPS State": 20, "ST": "KS", "County": "Clay County,KS", "State": "Kansas"}, "geometry": {"type": "Polygon", "coordinates": [[[-97.299943, 39.568948], [-96.960373, 39.568948], [-96.960373, 39.218424], [-96.96585, 39.130793], [-97.261605, 39.130793], [-97.371143, 39.130793], [-97.371143, 39.306055], [-97.371143, 39.568948], [-97.299943, 39.568948]]]}}, {"type": "Feature", "properties": {"name": "Muskingum", "id": "39119", "FIPS": "39119", "FIPS State": 39, "ST": "OH", "County": "Muskingum County,OH", "State": "Ohio"}, "geometry": {"type": "Polygon", "coordinates": [[[-82.189065, 40.165934], [-81.718048, 40.149503], [-81.69614, 39.842795], [-81.69614, 39.755164], [-82.074049, 39.771595], [-82.23288, 39.913995], [-82.189065, 40.165934]]]}}, {"type": "Feature", "properties": {"name": "Robertson", "id": "47147", "FIPS": "47147", "FIPS State": 47, "ST": "TN", "County": "Robertson County,TN", "State": "Tennessee"}, "geometry": {"type": "Polygon", "coordinates": [[[-86.76231, 36.649739], [-86.56514, 36.633308], [-86.756833, 36.403276], [-86.76231, 36.403276], [-86.915664, 36.381369], [-87.118311, 36.458046], [-87.112834, 36.644262], [-87.058065, 36.644262], [-86.76231, 36.649739]]]}}, {"type": "Feature", "properties": {"name": "Colquitt", "id": "13071", "FIPS": "13071", "FIPS State": 13, "ST": "GA", "County": "Colquitt County,GA", "State": "Georgia"}, "geometry": {"type": "Polygon", "coordinates": [[[-83.974547, 31.337106], [-83.651408, 31.331629], [-83.514484, 31.326153], [-83.574731, 31.07969], [-83.739039, 31.035875], [-84.001932, 31.07969], [-84.001932, 31.337106], [-83.974547, 31.337106]]]}}, {"type": "Feature", "properties": {"name": "Christian", "id": "29043", "FIPS": "29043", "FIPS State": 29, "ST": "MO", "County": "Christian County,MO", "State": "Missouri"}, "geometry": {"type": "Polygon", "coordinates": [[[-93.482516, 37.098848], [-93.066268, 37.087894], [-92.90196, 37.071463], [-92.907437, 36.80857], [-93.301777, 36.819524], [-93.592055, 36.994786], [-93.608485, 36.994786], [-93.608485, 37.098848], [-93.482516, 37.098848]]]}}, {"type": "Feature", "properties": {"name": "Fayette", "id": "47047", "FIPS": "47047", "FIPS State": 47, "ST": "TN", "County": "Fayette County,TN", "State": "Tennessee"}, "geometry": {"type": "Polygon", "coordinates": [[[-89.550073, 35.400996], [-89.473395, 35.400996], [-89.183118, 35.395519], [-89.199548, 34.995703], [-89.352903, 34.995703], [-89.643181, 34.995703], [-89.632227, 35.373611], [-89.550073, 35.400996]]]}}, {"type": "Feature", "properties": {"name": "Graves", "id": "21083", "FIPS": "21083", "FIPS State": 21, "ST": "KY", "County": "Graves County,KY", "State": "Kentucky"}, "geometry": {"type": "Polygon", "coordinates": [[[-88.723055, 36.945493], [-88.482069, 36.940016], [-88.487546, 36.748324], [-88.487546, 36.501861], [-88.514931, 36.501861], [-88.816163, 36.501861], [-88.810686, 36.775708], [-88.810686, 36.945493], [-88.723055, 36.945493]]]}}, {"type": "Feature", "properties": {"name": "Pender", "id": "37141", "FIPS": "37141", "FIPS State": 37, "ST": "NC", "County": "Pender County,NC", "State": "North Carolina"}, "geometry": {"type": "Polygon", "coordinates": [[[-78.015636, 34.732809], [-77.681543, 34.721856], [-77.517235, 34.442532], [-77.714404, 34.294654], [-77.960867, 34.376808], [-78.032067, 34.332993], [-78.125175, 34.365854], [-78.163514, 34.354901], [-78.256622, 34.398716], [-78.256622, 34.55207], [-78.114221, 34.721856], [-78.015636, 34.732809]]]}}, {"type": "Feature", "properties": {"name": "Dunn", "id": "55033", "FIPS": "55033", "FIPS State": 55, "ST": "WI", "County": "Dunn County,WI", "State": "Wisconsin"}, "geometry": {"type": "Polygon", "coordinates": [[[-92.157096, 45.210196], [-91.664172, 45.210196], [-91.653218, 44.854195], [-91.647741, 44.68441], [-91.894203, 44.68441], [-92.135188, 44.68441], [-92.135188, 44.859672], [-92.157096, 45.210196]]]}}, {"type": "Feature", "properties": {"name": "Lincoln", "id": "41041", "FIPS": "41041", "FIPS State": 41, "ST": "OR", "County": "Lincoln County,OR", "State": "Oregon"}, "geometry": {"type": "Polygon", "coordinates": [[[-124.000027, 45.045888], [-123.72618, 45.045888], [-123.600211, 44.722749], [-123.775473, 44.284593], [-124.010981, 44.279117], [-124.115043, 44.27364], [-124.005504, 45.045888], [-124.000027, 45.045888]]]}}, {"type": "Feature", "properties": {"name": "Rowan", "id": "37159", "FIPS": "37159", "FIPS State": 37, "ST": "NC", "County": "Rowan County,NC", "State": "North Carolina"}, "geometry": {"type": "Polygon", "coordinates": [[[-80.688383, 35.861059], [-80.458352, 35.740566], [-80.184505, 35.505058], [-80.233797, 35.505058], [-80.294043, 35.505058], [-80.737675, 35.505058], [-80.710291, 35.850105], [-80.688383, 35.861059]]]}}, {"type": "Feature", "properties": {"name": "Nevada", "id": "06057", "FIPS": "06057", "FIPS State": 6, "ST": "CA", "County": "Nevada County,CA", "State": "California"}, "geometry": {"type": "Polygon", "coordinates": [[[-120.555032, 39.508701], [-120.001861, 39.442978], [-120.007338, 39.317009], [-120.149738, 39.317009], [-121.277988, 39.032208], [-121.020572, 39.393686], [-120.555032, 39.508701]]]}}, {"type": "Feature", "properties": {"name": "Orleans", "id": "36073", "FIPS": "36073", "FIPS State": 36, "ST": "NY", "County": "Orleans County,NY", "State": "New York"}, "geometry": {"type": "Polygon", "coordinates": [[[-77.993728, 43.364467], [-77.999205, 43.134436], [-78.464745, 43.128959], [-78.464745, 43.369944], [-77.993728, 43.364467]]]}}, {"type": "Feature", "properties": {"name": "Henderson", "id": "21101", "FIPS": "21101", "FIPS State": 21, "ST": "KY", "County": "Henderson County,KY", "State": "Kentucky"}, "geometry": {"type": "Polygon", "coordinates": [[[-87.698867, 37.898481], [-87.452404, 37.942297], [-87.304527, 37.898481], [-87.408589, 37.68488], [-87.49622, 37.646542], [-87.731728, 37.635588], [-87.928898, 37.903958], [-87.698867, 37.898481]]]}}, {"type": "Feature", "properties": {"name": "Columbia", "id": "13073", "FIPS": "13073", "FIPS State": 13, "ST": "GA", "County": "Columbia County,GA", "State": "Georgia"}, "geometry": {"type": "Polygon", "coordinates": [[[-82.216449, 33.686714], [-82.117864, 33.599083], [-82.030233, 33.544313], [-82.293127, 33.35262], [-82.424573, 33.648375], [-82.216449, 33.686714]]]}}, {"type": "Feature", "properties": {"name": "Marshall", "id": "47117", "FIPS": "47117", "FIPS State": 47, "ST": "TN", "County": "Marshall County,TN", "State": "Tennessee"}, "geometry": {"type": "Polygon", "coordinates": [[[-86.784218, 35.707705], [-86.685633, 35.707705], [-86.641817, 35.685797], [-86.598002, 35.362658], [-86.828033, 35.264073], [-86.95948, 35.417427], [-86.784218, 35.707705]]]}}, {"type": "Feature", "properties": {"name": "Grayson", "id": "21085", "FIPS": "21085", "FIPS State": 21, "ST": "KY", "County": "Grayson County,KY", "State": "Kentucky"}, "geometry": {"type": "Polygon", "coordinates": [[[-86.472032, 37.602726], [-86.274862, 37.591772], [-86.044831, 37.449372], [-86.159846, 37.334356], [-86.466555, 37.323402], [-86.614433, 37.394602], [-86.592525, 37.564388], [-86.472032, 37.602726]]]}}, {"type": "Feature", "properties": {"name": "Gordon", "id": "13129", "FIPS": "13129", "FIPS State": 13, "ST": "GA", "County": "Gordon County,GA", "State": "Georgia"}, "geometry": {"type": "Polygon", "coordinates": [[[-84.916581, 34.634225], [-84.653688, 34.584932], [-84.653688, 34.546593], [-84.653688, 34.415147], [-84.933012, 34.398716], [-85.004212, 34.393239], [-85.069935, 34.584932], [-85.048028, 34.623271], [-84.916581, 34.634225]]]}}, {"type": "Feature", "properties": {"name": "Bremer", "id": "19017", "FIPS": "19017", "FIPS State": 19, "ST": "IA", "County": "Bremer County,IA", "State": "Iowa"}, "geometry": {"type": "Polygon", "coordinates": [[[-92.387128, 42.909881], [-92.080419, 42.904404], [-92.080419, 42.641511], [-92.469282, 42.641511], [-92.556913, 42.641511], [-92.556913, 42.904404], [-92.387128, 42.909881]]]}}, {"type": "Feature", "properties": {"name": "Wicomico", "id": "24045", "FIPS": "24045", "FIPS State": 24, "ST": "MD", "County": "Wicomico County,MD", "State": "Maryland"}, "geometry": {"type": "Polygon", "coordinates": [[[-75.813906, 38.489991], [-75.69889, 38.561191], [-75.342889, 38.451652], [-75.611259, 38.27639], [-75.62769, 38.281867], [-75.863199, 38.238051], [-75.923445, 38.265436], [-75.813906, 38.489991]]]}}, {"type": "Feature", "properties": {"name": "Monroe", "id": "26115", "FIPS": "26115", "FIPS State": 26, "ST": "MI", "County": "Monroe County,MI", "State": "Michigan"}, "geometry": {"type": "Polygon", "coordinates": [[[-83.421376, 42.093817], [-83.185868, 42.033571], [-83.454238, 41.732339], [-83.760947, 41.721385], [-83.7719, 42.082863], [-83.541869, 42.082863], [-83.421376, 42.093817]]]}}, {"type": "Feature", "properties": {"name": "Washington", "id": "01129", "FIPS": "01129", "FIPS State": 1, "ST": "AL", "County": "Washington County,AL", "State": "Alabama"}, "geometry": {"type": "Polygon", "coordinates": [[[-88.186314, 31.698584], [-88.087729, 31.698584], [-87.945329, 31.194706], [-87.972714, 31.161844], [-88.432777, 31.112552], [-88.449208, 31.435691], [-88.465638, 31.698584], [-88.186314, 31.698584]]]}}, {"type": "Feature", "properties": {"name": "Wood", "id": "55141", "FIPS": "55141", "FIPS State": 55, "ST": "WI", "County": "Wood County,WI", "State": "Wisconsin"}, "geometry": {"type": "Polygon", "coordinates": [[[-90.207305, 44.68441], [-89.845827, 44.68441], [-89.725335, 44.246255], [-89.818443, 44.251732], [-89.900597, 44.251732], [-90.081336, 44.246255], [-90.311367, 44.246255], [-90.316844, 44.426994], [-90.316844, 44.68441], [-90.207305, 44.68441]]]}}, {"type": "Feature", "properties": {"name": "Dona Ana", "id": "35013", "FIPS": "35013", "FIPS State": 35, "ST": "NM", "County": "Dona Ana County,NM", "State": "New Mexico"}, "geometry": {"type": "Polygon", "coordinates": [[[-106.342372, 33.051389], [-106.375233, 31.999816], [-106.528588, 31.786216], [-107.295359, 31.786216], [-107.300836, 32.607757], [-107.300836, 32.777542], [-106.342372, 33.051389]]]}}, {"type": "Feature", "properties": {"name": "Jones", "id": "28067", "FIPS": "28067", "FIPS State": 28, "ST": "MS", "County": "Jones County,MS", "State": "Mississippi"}, "geometry": {"type": "Polygon", "coordinates": [[[-88.942132, 31.824554], [-88.942132, 31.435691], [-89.144779, 31.435691], [-89.396718, 31.435691], [-89.402195, 31.797169], [-89.314564, 31.802646], [-88.942132, 31.824554]]]}}, {"type": "Feature", "properties": {"name": "Walker", "id": "48471", "FIPS": "48471", "FIPS State": 48, "ST": "TX", "County": "Walker County,TX", "State": "Texas"}, "geometry": {"type": "Polygon", "coordinates": [[[-95.432306, 31.057782], [-95.328245, 30.860613], [-95.361106, 30.504611], [-95.832123, 30.630581], [-95.864985, 30.86609], [-95.618522, 30.931813], [-95.432306, 31.057782]]]}}, {"type": "Feature", "properties": {"name": "Jackson", "id": "01071", "FIPS": "01071", "FIPS State": 1, "ST": "AL", "County": "Jackson County,AL", "State": "Alabama"}, "geometry": {"type": "Polygon", "coordinates": [[[-85.864092, 34.990226], [-85.606675, 34.984749], [-85.584768, 34.858779], [-86.055785, 34.475393], [-86.329632, 34.601363], [-86.313201, 34.990226], [-85.864092, 34.990226]]]}}]}