{"type": "FeatureCollection", "crs": {"type": "name", "properties": {"name": "urn:ogc:def:crs:OGC:1.3:CRS84"}}, "features": [{"type": "Feature", "properties": {"name": "Aiken", "id": "45003", "FIPS": "45003", "FIPS State": 45, "ST": "SC", "County": "Aiken County,SC", "State": "South Carolina"}, "geometry": {"type": "Polygon", "coordinates": [[[-81.57017, 33.878407], [-81.186785, 33.653852], [-81.373001, 33.489544], [-81.756386, 33.199266], [-81.849494, 33.248559], [-82.013803, 33.53336], [-81.652325, 33.812683], [-81.57017, 33.878407]]]}}, {"type": "Feature", "properties": {"name": "Cumberland", "id": "42041", "FIPS": "42041", "FIPS State": 42, "ST": "PA", "County": "Cumberland County,PA", "State": "Pennsylvania"}, "geometry": {"type": "Polygon", "coordinates": [[[-77.122895, 40.297381], [-76.914771, 40.330243], [-76.860002, 40.226181], [-76.903817, 40.220704], [-77.139326, 40.067349], [-77.473419, 39.946857], [-77.615819, 40.198796], [-77.122895, 40.297381]]]}}, {"type": "Feature", "properties": {"name": "Ada", "id": "16001", "FIPS": "16001", "FIPS State": 16, "ST": "ID", "County": "Ada County,ID", "State": "Idaho"}, "geometry": {"type": "Polygon", "coordinates": [[[-116.51305, 43.8081], [-116.283018, 43.8081], [-115.97631, 43.589022], [-116.266588, 43.112528], [-116.51305, 43.28779], [-116.51305, 43.8081]]]}}, {"type": "Feature", "properties": {"name": "Marin", "id": "06041", "FIPS": "06041", "FIPS State": 6, "ST": "CA", "County": "Marin County,CA", "State": "California"}, "geometry": {"type": "Polygon", "coordinates": [[[-122.844393, 38.27639], [-122.488392, 38.112082], [-122.504823, 37.821804], [-123.014178, 38.002543], [-123.003224, 38.298298], [-122.844393, 38.27639]]]}}, {"type": "Feature", "properties": {"name": "Crawford", "id": "42039", "FIPS": "42039", "FIPS State": 42, "ST": "PA", "County": "Crawford County,PA", "State": "Pennsylvania"}, "geometry": {"type": "Polygon", "coordinates": [[[-79.708011, 41.852832], [-79.609426, 41.847355], [-79.614903, 41.6228], [-79.998289, 41.491354], [-80.003765, 41.491354], [-80.518598, 41.491354], [-80.518598, 41.502308], [-80.518598, 41.847355], [-79.708011, 41.852832]]]}}, {"type": "Feature", "properties": {"name": "Collier", "id": "12021", "FIPS": "12021", "FIPS State": 12, "ST": "FL", "County": "Collier County,FL", "State": "Florida"}, "geometry": {"type": "Polygon", "coordinates": [[[-81.564693, 26.511922], [-80.880076, 26.259983], [-80.874599, 25.980659], [-80.874599, 25.805397], [-81.345616, 25.805397], [-81.679709, 25.843735], [-81.844017, 26.331183], [-81.564693, 26.511922]]]}}, {"type": "Feature", "properties": {"name": "Chautauqua", "id": "36013", "FIPS": "36013", "FIPS State": 36, "ST": "NY", "County": "Chautauqua County,NY", "State": "New York"}, "geometry": {"type": "Polygon", "coordinates": [[[-79.138409, 42.570311], [-79.061732, 42.537449], [-79.061732, 42.000709], [-79.609426, 42.000709], [-79.76278, 42.252649], [-79.76278, 42.269079], [-79.138409, 42.570311], [-79.138409, 42.570311]]]}}, {"type": "Feature", "properties": {"name": "Shiawassee", "id": "26155", "FIPS": "26155", "FIPS State": 26, "ST": "MI", "County": "Shiawassee County,MI", "State": "Michigan"}, "geometry": {"type": "Polygon", "coordinates": [[[-83.941686, 43.134436], [-83.930732, 43.134436], [-83.925255, 42.778435], [-84.160763, 42.778435], [-84.270302, 42.778435], [-84.36341, 42.778435], [-84.368887, 43.118005], [-84.368887, 43.128959], [-83.941686, 43.134436]]]}}, {"type": "Feature", "properties": {"name": "Thurston", "id": "53067", "FIPS": "53067", "FIPS State": 53, "ST": "WA", "County": "Thurston County,WA", "State": "Washington"}, "geometry": {"type": "Polygon", "coordinates": [[[-122.904639, 47.15451], [-122.822485, 47.192849], [-122.203591, 46.760171], [-123.162056, 46.793032], [-123.200394, 47.08331], [-122.904639, 47.15451]]]}}, {"type": "Feature", "properties": {"name": "Shelby", "id": "47157", "FIPS": "47157", "FIPS State": 47, "ST": "TN", "County": "Shelby County,TN", "State": "Tennessee"}, "geometry": {"type": "Polygon", "coordinates": [[[-89.774627, 35.406473], [-89.632227, 35.373611], [-89.643181, 34.995703], [-89.725335, 34.995703], [-89.829396, 34.995703], [-90.311367, 34.995703], [-90.075859, 35.384565], [-89.774627, 35.406473]]]}}, {"type": "Feature", "properties": {"name": "Volusia", "id": "12127", "FIPS": "12127", "FIPS State": 12, "ST": "FL", "County": "Volusia County,FL", "State": "Florida"}, "geometry": {"type": "Polygon", "coordinates": [[[-81.110107, 29.425654], [-81.10463, 29.425654], [-80.732199, 28.790329], [-80.989615, 28.615067], [-81.367524, 28.87796], [-81.641371, 29.277777], [-81.679709, 29.327069], [-81.433247, 29.39827], [-81.110107, 29.425654]]]}}, {"type": "Feature", "properties": {"name": "Muscogee", "id": "13215", "FIPS": "13215", "FIPS State": 13, "ST": "GA", "County": "Muscogee County,GA", "State": "Georgia"}, "geometry": {"type": "Polygon", "coordinates": [[[-85.02612, 32.607757], [-84.692026, 32.585849], [-84.692026, 32.520126], [-84.982304, 32.372248], [-84.998735, 32.509172], [-85.080889, 32.607757], [-85.02612, 32.607757]]]}}, {"type": "Feature", "properties": {"name": "Jefferson", "id": "01073", "FIPS": "01073", "FIPS State": 1, "ST": "AL", "County": "Jefferson County,AL", "State": "Alabama"}, "geometry": {"type": "Polygon", "coordinates": [[[-86.685633, 33.796253], [-86.576094, 33.763391], [-86.515848, 33.544313], [-87.025203, 33.248559], [-87.063542, 33.248559], [-87.266188, 33.511452], [-86.954003, 33.812683], [-86.685633, 33.796253]]]}}, {"type": "Feature", "properties": {"name": "Coffee", "id": "47031", "FIPS": "47031", "FIPS State": 47, "ST": "TN", "County": "Coffee County,TN", "State": "Tennessee"}, "geometry": {"type": "Polygon", "coordinates": [[[-86.209139, 35.702228], [-85.984584, 35.658412], [-85.875046, 35.521489], [-85.913384, 35.291457], [-86.214616, 35.346227], [-86.263908, 35.335273], [-86.258431, 35.41195], [-86.258431, 35.41195], [-86.247477, 35.631028], [-86.209139, 35.702228]]]}}, {"type": "Feature", "properties": {"name": "Lucas", "id": "39095", "FIPS": "39095", "FIPS State": 39, "ST": "OH", "County": "Lucas County,OH", "State": "Ohio"}, "geometry": {"type": "Polygon", "coordinates": [[[-83.16396, 41.6228], [-83.180391, 41.6228], [-83.415899, 41.617324], [-83.881439, 41.414677], [-83.881439, 41.485877], [-83.881439, 41.721385], [-83.760947, 41.721385], [-83.454238, 41.732339], [-83.16396, 41.6228]]]}}, {"type": "Feature", "properties": {"name": "Grafton", "id": "33009", "FIPS": "33009", "FIPS State": 33, "ST": "NH", "County": "Grafton County,NH", "State": "New Hampshire"}, "geometry": {"type": "Polygon", "coordinates": [[[-71.837647, 44.350317], [-71.766447, 44.405086], [-71.415923, 44.213393], [-71.530939, 43.764284], [-71.728109, 43.561637], [-71.81574, 43.545207], [-71.936232, 43.528776], [-72.330572, 43.599976], [-72.204602, 43.769761], [-72.040294, 44.153147], [-71.837647, 44.350317]]]}}, {"type": "Feature", "properties": {"name": "Cherokee", "id": "13057", "FIPS": "13057", "FIPS State": 13, "ST": "GA", "County": "Cherokee County,GA", "State": "Georgia"}, "geometry": {"type": "Polygon", "coordinates": [[[-84.582488, 34.387762], [-84.259348, 34.382285], [-84.259348, 34.332993], [-84.259348, 34.185115], [-84.407226, 34.108438], [-84.418179, 34.075577], [-84.615349, 34.081054], [-84.659165, 34.075577], [-84.653688, 34.415147], [-84.582488, 34.387762]]]}}, {"type": "Feature", "properties": {"name": "Minnehaha", "id": "46099", "FIPS": "46099", "FIPS State": 46, "ST": "SD", "County": "Minnehaha County,SD", "State": "South Dakota"}, "geometry": {"type": "Polygon", "coordinates": [[[-96.489356, 43.846438], [-96.451017, 43.851915], [-96.451017, 43.501391], [-96.598895, 43.501391], [-96.779634, 43.501391], [-96.922034, 43.501391], [-97.130158, 43.501391], [-97.130158, 43.846438], [-96.889173, 43.846438], [-96.489356, 43.846438]]]}}, {"type": "Feature", "properties": {"name": "Cumberland", "id": "37051", "FIPS": "37051", "FIPS State": 37, "ST": "NC", "County": "Cumberland County,NC", "State": "North Carolina"}, "geometry": {"type": "Polygon", "coordinates": [[[-78.952193, 35.21478], [-78.6181, 35.247642], [-78.49213, 34.858779], [-78.9029, 34.836871], [-79.034347, 34.951887], [-79.10007, 35.176442], [-79.094593, 35.192872], [-78.952193, 35.21478]]]}}, {"type": "Feature", "properties": {"name": "Clackamas", "id": "41005", "FIPS": "41005", "FIPS State": 41, "ST": "OR", "County": "Clackamas County,OR", "State": "Oregon"}, "geometry": {"type": "Polygon", "coordinates": [[[-122.356945, 45.462136], [-121.820205, 45.462136], [-121.694236, 45.259489], [-121.732574, 44.887057], [-122.395284, 44.887057], [-122.84987, 45.259489], [-122.866301, 45.319735], [-122.745808, 45.434751], [-122.356945, 45.462136]]]}}, {"type": "Feature", "properties": {"name": "Richland", "id": "39139", "FIPS": "39139", "FIPS State": 39, "ST": "OH", "County": "Richland County,OH", "State": "Ohio"}, "geometry": {"type": "Polygon", "coordinates": [[[-82.687466, 40.992952], [-82.435527, 40.992952], [-82.336942, 40.554797], [-82.621743, 40.54932], [-82.725805, 40.713628], [-82.725805, 40.998429], [-82.687466, 40.992952]]]}}, {"type": "Feature", "properties": {"name": "Okaloosa", "id": "12091", "FIPS": "12091", "FIPS State": 12, "ST": "FL", "County": "Okaloosa County,FL", "State": "Florida"}, "geometry": {"type": "Polygon", "coordinates": [[[-86.685633, 30.992059], [-86.389878, 30.992059], [-86.395355, 30.378642], [-86.800648, 30.384119], [-86.784218, 30.997536], [-86.685633, 30.992059]]]}}, {"type": "Feature", "properties": {"name": "Williamson", "id": "47187", "FIPS": "47187", "FIPS State": 47, "ST": "TN", "County": "Williamson County,TN", "State": "Tennessee"}, "geometry": {"type": "Polygon", "coordinates": [[[-86.921141, 36.052752], [-86.619909, 35.970598], [-86.685633, 35.707705], [-86.784218, 35.707705], [-87.216896, 35.850105], [-87.205942, 35.959644], [-87.184034, 36.047275], [-87.052588, 36.047275], [-86.921141, 36.052752]]]}}, {"type": "Feature", "properties": {"name": "Lake", "id": "18089", "FIPS": "18089", "FIPS State": 18, "ST": "IN", "County": "Lake County,IN", "State": "Indiana"}, "geometry": {"type": "Polygon", "coordinates": [[[-87.222373, 41.6228], [-87.216896, 41.239415], [-87.277142, 41.217507], [-87.529082, 41.168214], [-87.529082, 41.299661], [-87.523605, 41.469446], [-87.523605, 41.710431], [-87.222373, 41.6228]]]}}, {"type": "Feature", "properties": {"name": "Johnson", "id": "18081", "FIPS": "18081", "FIPS State": 18, "ST": "IN", "County": "Johnson County,IN", "State": "Indiana"}, "geometry": {"type": "Polygon", "coordinates": [[[-85.97363, 39.640148], [-85.951723, 39.640148], [-85.951723, 39.34987], [-86.083169, 39.344393], [-86.252954, 39.344393], [-86.247477, 39.634671], [-85.97363, 39.640148]]]}}, {"type": "Feature", "properties": {"name": "Putnam", "id": "36079", "FIPS": "36079", "FIPS State": 36, "ST": "NY", "County": "Putnam County,NY", "State": "New York"}, "geometry": {"type": "Polygon", "coordinates": [[[-73.530022, 41.529692], [-73.546453, 41.365384], [-73.661469, 41.35443], [-73.984608, 41.321569], [-73.979131, 41.327046], [-73.979131, 41.436584], [-73.530022, 41.529692]]]}}, {"type": "Feature", "properties": {"name": "Gilmer", "id": "13123", "FIPS": "13123", "FIPS State": 13, "ST": "GA", "County": "Gilmer County,GA", "State": "Georgia"}, "geometry": {"type": "Polygon", "coordinates": [[[-84.620826, 34.853302], [-84.199102, 34.617794], [-84.346979, 34.563024], [-84.653688, 34.546593], [-84.653688, 34.584932], [-84.620826, 34.853302]]]}}, {"type": "Feature", "properties": {"name": "Richland", "id": "45079", "FIPS": "45079", "FIPS State": 45, "ST": "SC", "County": "Richland County,SC", "State": "South Carolina"}, "geometry": {"type": "Polygon", "coordinates": [[[-80.863645, 34.261793], [-80.825307, 34.26727], [-80.617183, 34.097484], [-80.62266, 33.741483], [-81.011523, 33.878407], [-81.340139, 34.196069], [-81.318231, 34.239885], [-80.863645, 34.261793]]]}}, {"type": "Feature", "properties": {"name": "Greenville", "id": "45045", "FIPS": "45045", "FIPS State": 45, "ST": "SC", "County": "Greenville County,SC", "State": "South Carolina"}, "geometry": {"type": "Polygon", "coordinates": [[[-82.353373, 35.192872], [-82.216449, 35.198349], [-82.145249, 34.787579], [-82.315034, 34.486347], [-82.484819, 34.820441], [-82.621743, 35.066903], [-82.764143, 35.066903], [-82.572451, 35.14358], [-82.353373, 35.192872]]]}}, {"type": "Feature", "properties": {"name": "Kane", "id": "17089", "FIPS": "17089", "FIPS State": 17, "ST": "IL", "County": "Kane County,IL", "State": "Illinois"}, "geometry": {"type": "Polygon", "coordinates": [[[-88.454684, 42.154064], [-88.235607, 42.154064], [-88.262992, 41.984279], [-88.262992, 41.726862], [-88.602562, 41.721385], [-88.586131, 42.154064], [-88.454684, 42.154064]]]}}, {"type": "Feature", "properties": {"name": "Oneida", "id": "36065", "FIPS": "36065", "FIPS State": 36, "ST": "NY", "County": "Oneida County,NY", "State": "New York"}, "geometry": {"type": "Polygon", "coordinates": [[[-75.112858, 43.616407], [-75.211443, 42.882497], [-75.249781, 42.871543], [-75.885106, 43.156344], [-75.75366, 43.468529], [-75.112858, 43.616407]]]}}, {"type": "Feature", "properties": {"name": "Marshall", "id": "40095", "FIPS": "40095", "FIPS State": 40, "ST": "OK", "County": "Marshall County,OK", "State": "Oklahoma"}, "geometry": {"type": "Polygon", "coordinates": [[[-96.932988, 34.174162], [-96.587941, 34.113915], [-96.587941, 33.894838], [-96.932988, 33.955084], [-96.971327, 34.0701], [-96.932988, 34.174162]]]}}, {"type": "Feature", "properties": {"name": "Anoka", "id": "27003", "FIPS": "27003", "FIPS State": 27, "ST": "MN", "County": "Anoka County,MN", "State": "Minnesota"}, "geometry": {"type": "Polygon", "coordinates": [[[-93.159376, 45.412843], [-93.016976, 45.412843], [-93.016976, 45.297827], [-93.022453, 45.122565], [-93.230576, 45.122565], [-93.2251, 45.034934], [-93.5099, 45.243058], [-93.5099, 45.412843], [-93.159376, 45.412843]]]}}, {"type": "Feature", "properties": {"name": "Bell", "id": "48027", "FIPS": "48027", "FIPS State": 48, "ST": "TX", "County": "Bell County,TX", "State": "Texas"}, "geometry": {"type": "Polygon", "coordinates": [[[-97.404005, 31.304245], [-97.278035, 31.282337], [-97.069912, 30.986582], [-97.316374, 30.751074], [-97.831206, 30.904428], [-97.91336, 31.035875], [-97.907884, 31.068736], [-97.420436, 31.320676], [-97.404005, 31.304245]]]}}, {"type": "Feature", "properties": {"name": "Northampton", "id": "42095", "FIPS": "42095", "FIPS State": 42, "ST": "PA", "County": "Northampton County,PA", "State": "Pennsylvania"}, "geometry": {"type": "Polygon", "coordinates": [[[-75.118335, 40.965568], [-75.195012, 40.609566], [-75.331935, 40.538366], [-75.611259, 40.784829], [-75.474336, 40.812213], [-75.118335, 40.965568]]]}}, {"type": "Feature", "properties": {"name": "Salem", "id": "34033", "FIPS": "34033", "FIPS State": 34, "ST": "NJ", "County": "Salem County,NJ", "State": "New Jersey"}, "geometry": {"type": "Polygon", "coordinates": [[[-75.446951, 39.771595], [-75.063565, 39.568948], [-75.408613, 39.382732], [-75.55649, 39.607286], [-75.561967, 39.629194], [-75.507197, 39.683964], [-75.446951, 39.771595]]]}}, {"type": "Feature", "properties": {"name": "Hidalgo", "id": "48215", "FIPS": "48215", "FIPS State": 48, "ST": "TX", "County": "Hidalgo County,TX", "State": "Texas"}, "geometry": {"type": "Polygon", "coordinates": [[[-98.318654, 26.785769], [-97.984561, 26.780292], [-97.957176, 26.610507], [-97.864068, 26.347614], [-97.864068, 26.051859], [-98.587024, 26.254506], [-98.318654, 26.785769]]]}}, {"type": "Feature", "properties": {"name": "Gloucester", "id": "34015", "FIPS": "34015", "FIPS State": 34, "ST": "NJ", "County": "Gloucester County,NJ", "State": "New Jersey"}, "geometry": {"type": "Polygon", "coordinates": [[[-75.211443, 39.864703], [-75.140242, 39.88661], [-74.877349, 39.607286], [-74.986888, 39.514178], [-75.058088, 39.568948], [-75.063565, 39.568948], [-75.446951, 39.771595], [-75.414089, 39.804456], [-75.211443, 39.864703]]]}}, {"type": "Feature", "properties": {"name": "Washoe", "id": "32031", "FIPS": "32031", "FIPS State": 32, "ST": "NV", "County": "Washoe County,NV", "State": "Nevada"}, "geometry": {"type": "Polygon", "coordinates": [[[-119.361059, 41.995232], [-119.32272, 41.995232], [-119.311766, 40.960091], [-119.224135, 40.001626], [-119.191274, 39.629194], [-119.196751, 39.623717], [-119.284382, 39.623717], [-119.689675, 39.519655], [-119.711583, 39.251285], [-120.001861, 39.163654], [-120.007338, 39.317009], [-120.001861, 39.442978], [-120.001861, 39.722302], [-120.001861, 41.184645], [-120.001861, 41.995232], [-119.361059, 41.995232]]]}}, {"type": "Feature", "properties": {"name": "San Mateo", "id": "06081", "FIPS": "06081", "FIPS State": 6, "ST": "CA", "County": "San Mateo County,CA", "State": "California"}, "geometry": {"type": "Polygon", "coordinates": [[[-122.428146, 37.706788], [-122.389807, 37.706788], [-122.11596, 37.504141], [-122.083098, 37.476757], [-122.154299, 37.285064], [-122.291222, 37.109802], [-122.504823, 37.706788], [-122.428146, 37.706788]]]}}, {"type": "Feature", "properties": {"name": "Kaufman", "id": "48257", "FIPS": "48257", "FIPS State": 48, "ST": "TX", "County": "Kaufman County,TX", "State": "Texas"}, "geometry": {"type": "Polygon", "coordinates": [[[-96.297663, 32.843265], [-96.078585, 32.837788], [-96.078585, 32.355817], [-96.215509, 32.361294], [-96.451017, 32.361294], [-96.527695, 32.54751], [-96.516741, 32.81588], [-96.297663, 32.843265]]]}}, {"type": "Feature", "properties": {"name": "Charleston", "id": "45019", "FIPS": "45019", "FIPS State": 45, "ST": "SC", "County": "Charleston County,SC", "State": "South Carolina"}, "geometry": {"type": "Polygon", "coordinates": [[[-79.49441, 33.188312], [-79.445118, 33.215697], [-79.291763, 33.111635], [-80.250228, 32.531079], [-80.403582, 32.859696], [-80.151643, 33.024004], [-79.927088, 32.821357], [-79.49441, 33.188312]]]}}, {"type": "Feature", "properties": {"name": "Collin", "id": "48085", "FIPS": "48085", "FIPS State": 48, "ST": "TX", "County": "Collin County,TX", "State": "Texas"}, "geometry": {"type": "Polygon", "coordinates": [[[-96.834403, 33.40739], [-96.834403, 33.40739], [-96.385294, 33.396436], [-96.297663, 33.35262], [-96.297663, 32.980189], [-96.440064, 32.980189], [-96.516741, 32.980189], [-96.845357, 32.985665], [-96.834403, 33.40739]]]}}, {"type": "Feature", "properties": {"name": "Le Sueur", "id": "27079", "FIPS": "27079", "FIPS State": 27, "ST": "MN", "County": "Le Sueur County,MN", "State": "Minnesota"}, "geometry": {"type": "Polygon", "coordinates": [[[-93.701593, 44.54201], [-93.526331, 44.54201], [-93.526331, 44.196962], [-93.679686, 44.196962], [-93.767317, 44.196962], [-94.013779, 44.240778], [-93.931625, 44.454379], [-93.909717, 44.54201], [-93.701593, 44.54201]]]}}]}