{"type": "FeatureCollection", "crs": {"type": "name", "properties": {"name": "urn:ogc:def:crs:OGC:1.3:CRS84"}}, "features": [{"type": "Feature", "properties": {"name": "Schenectady", "id": "36093", "FIPS": "36093", "FIPS State": 36, "ST": "NY", "County": "Schenectady County,NY", "State": "New York"}, "geometry": {"type": "Polygon", "coordinates": [[[-74.094147, 42.953697], [-73.809346, 42.778435], [-74.181778, 42.729142], [-74.263932, 42.794866], [-74.094147, 42.953697]]]}}, {"type": "Feature", "properties": {"name": "Davis", "id": "49011", "FIPS": "49011", "FIPS State": 49, "ST": "UT", "County": "Davis County,UT", "State": "Utah"}, "geometry": {"type": "Polygon", "coordinates": [[[-112.011005, 41.151784], [-111.857651, 41.14083], [-111.737158, 40.861506], [-111.98362, 40.921752], [-112.262944, 40.773875], [-112.492976, 41.075106], [-112.011005, 41.151784]]]}}, {"type": "Feature", "properties": {"name": "Ulster", "id": "36111", "FIPS": "36111", "FIPS State": 36, "ST": "NY", "County": "Ulster County,NY", "State": "New York"}, "geometry": {"type": "Polygon", "coordinates": [[[-74.01747, 42.159541], [-73.913408, 42.126679], [-73.929839, 42.077386], [-73.951746, 41.589939], [-74.263932, 41.633754], [-74.367994, 41.589939], [-74.778764, 42.01714], [-74.450148, 42.170494], [-74.01747, 42.159541]]]}}, {"type": "Feature", "properties": {"name": "Spotsylvania", "id": "51177", "FIPS": "51177", "FIPS State": 51, "ST": "VA", "County": "Spotsylvania County,VA", "State": "Virginia"}, "geometry": {"type": "Polygon", "coordinates": [[[-77.621296, 38.369498], [-77.528188, 38.309252], [-77.446034, 38.281867], [-77.369357, 38.249005], [-77.643204, 37.991589], [-77.68702, 38.00802], [-77.95539, 38.117559], [-77.703451, 38.358544], [-77.621296, 38.369498]]]}}, {"type": "Feature", "properties": {"name": "Santa Rosa", "id": "12113", "FIPS": "12113", "FIPS State": 12, "ST": "FL", "County": "Santa Rosa County,FL", "State": "Florida"}, "geometry": {"type": "Polygon", "coordinates": [[[-87.162127, 30.997536], [-86.784218, 30.997536], [-86.800648, 30.384119], [-86.921141, 30.373165], [-87.310004, 30.734643], [-87.162127, 30.997536]]]}}, {"type": "Feature", "properties": {"name": "Chittenden", "id": "50007", "FIPS": "50007", "FIPS State": 50, "ST": "VT", "County": "Chittenden County,VT", "State": "Vermont"}, "geometry": {"type": "Polygon", "coordinates": [[[-73.22879, 44.722749], [-72.922082, 44.635118], [-72.807066, 44.454379], [-72.954943, 44.164101], [-73.22879, 44.262686], [-73.310944, 44.262686], [-73.338329, 44.547487], [-73.360237, 44.563917], [-73.22879, 44.722749]]]}}, {"type": "Feature", "properties": {"name": "Butler", "id": "42019", "FIPS": "42019", "FIPS State": 42, "ST": "PA", "County": "Butler County,PA", "State": "Pennsylvania"}, "geometry": {"type": "Polygon", "coordinates": [[[-79.998289, 41.173691], [-79.697057, 41.173691], [-79.69158, 41.168214], [-79.69158, 40.669813], [-80.146166, 40.67529], [-80.15712, 40.856029], [-80.096873, 41.069629], [-79.998289, 41.173691]]]}}, {"type": "Feature", "properties": {"name": "Buncombe", "id": "37021", "FIPS": "37021", "FIPS State": 37, "ST": "NC", "County": "Buncombe County,NC", "State": "North Carolina"}, "geometry": {"type": "Polygon", "coordinates": [[[-82.276696, 35.702228], [-82.167157, 35.526966], [-82.265742, 35.466719], [-82.408142, 35.472196], [-82.747713, 35.422904], [-82.884636, 35.68032], [-82.408142, 35.817244], [-82.276696, 35.702228]]]}}, {"type": "Feature", "properties": {"name": "Pitt", "id": "37147", "FIPS": "37147", "FIPS State": 37, "ST": "NC", "County": "Pitt County,NC", "State": "North Carolina"}, "geometry": {"type": "Polygon", "coordinates": [[[-77.413173, 35.822721], [-77.352926, 35.817244], [-77.172187, 35.73509], [-77.188618, 35.417427], [-77.391265, 35.34075], [-77.446034, 35.379088], [-77.473419, 35.428381], [-77.681543, 35.636505], [-77.697974, 35.652935], [-77.659635, 35.674843], [-77.413173, 35.822721]]]}}, {"type": "Feature", "properties": {"name": "Kenosha", "id": "55059", "FIPS": "55059", "FIPS State": 55, "ST": "WI", "County": "Kenosha County,WI", "State": "Wisconsin"}, "geometry": {"type": "Polygon", "coordinates": [[[-88.027483, 42.668896], [-87.808406, 42.668896], [-87.802929, 42.493634], [-88.202745, 42.493634], [-88.219176, 42.493634], [-88.306807, 42.493634], [-88.306807, 42.60865], [-88.027483, 42.668896]]]}}, {"type": "Feature", "properties": {"name": "Pulaski", "id": "05119", "FIPS": "05119", "FIPS State": 5, "ST": "AR", "County": "Pulaski County,AR", "State": "Arkansas"}, "geometry": {"type": "Polygon", "coordinates": [[[-92.228296, 34.957364], [-92.118758, 35.012133], [-92.031127, 34.491824], [-92.069465, 34.491824], [-92.206389, 34.491824], [-92.244727, 34.491824], [-92.737652, 34.853302], [-92.545959, 34.951887], [-92.228296, 34.957364]]]}}, {"type": "Feature", "properties": {"name": "Washington", "id": "05143", "FIPS": "05143", "FIPS State": 5, "ST": "AR", "County": "Washington County,AR", "State": "Arkansas"}, "geometry": {"type": "Polygon", "coordinates": [[[-94.013779, 36.206106], [-93.887809, 36.233491], [-93.964486, 35.762474], [-94.490273, 35.756997], [-94.550519, 36.102045], [-94.013779, 36.206106]]]}}, {"type": "Feature", "properties": {"name": "Wakulla", "id": "12129", "FIPS": "12129", "FIPS State": 12, "ST": "FL", "County": "Wakulla County,FL", "State": "Florida"}, "geometry": {"type": "Polygon", "coordinates": [[[-84.303164, 30.301965], [-84.073132, 30.27458], [-84.078609, 30.093841], [-84.341502, 29.962394], [-84.544149, 30.011687], [-84.713934, 30.301965], [-84.303164, 30.301965]]]}}, {"type": "Feature", "properties": {"name": "Clayton", "id": "13063", "FIPS": "13063", "FIPS State": 13, "ST": "GA", "County": "Clayton County,GA", "State": "Georgia"}, "geometry": {"type": "Polygon", "coordinates": [[[-84.352456, 33.648375], [-84.281256, 33.648375], [-84.352456, 33.35262], [-84.368887, 33.35262], [-84.385318, 33.35262], [-84.451041, 33.54979], [-84.456518, 33.54979], [-84.352456, 33.648375]]]}}, {"type": "Feature", "properties": {"name": "Mahoning", "id": "39099", "FIPS": "39099", "FIPS State": 39, "ST": "OH", "County": "Mahoning County,OH", "State": "Ohio"}, "geometry": {"type": "Polygon", "coordinates": [[[-80.786968, 41.135353], [-80.518598, 41.135353], [-80.518598, 41.124399], [-80.518598, 40.899844], [-80.858168, 40.927229], [-81.0882, 40.905321], [-81.0882, 40.987475], [-81.000569, 41.135353], [-80.786968, 41.135353]]]}}, {"type": "Feature", "properties": {"name": "Madison", "id": "28089", "FIPS": "28089", "FIPS State": 28, "ST": "MS", "County": "Madison County,MS", "State": "Mississippi"}, "geometry": {"type": "Polygon", "coordinates": [[[-89.96632, 32.881604], [-89.730812, 32.887081], [-89.730812, 32.635141], [-89.785581, 32.585849], [-90.03752, 32.448925], [-90.064905, 32.399633], [-90.448291, 32.574895], [-89.96632, 32.881604]]]}}, {"type": "Feature", "properties": {"name": "Randall", "id": "48381", "FIPS": "48381", "FIPS State": 48, "ST": "TX", "County": "Randall County,TX", "State": "Texas"}, "geometry": {"type": "Polygon", "coordinates": [[[-101.988204, 35.181919], [-101.621249, 35.181919], [-101.626726, 34.74924], [-101.999158, 34.74924], [-102.004635, 34.74924], [-102.168943, 34.74924], [-102.168943, 35.181919], [-101.988204, 35.181919]]]}}, {"type": "Feature", "properties": {"name": "Cochise", "id": "04003", "FIPS": "04003", "FIPS State": 4, "ST": "AZ", "County": "Cochise County,AZ", "State": "Arizona"}, "geometry": {"type": "Polygon", "coordinates": [[[-109.831183, 32.427018], [-109.113704, 32.427018], [-109.04798, 32.427018], [-109.04798, 31.331629], [-110.461031, 31.331629], [-110.450077, 31.731446], [-110.450077, 32.427018], [-109.831183, 32.427018]]]}}, {"type": "Feature", "properties": {"name": "Mayes", "id": "40097", "FIPS": "40097", "FIPS State": 40, "ST": "OK", "County": "Mayes County,OK", "State": "Oklahoma"}, "geometry": {"type": "Polygon", "coordinates": [[[-95.322768, 36.512815], [-95.005105, 36.507338], [-95.010582, 36.162291], [-95.027013, 36.162291], [-95.207752, 36.07466], [-95.437783, 36.07466], [-95.328245, 36.512815], [-95.322768, 36.512815]]]}}, {"type": "Feature", "properties": {"name": "Wood", "id": "39173", "FIPS": "39173", "FIPS State": 39, "ST": "OH", "County": "Wood County,OH", "State": "Ohio"}, "geometry": {"type": "Polygon", "coordinates": [[[-83.415899, 41.617324], [-83.415899, 41.502308], [-83.421376, 41.255845], [-83.421376, 41.168214], [-83.881439, 41.168214], [-83.881439, 41.414677], [-83.415899, 41.617324]]]}}, {"type": "Feature", "properties": {"name": "York", "id": "23031", "FIPS": "23031", "FIPS State": 23, "ST": "ME", "County": "York County,ME", "State": "Maine"}, "geometry": {"type": "Polygon", "coordinates": [[[-70.780598, 43.813577], [-70.353397, 43.534253], [-70.703921, 43.057759], [-70.818936, 43.123482], [-70.961337, 43.53973], [-70.988722, 43.791669], [-70.780598, 43.813577]]]}}, {"type": "Feature", "properties": {"name": "Bell", "id": "48027", "FIPS": "48027", "FIPS State": 48, "ST": "TX", "County": "Bell County,TX", "State": "Texas"}, "geometry": {"type": "Polygon", "coordinates": [[[-97.404005, 31.304245], [-97.278035, 31.282337], [-97.069912, 30.986582], [-97.316374, 30.751074], [-97.831206, 30.904428], [-97.91336, 31.035875], [-97.907884, 31.068736], [-97.420436, 31.320676], [-97.404005, 31.304245]]]}}, {"type": "Feature", "properties": {"name": "Monroe", "id": "42089", "FIPS": "42089", "FIPS State": 42, "ST": "PA", "County": "Monroe County,PA", "State": "Pennsylvania"}, "geometry": {"type": "Polygon", "coordinates": [[[-75.271689, 41.244892], [-74.992365, 41.091537], [-74.96498, 41.097014], [-75.118335, 40.965568], [-75.474336, 40.812213], [-75.649598, 41.124399], [-75.600305, 41.162737], [-75.507197, 41.233938], [-75.35932, 41.239415], [-75.271689, 41.244892]]]}}, {"type": "Feature", "properties": {"name": "Butte", "id": "06007", "FIPS": "06007", "FIPS State": 6, "ST": "CA", "County": "Butte County,CA", "State": "California"}, "geometry": {"type": "Polygon", "coordinates": [[[-121.584697, 40.100211], [-121.436819, 40.149503], [-121.075341, 39.596333], [-121.623035, 39.295101], [-121.907836, 39.306055], [-121.891405, 39.382732], [-122.04476, 39.798979], [-121.584697, 40.100211]]]}}, {"type": "Feature", "properties": {"name": "Richland", "id": "39139", "FIPS": "39139", "FIPS State": 39, "ST": "OH", "County": "Richland County,OH", "State": "Ohio"}, "geometry": {"type": "Polygon", "coordinates": [[[-82.687466, 40.992952], [-82.435527, 40.992952], [-82.336942, 40.554797], [-82.621743, 40.54932], [-82.725805, 40.713628], [-82.725805, 40.998429], [-82.687466, 40.992952]]]}}, {"type": "Feature", "properties": {"name": "Natrona", "id": "56025", "FIPS": "56025", "FIPS State": 56, "ST": "WY", "County": "Natrona County,WY", "State": "Wyoming"}, "geometry": {"type": "Polygon", "coordinates": [[[-107.536345, 43.501391], [-107.109143, 43.501391], [-106.079479, 43.495914], [-106.074002, 42.433388], [-107.037943, 42.433388], [-107.525391, 42.433388], [-107.536345, 43.501391]]]}}, {"type": "Feature", "properties": {"name": "Orange", "id": "37135", "FIPS": "37135", "FIPS State": 37, "ST": "NC", "County": "Orange County,NC", "State": "North Carolina"}, "geometry": {"type": "Polygon", "coordinates": [[[-79.247948, 36.244445], [-79.15484, 36.244445], [-78.952193, 36.238968], [-79.017916, 35.861059], [-79.187701, 35.872013], [-79.247948, 35.87749], [-79.258902, 36.244445], [-79.247948, 36.244445]]]}}, {"type": "Feature", "properties": {"name": "San Luis Obispo", "id": "06079", "FIPS": "06079", "FIPS State": 6, "ST": "CA", "County": "San Luis Obispo County,CA", "State": "California"}, "geometry": {"type": "Polygon", "coordinates": [[[-121.343711, 35.795336], [-120.215462, 35.789859], [-120.193554, 35.789859], [-119.470598, 34.902595], [-120.094969, 35.116195], [-120.64814, 34.973795], [-121.343711, 35.795336]]]}}, {"type": "Feature", "properties": {"name": "Clackamas", "id": "41005", "FIPS": "41005", "FIPS State": 41, "ST": "OR", "County": "Clackamas County,OR", "State": "Oregon"}, "geometry": {"type": "Polygon", "coordinates": [[[-122.356945, 45.462136], [-121.820205, 45.462136], [-121.694236, 45.259489], [-121.732574, 44.887057], [-122.395284, 44.887057], [-122.84987, 45.259489], [-122.866301, 45.319735], [-122.745808, 45.434751], [-122.356945, 45.462136]]]}}, {"type": "Feature", "properties": {"name": "Scott", "id": "27139", "FIPS": "27139", "FIPS State": 27, "ST": "MN", "County": "Scott County,MN", "State": "Minnesota"}, "geometry": {"type": "Polygon", "coordinates": [[[-93.433223, 44.81038], [-93.329161, 44.788472], [-93.279869, 44.54201], [-93.301777, 44.54201], [-93.526331, 44.54201], [-93.701593, 44.54201], [-93.909717, 44.54201], [-93.767317, 44.640595], [-93.520854, 44.804903], [-93.433223, 44.81038]]]}}, {"type": "Feature", "properties": {"name": "Chatham", "id": "13051", "FIPS": "13051", "FIPS State": 13, "ST": "GA", "County": "Chatham County,GA", "State": "Georgia"}, "geometry": {"type": "Polygon", "coordinates": [[[-81.1594, 32.229848], [-81.148446, 32.224371], [-80.885553, 32.032678], [-81.153923, 31.725969], [-81.389431, 32.098401], [-81.1594, 32.229848]]]}}, {"type": "Feature", "properties": {"name": "Centre", "id": "42027", "FIPS": "42027", "FIPS State": 42, "ST": "PA", "County": "Centre County,PA", "State": "Pennsylvania"}, "geometry": {"type": "Polygon", "coordinates": [[[-77.708927, 41.113445], [-77.144803, 41.042245], [-77.36388, 40.845075], [-77.681543, 40.730059], [-78.114221, 40.741013], [-78.360683, 40.735536], [-78.037544, 41.151784], [-77.708927, 41.113445]]]}}, {"type": "Feature", "properties": {"name": "Clay", "id": "29047", "FIPS": "29047", "FIPS State": 29, "ST": "MO", "County": "Clay County,MO", "State": "Missouri"}, "geometry": {"type": "Polygon", "coordinates": [[[-94.56695, 39.453932], [-94.210949, 39.453932], [-94.210949, 39.20747], [-94.419073, 39.147223], [-94.605288, 39.114362], [-94.599812, 39.158177], [-94.599812, 39.453932], [-94.56695, 39.453932]]]}}, {"type": "Feature", "properties": {"name": "Jefferson", "id": "29099", "FIPS": "29099", "FIPS State": 29, "ST": "MO", "County": "Jefferson County,MO", "State": "Missouri"}, "geometry": {"type": "Polygon", "coordinates": [[[-90.464722, 38.500944], [-90.344229, 38.385929], [-90.251121, 38.128512], [-90.415429, 38.040881], [-90.639984, 38.07922], [-90.782384, 38.20519], [-90.738569, 38.47356], [-90.464722, 38.500944]]]}}, {"type": "Feature", "properties": {"name": "Wicomico", "id": "24045", "FIPS": "24045", "FIPS State": 24, "ST": "MD", "County": "Wicomico County,MD", "State": "Maryland"}, "geometry": {"type": "Polygon", "coordinates": [[[-75.813906, 38.489991], [-75.69889, 38.561191], [-75.342889, 38.451652], [-75.611259, 38.27639], [-75.62769, 38.281867], [-75.863199, 38.238051], [-75.923445, 38.265436], [-75.813906, 38.489991]]]}}, {"type": "Feature", "properties": {"name": "Woodford", "id": "17203", "FIPS": "17203", "FIPS State": 17, "ST": "IL", "County": "Woodford County,IL", "State": "Illinois"}, "geometry": {"type": "Polygon", "coordinates": [[[-89.111917, 40.927229], [-89.046194, 40.927229], [-88.931178, 40.927229], [-88.931178, 40.751967], [-89.270749, 40.593136], [-89.50078, 40.74649], [-89.555549, 40.74649], [-89.473395, 40.921752], [-89.111917, 40.927229]]]}}, {"type": "Feature", "properties": {"name": "Hernando", "id": "12053", "FIPS": "12053", "FIPS State": 12, "ST": "FL", "County": "Hernando County,FL", "State": "Florida"}, "geometry": {"type": "Polygon", "coordinates": [[[-82.265742, 28.669836], [-82.057618, 28.478144], [-82.254788, 28.478144], [-82.676512, 28.434328], [-82.649128, 28.691744], [-82.265742, 28.669836]]]}}, {"type": "Feature", "properties": {"name": "Hidalgo", "id": "48215", "FIPS": "48215", "FIPS State": 48, "ST": "TX", "County": "Hidalgo County,TX", "State": "Texas"}, "geometry": {"type": "Polygon", "coordinates": [[[-98.318654, 26.785769], [-97.984561, 26.780292], [-97.957176, 26.610507], [-97.864068, 26.347614], [-97.864068, 26.051859], [-98.587024, 26.254506], [-98.318654, 26.785769]]]}}, {"type": "Feature", "properties": {"name": "Imperial", "id": "06025", "FIPS": "06025", "FIPS State": 6, "ST": "CA", "County": "Imperial County,CA", "State": "California"}, "geometry": {"type": "Polygon", "coordinates": [[[-114.733044, 33.434775], [-114.628982, 33.434775], [-114.513967, 33.029481], [-114.72209, 32.717295], [-116.107756, 32.61871], [-116.085849, 33.423821], [-114.733044, 33.434775]]]}}, {"type": "Feature", "properties": {"name": "Lebanon", "id": "42075", "FIPS": "42075", "FIPS State": 42, "ST": "PA", "County": "Lebanon County,PA", "State": "Pennsylvania"}, "geometry": {"type": "Polygon", "coordinates": [[[-76.536862, 40.554797], [-76.438277, 40.494551], [-76.153476, 40.313812], [-76.306831, 40.253565], [-76.564247, 40.198796], [-76.536862, 40.554797]]]}}, {"type": "Feature", "properties": {"name": "Cumberland", "id": "42041", "FIPS": "42041", "FIPS State": 42, "ST": "PA", "County": "Cumberland County,PA", "State": "Pennsylvania"}, "geometry": {"type": "Polygon", "coordinates": [[[-77.122895, 40.297381], [-76.914771, 40.330243], [-76.860002, 40.226181], [-76.903817, 40.220704], [-77.139326, 40.067349], [-77.473419, 39.946857], [-77.615819, 40.198796], [-77.122895, 40.297381]]]}}, {"type": "Feature", "properties": {"name": "Marion", "id": "12083", "FIPS": "12083", "FIPS State": 12, "ST": "FL", "County": "Marion County,FL", "State": "Florida"}, "geometry": {"type": "Polygon", "coordinates": [[[-81.844017, 29.518762], [-81.679709, 29.327069], [-81.641371, 29.277777], [-81.953556, 28.960114], [-82.013803, 28.960114], [-82.309557, 28.960114], [-82.523158, 29.042268], [-82.534112, 29.042268], [-82.408142, 29.485901], [-82.057618, 29.46947], [-81.844017, 29.518762]]]}}, {"type": "Feature", "properties": {"name": "Montgomery", "id": "01101", "FIPS": "01101", "FIPS State": 1, "ST": "AL", "County": "Montgomery County,AL", "State": "Alabama"}, "geometry": {"type": "Polygon", "coordinates": [[[-86.307724, 32.416064], [-86.022923, 32.421541], [-85.918861, 32.273663], [-85.995538, 32.049109], [-86.192708, 31.966955], [-86.302247, 31.988862], [-86.406309, 32.049109], [-86.499417, 32.344863], [-86.411786, 32.410587], [-86.307724, 32.416064]]]}}, {"type": "Feature", "properties": {"name": "Indian River", "id": "12061", "FIPS": "12061", "FIPS State": 12, "ST": "FL", "County": "Indian River County,FL", "State": "Florida"}, "geometry": {"type": "Polygon", "coordinates": [[[-80.321428, 27.558018], [-80.677429, 27.558018], [-80.792445, 27.645649], [-80.874599, 27.640172], [-80.869122, 27.820911], [-80.447398, 27.859249], [-80.321428, 27.558018]]]}}, {"type": "Feature", "properties": {"name": "Jefferson", "id": "48245", "FIPS": "48245", "FIPS State": 48, "ST": "TX", "County": "Jefferson County,TX", "State": "Texas"}, "geometry": {"type": "Polygon", "coordinates": [[[-94.216426, 30.175995], [-94.117841, 30.159564], [-93.854948, 29.863809], [-93.838517, 29.688547], [-94.353349, 29.562578], [-94.44098, 29.891194], [-94.446457, 30.110272], [-94.216426, 30.175995]]]}}, {"type": "Feature", "properties": {"name": "Cambria", "id": "42021", "FIPS": "42021", "FIPS State": 42, "ST": "PA", "County": "Cambria County,PA", "State": "Pennsylvania"}, "geometry": {"type": "Polygon", "coordinates": [[[-78.804316, 40.724582], [-78.349729, 40.724582], [-78.6181, 40.324766], [-78.656438, 40.242611], [-79.001485, 40.286427], [-79.056255, 40.286427], [-78.974101, 40.395966], [-78.804316, 40.724582]]]}}, {"type": "Feature", "properties": {"name": "Charleston", "id": "45019", "FIPS": "45019", "FIPS State": 45, "ST": "SC", "County": "Charleston County,SC", "State": "South Carolina"}, "geometry": {"type": "Polygon", "coordinates": [[[-79.49441, 33.188312], [-79.445118, 33.215697], [-79.291763, 33.111635], [-80.250228, 32.531079], [-80.403582, 32.859696], [-80.151643, 33.024004], [-79.927088, 32.821357], [-79.49441, 33.188312]]]}}, {"type": "Feature", "properties": {"name": "Delaware", "id": "39041", "FIPS": "39041", "FIPS State": 39, "ST": "OH", "County": "Delaware County,OH", "State": "Ohio"}, "geometry": {"type": "Polygon", "coordinates": [[[-83.246114, 40.445258], [-83.02156, 40.434304], [-82.742236, 40.346673], [-82.75319, 40.275473], [-82.764143, 40.127596], [-83.03799, 40.13855], [-83.169437, 40.144027], [-83.246114, 40.445258]]]}}, {"type": "Feature", "properties": {"name": "Wayne", "id": "47181", "FIPS": "47181", "FIPS State": 47, "ST": "TN", "County": "Wayne County,TN", "State": "Tennessee"}, "geometry": {"type": "Polygon", "coordinates": [[[-87.956283, 35.461243], [-87.715298, 35.48315], [-87.572897, 35.400996], [-87.605759, 35.00118], [-87.983668, 35.006656], [-88.022006, 35.390042], [-88.005575, 35.422904], [-87.956283, 35.461243]]]}}, {"type": "Feature", "properties": {"name": "Montgomery", "id": "47125", "FIPS": "47125", "FIPS State": 47, "ST": "TN", "County": "Montgomery County,TN", "State": "Tennessee"}, "geometry": {"type": "Polygon", "coordinates": [[[-87.112834, 36.644262], [-87.118311, 36.458046], [-87.288096, 36.321122], [-87.512651, 36.332076], [-87.594805, 36.364938], [-87.63862, 36.638785], [-87.337389, 36.644262], [-87.112834, 36.644262]]]}}, {"type": "Feature", "properties": {"name": "Kanawha", "id": "54039", "FIPS": "54039", "FIPS State": 54, "ST": "WV", "County": "Kanawha County,WV", "State": "West Virginia"}, "geometry": {"type": "Polygon", "coordinates": [[[-81.69614, 38.626914], [-81.69614, 38.626914], [-81.520878, 38.610483], [-81.192262, 38.528329], [-81.2306, 38.265436], [-81.2306, 38.265436], [-81.378478, 37.969681], [-81.455155, 37.986112], [-81.756386, 38.20519], [-81.833064, 38.210667], [-81.915218, 38.325682], [-81.69614, 38.626914]]]}}, {"type": "Feature", "properties": {"name": "Anoka", "id": "27003", "FIPS": "27003", "FIPS State": 27, "ST": "MN", "County": "Anoka County,MN", "State": "Minnesota"}, "geometry": {"type": "Polygon", "coordinates": [[[-93.159376, 45.412843], [-93.016976, 45.412843], [-93.016976, 45.297827], [-93.022453, 45.122565], [-93.230576, 45.122565], [-93.2251, 45.034934], [-93.5099, 45.243058], [-93.5099, 45.412843], [-93.159376, 45.412843]]]}}, {"type": "Feature", "properties": {"name": "Genesee", "id": "26049", "FIPS": "26049", "FIPS State": 26, "ST": "MI", "County": "Genesee County,MI", "State": "Michigan"}, "geometry": {"type": "Polygon", "coordinates": [[[-83.465192, 43.222067], [-83.459715, 43.222067], [-83.454238, 42.882497], [-83.684269, 42.783912], [-83.925255, 42.778435], [-83.930732, 43.134436], [-83.695223, 43.222067], [-83.465192, 43.222067]]]}}, {"type": "Feature", "properties": {"name": "Minnehaha", "id": "46099", "FIPS": "46099", "FIPS State": 46, "ST": "SD", "County": "Minnehaha County,SD", "State": "South Dakota"}, "geometry": {"type": "Polygon", "coordinates": [[[-96.489356, 43.846438], [-96.451017, 43.851915], [-96.451017, 43.501391], [-96.598895, 43.501391], [-96.779634, 43.501391], [-96.922034, 43.501391], [-97.130158, 43.501391], [-97.130158, 43.846438], [-96.889173, 43.846438], [-96.489356, 43.846438]]]}}, {"type": "Feature", "properties": {"name": "Carroll", "id": "24013", "FIPS": "24013", "FIPS State": 24, "ST": "MD", "County": "Carroll County,MD", "State": "Maryland"}, "geometry": {"type": "Polygon", "coordinates": [[[-76.788801, 39.722302], [-76.881909, 39.34987], [-77.079079, 39.366301], [-77.16671, 39.355347], [-77.216003, 39.722302], [-76.996925, 39.722302], [-76.788801, 39.722302]]]}}, {"type": "Feature", "properties": {"name": "Oneida", "id": "36065", "FIPS": "36065", "FIPS State": 36, "ST": "NY", "County": "Oneida County,NY", "State": "New York"}, "geometry": {"type": "Polygon", "coordinates": [[[-75.112858, 43.616407], [-75.211443, 42.882497], [-75.249781, 42.871543], [-75.885106, 43.156344], [-75.75366, 43.468529], [-75.112858, 43.616407]]]}}, {"type": "Feature", "properties": {"name": "Lehigh", "id": "42077", "FIPS": "42077", "FIPS State": 42, "ST": "PA", "County": "Lehigh County,PA", "State": "Pennsylvania"}, "geometry": {"type": "Polygon", "coordinates": [[[-75.611259, 40.784829], [-75.331935, 40.538366], [-75.48529, 40.417874], [-75.490767, 40.423351], [-75.529105, 40.445258], [-75.890583, 40.67529], [-75.759137, 40.735536], [-75.611259, 40.784829]]]}}, {"type": "Feature", "properties": {"name": "Hamilton", "id": "18057", "FIPS": "18057", "FIPS State": 18, "ST": "IN", "County": "Hamilton County,IN", "State": "Indiana"}, "geometry": {"type": "Polygon", "coordinates": [[[-85.875046, 40.220704], [-85.864092, 40.220704], [-85.864092, 39.94138], [-85.935292, 39.924949], [-86.110554, 39.924949], [-86.242001, 39.924949], [-86.242001, 40.182365], [-86.242001, 40.215227], [-85.875046, 40.220704]]]}}, {"type": "Feature", "properties": {"name": "Muscogee", "id": "13215", "FIPS": "13215", "FIPS State": 13, "ST": "GA", "County": "Muscogee County,GA", "State": "Georgia"}, "geometry": {"type": "Polygon", "coordinates": [[[-85.02612, 32.607757], [-84.692026, 32.585849], [-84.692026, 32.520126], [-84.982304, 32.372248], [-84.998735, 32.509172], [-85.080889, 32.607757], [-85.02612, 32.607757]]]}}, {"type": "Feature", "properties": {"name": "Monterey", "id": "06053", "FIPS": "06053", "FIPS State": 6, "ST": "CA", "County": "Monterey County,CA", "State": "California"}, "geometry": {"type": "Polygon", "coordinates": [[[-121.699712, 36.918109], [-121.644943, 36.896201], [-121.31085, 36.501861], [-120.681002, 36.266353], [-120.314047, 35.904875], [-120.215462, 35.789859], [-121.343711, 35.795336], [-121.896882, 36.315645], [-121.809251, 36.852385], [-121.699712, 36.918109]]]}}, {"type": "Feature", "properties": {"name": "Allen", "id": "18003", "FIPS": "18003", "FIPS State": 18, "ST": "IN", "County": "Allen County,IN", "State": "Indiana"}, "geometry": {"type": "Polygon", "coordinates": [[[-84.845381, 41.272276], [-84.801565, 41.272276], [-84.801565, 41.250368], [-84.801565, 40.987475], [-84.801565, 40.921752], [-84.878242, 40.921752], [-85.075412, 40.916275], [-85.108274, 40.916275], [-85.338305, 40.916275], [-85.332828, 41.003906], [-85.305444, 41.266799], [-85.190428, 41.266799], [-84.845381, 41.272276]]]}}, {"type": "Feature", "properties": {"name": "Brown", "id": "55009", "FIPS": "55009", "FIPS State": 55, "ST": "WI", "County": "Brown County,WI", "State": "Wisconsin"}, "geometry": {"type": "Polygon", "coordinates": [[[-88.235607, 44.678933], [-87.989145, 44.678933], [-87.76459, 44.646072], [-87.76459, 44.328409], [-87.885083, 44.328409], [-88.043914, 44.240778], [-88.191791, 44.240778], [-88.246561, 44.585825], [-88.241084, 44.678933], [-88.235607, 44.678933]]]}}, {"type": "Feature", "properties": {"name": "Niagara", "id": "36063", "FIPS": "36063", "FIPS State": 36, "ST": "NY", "County": "Niagara County,NY", "State": "New York"}, "geometry": {"type": "Polygon", "coordinates": [[[-78.464745, 43.369944], [-78.464745, 43.128959], [-78.464745, 43.09062], [-78.552376, 43.096097], [-79.023393, 43.068713], [-78.464745, 43.369944]]]}}, {"type": "Feature", "properties": {"name": "Nueces", "id": "48355", "FIPS": "48355", "FIPS State": 48, "ST": "TX", "County": "Nueces County,TX", "State": "Texas"}, "geometry": {"type": "MultiPolygon", "coordinates": [[[[-97.803822, 27.979742], [-97.365666, 27.848295], [-97.327328, 27.563495], [-97.940745, 27.634695], [-97.798345, 27.996173], [-97.803822, 27.979742]]], [[[-97.053481, 27.842818], [-97.048004, 27.837342], [-97.223266, 27.574448], [-97.245174, 27.579925], [-97.053481, 27.842818]]]]}}, {"type": "Feature", "properties": {"name": "Riley", "id": "20161", "FIPS": "20161", "FIPS State": 20, "ST": "KS", "County": "Riley County,KS", "State": "Kansas"}, "geometry": {"type": "Polygon", "coordinates": [[[-96.692003, 39.568948], [-96.582464, 39.568948], [-96.390771, 39.174608], [-96.50031, 39.043162], [-96.943942, 39.218424], [-96.960373, 39.218424], [-96.960373, 39.568948], [-96.807019, 39.568948], [-96.692003, 39.568948]]]}}, {"type": "Feature", "properties": {"name": "Kenton", "id": "21117", "FIPS": "21117", "FIPS State": 21, "ST": "KY", "County": "Kenton County,KY", "State": "Kentucky"}, "geometry": {"type": "Polygon", "coordinates": [[[-84.50581, 39.092454], [-84.418179, 38.807653], [-84.533195, 38.791222], [-84.615349, 38.802176], [-84.620826, 39.076023], [-84.50581, 39.092454]]]}}, {"type": "Feature", "properties": {"name": "Durham", "id": "37063", "FIPS": "37063", "FIPS State": 37, "ST": "NC", "County": "Durham County,NC", "State": "North Carolina"}, "geometry": {"type": "Polygon", "coordinates": [[[-78.952193, 36.238968], [-78.804316, 36.233491], [-78.749546, 36.069183], [-78.908377, 35.866536], [-79.017916, 35.861059], [-78.952193, 36.238968]]]}}, {"type": "Feature", "properties": {"name": "Fulton", "id": "36035", "FIPS": "36035", "FIPS State": 36, "ST": "NY", "County": "Fulton County,NY", "State": "New York"}, "geometry": {"type": "Polygon", "coordinates": [[[-74.713041, 43.28779], [-74.137962, 43.254929], [-74.099624, 42.981082], [-74.581595, 42.997512], [-74.762334, 43.046805], [-74.713041, 43.28779]]]}}, {"type": "Feature", "properties": {"name": "Yuma", "id": "04027", "FIPS": "04027", "FIPS State": 4, "ST": "AZ", "County": "Yuma County,AZ", "State": "Arizona"}, "geometry": {"type": "Polygon", "coordinates": [[[-113.993657, 33.462159], [-113.336425, 33.380005], [-113.336425, 32.503695], [-113.336425, 32.038155], [-114.815198, 32.492741], [-114.72209, 32.717295], [-114.513967, 33.029481], [-113.993657, 33.462159]]]}}, {"type": "Feature", "properties": {"name": "Mobile", "id": "01097", "FIPS": "01097", "FIPS State": 1, "ST": "AL", "County": "Mobile County,AL", "State": "Alabama"}, "geometry": {"type": "Polygon", "coordinates": [[[-87.972714, 31.161844], [-88.005575, 30.685351], [-88.394438, 30.367688], [-88.410869, 30.734643], [-88.4273, 30.997536], [-88.432777, 31.112552], [-87.972714, 31.161844]]]}}, {"type": "Feature", "properties": {"name": "Columbia", "id": "36021", "FIPS": "36021", "FIPS State": 36, "ST": "NY", "County": "Columbia County,NY", "State": "New York"}, "geometry": {"type": "Polygon", "coordinates": [[[-73.398575, 42.504588], [-73.35476, 42.510065], [-73.49716, 42.050002], [-73.929839, 42.077386], [-73.913408, 42.126679], [-73.781961, 42.466249], [-73.398575, 42.504588]]]}}, {"type": "Feature", "properties": {"name": "Warren", "id": "21227", "FIPS": "21227", "FIPS State": 21, "ST": "KY", "County": "Warren County,KY", "State": "Kentucky"}, "geometry": {"type": "Polygon", "coordinates": [[[-86.400832, 37.170048], [-86.116031, 37.060509], [-86.165323, 36.934539], [-86.22557, 36.912632], [-86.406309, 36.775708], [-86.608956, 36.885247], [-86.674679, 37.000263], [-86.400832, 37.170048]]]}}, {"type": "Feature", "properties": {"name": "Marin", "id": "06041", "FIPS": "06041", "FIPS State": 6, "ST": "CA", "County": "Marin County,CA", "State": "California"}, "geometry": {"type": "Polygon", "coordinates": [[[-122.844393, 38.27639], [-122.488392, 38.112082], [-122.504823, 37.821804], [-123.014178, 38.002543], [-123.003224, 38.298298], [-122.844393, 38.27639]]]}}, {"type": "Feature", "properties": {"name": "Lake", "id": "12069", "FIPS": "12069", "FIPS State": 12, "ST": "FL", "County": "Lake County,FL", "State": "Florida"}, "geometry": {"type": "Polygon", "coordinates": [[[-81.641371, 29.277777], [-81.367524, 28.87796], [-81.411339, 28.784852], [-81.542786, 28.784852], [-81.657801, 28.346697], [-81.959033, 28.346697], [-81.953556, 28.960114], [-81.641371, 29.277777]]]}}, {"type": "Feature", "properties": {"name": "Lexington", "id": "45063", "FIPS": "45063", "FIPS State": 45, "ST": "SC", "County": "Lexington County,SC", "State": "South Carolina"}, "geometry": {"type": "Polygon", "coordinates": [[[-81.340139, 34.196069], [-81.011523, 33.878407], [-81.044384, 33.796253], [-81.044384, 33.708622], [-81.186785, 33.653852], [-81.57017, 33.878407], [-81.471585, 34.075577], [-81.340139, 34.196069]]]}}, {"type": "Feature", "properties": {"name": "Harford", "id": "24025", "FIPS": "24025", "FIPS State": 24, "ST": "MD", "County": "Harford County,MD", "State": "Maryland"}, "geometry": {"type": "Polygon", "coordinates": [[[-76.241107, 39.722302], [-76.235631, 39.722302], [-76.076799, 39.541563], [-76.328738, 39.355347], [-76.569724, 39.722302], [-76.241107, 39.722302]]]}}, {"type": "Feature", "properties": {"name": "Brazos", "id": "48041", "FIPS": "48041", "FIPS State": 48, "ST": "TX", "County": "Brazos County,TX", "State": "Texas"}, "geometry": {"type": "Polygon", "coordinates": [[[-96.237417, 30.964674], [-96.166217, 30.822274], [-96.155263, 30.329349], [-96.297663, 30.378642], [-96.566033, 30.696304], [-96.242894, 30.975628], [-96.237417, 30.964674]]]}}, {"type": "Feature", "properties": {"name": "Spokane", "id": "53063", "FIPS": "53063", "FIPS State": 53, "ST": "WA", "County": "Spokane County,WA", "State": "Washington"}, "geometry": {"type": "Polygon", "coordinates": [[[-117.537238, 48.047251], [-117.438653, 48.047251], [-117.044313, 48.047251], [-117.044313, 47.976051], [-117.038836, 47.368111], [-117.038836, 47.258572], [-117.822039, 47.258572], [-117.822039, 47.822697], [-117.537238, 48.047251]]]}}, {"type": "Feature", "properties": {"name": "Stark", "id": "39151", "FIPS": "39151", "FIPS State": 39, "ST": "OH", "County": "Stark County,OH", "State": "Ohio"}, "geometry": {"type": "Polygon", "coordinates": [[[-81.394908, 40.987475], [-81.0882, 40.987475], [-81.0882, 40.905321], [-81.0882, 40.730059], [-81.121061, 40.730059], [-81.318231, 40.653382], [-81.42777, 40.653382], [-81.652325, 40.636951], [-81.652325, 40.669813], [-81.646848, 40.916275], [-81.394908, 40.987475]]]}}, {"type": "Feature", "properties": {"name": "Rensselaer", "id": "36083", "FIPS": "36083", "FIPS State": 36, "ST": "NY", "County": "Rensselaer County,NY", "State": "New York"}, "geometry": {"type": "Polygon", "coordinates": [[[-73.387622, 42.94822], [-73.272606, 42.942743], [-73.267129, 42.745573], [-73.35476, 42.510065], [-73.398575, 42.504588], [-73.781961, 42.466249], [-73.677899, 42.783912], [-73.634084, 42.942743], [-73.387622, 42.94822]]]}}, {"type": "Feature", "properties": {"name": "Thurston", "id": "53067", "FIPS": "53067", "FIPS State": 53, "ST": "WA", "County": "Thurston County,WA", "State": "Washington"}, "geometry": {"type": "Polygon", "coordinates": [[[-122.904639, 47.15451], [-122.822485, 47.192849], [-122.203591, 46.760171], [-123.162056, 46.793032], [-123.200394, 47.08331], [-122.904639, 47.15451]]]}}, {"type": "Feature", "properties": {"name": "Orleans", "id": "22071", "FIPS": "22071", "FIPS State": 22, "ST": "LA", "County": "Orleans County,LA", "State": "Louisiana"}, "geometry": {"type": "Polygon", "coordinates": [[[-89.900597, 30.192426], [-89.62675, 30.14861], [-89.856781, 30.00621], [-89.862258, 30.000733], [-89.911551, 29.869286], [-89.988228, 29.907625], [-90.010136, 29.896671], [-90.103244, 30.192426], [-89.900597, 30.192426]]]}}, {"type": "Feature", "properties": {"name": "Martin", "id": "12085", "FIPS": "12085", "FIPS State": 12, "ST": "FL", "County": "Martin County,FL", "State": "Florida"}, "geometry": {"type": "Polygon", "coordinates": [[[-80.080443, 26.971985], [-80.885553, 26.961031], [-80.677429, 27.207493], [-80.200935, 27.262263], [-80.080443, 26.971985]]]}}, {"type": "Feature", "properties": {"name": "Douglas", "id": "13097", "FIPS": "13097", "FIPS State": 13, "ST": "GA", "County": "Douglas County,GA", "State": "Georgia"}, "geometry": {"type": "Polygon", "coordinates": [[[-84.724888, 33.807207], [-84.577011, 33.741483], [-84.807042, 33.571698], [-84.90015, 33.779822], [-84.724888, 33.807207]]]}}, {"type": "Feature", "properties": {"name": "Medina", "id": "39103", "FIPS": "39103", "FIPS State": 39, "ST": "OH", "County": "Medina County,OH", "State": "Ohio"}, "geometry": {"type": "Polygon", "coordinates": [[[-81.685186, 41.277753], [-81.690663, 40.987475], [-82.079526, 40.992952], [-82.128818, 40.992952], [-82.172634, 41.064153], [-81.876879, 41.277753], [-81.685186, 41.277753]]]}}, {"type": "Feature", "properties": {"name": "Madison", "id": "01089", "FIPS": "01089", "FIPS State": 1, "ST": "AL", "County": "Madison County,AL", "State": "Alabama"}, "geometry": {"type": "Polygon", "coordinates": [[[-86.784218, 34.990226], [-86.318678, 34.990226], [-86.313201, 34.990226], [-86.329632, 34.601363], [-86.548709, 34.546593], [-86.789695, 34.55207], [-86.784218, 34.990226]]]}}, {"type": "Feature", "properties": {"name": "Cabarrus", "id": "37025", "FIPS": "37025", "FIPS State": 37, "ST": "NC", "County": "Cabarrus County,NC", "State": "North Carolina"}, "geometry": {"type": "Polygon", "coordinates": [[[-80.737675, 35.505058], [-80.294043, 35.505058], [-80.507644, 35.187396], [-80.55146, 35.209303], [-80.781491, 35.505058], [-80.737675, 35.505058]]]}}, {"type": "Feature", "properties": {"name": "Olmsted", "id": "27109", "FIPS": "27109", "FIPS State": 27, "ST": "MN", "County": "Olmsted County,MN", "State": "Minnesota"}, "geometry": {"type": "Polygon", "coordinates": [[[-92.666452, 44.196962], [-92.551436, 44.196962], [-92.080419, 44.109331], [-92.080419, 43.846438], [-92.381651, 43.846438], [-92.447374, 43.835484], [-92.688359, 43.846438], [-92.677405, 44.196962], [-92.666452, 44.196962]]]}}, {"type": "Feature", "properties": {"name": "Warren", "id": "34041", "FIPS": "34041", "FIPS State": 34, "ST": "NJ", "County": "Warren County,NJ", "State": "New Jersey"}, "geometry": {"type": "Polygon", "coordinates": [[[-74.96498, 41.091537], [-74.76781, 40.910798], [-74.888303, 40.790306], [-75.189535, 40.593136], [-75.195012, 40.609566], [-75.118335, 40.965568], [-74.96498, 41.097014], [-74.96498, 41.091537]]]}}, {"type": "Feature", "properties": {"name": "Linn", "id": "19113", "FIPS": "19113", "FIPS State": 19, "ST": "IA", "County": "Linn County,IA", "State": "Iowa"}, "geometry": {"type": "Polygon", "coordinates": [[[-91.713464, 42.296464], [-91.598448, 42.296464], [-91.36294, 42.296464], [-91.368417, 41.94594], [-91.368417, 41.858309], [-91.664172, 41.863786], [-91.833957, 41.863786], [-91.82848, 42.296464], [-91.713464, 42.296464]]]}}, {"type": "Feature", "properties": {"name": "Washoe", "id": "32031", "FIPS": "32031", "FIPS State": 32, "ST": "NV", "County": "Washoe County,NV", "State": "Nevada"}, "geometry": {"type": "Polygon", "coordinates": [[[-119.361059, 41.995232], [-119.32272, 41.995232], [-119.311766, 40.960091], [-119.224135, 40.001626], [-119.191274, 39.629194], [-119.196751, 39.623717], [-119.284382, 39.623717], [-119.689675, 39.519655], [-119.711583, 39.251285], [-120.001861, 39.163654], [-120.007338, 39.317009], [-120.001861, 39.442978], [-120.001861, 39.722302], [-120.001861, 41.184645], [-120.001861, 41.995232], [-119.361059, 41.995232]]]}}, {"type": "Feature", "properties": {"name": "Knox", "id": "47093", "FIPS": "47093", "FIPS State": 47, "ST": "TN", "County": "Knox County,TN", "State": "Tennessee"}, "geometry": {"type": "Polygon", "coordinates": [[[-83.925255, 36.173245], [-83.733562, 36.162291], [-83.667839, 36.080137], [-83.673316, 36.036321], [-83.678792, 36.030844], [-83.793808, 35.888444], [-84.16624, 35.80629], [-84.264825, 35.899398], [-84.270302, 35.910352], [-83.941686, 36.184199], [-83.925255, 36.173245]]]}}, {"type": "Feature", "properties": {"name": "Alachua", "id": "12001", "FIPS": "12001", "FIPS State": 12, "ST": "FL", "County": "Alachua County,FL", "State": "Florida"}, "geometry": {"type": "Polygon", "coordinates": [[[-82.506727, 29.940487], [-82.419096, 29.924056], [-82.052141, 29.715932], [-82.057618, 29.46947], [-82.408142, 29.485901], [-82.654605, 29.562578], [-82.660082, 29.830948], [-82.528635, 29.940487], [-82.506727, 29.940487]]]}}, {"type": "Feature", "properties": {"name": "Douglas", "id": "08035", "FIPS": "08035", "FIPS State": 8, "ST": "CO", "County": "Douglas County,CO", "State": "Colorado"}, "geometry": {"type": "Polygon", "coordinates": [[[-104.989567, 39.568948], [-104.660951, 39.563471], [-104.660951, 39.130793], [-104.995044, 39.130793], [-105.033383, 39.130793], [-105.329138, 39.130793], [-105.049814, 39.563471], [-104.989567, 39.568948]]]}}, {"type": "Feature", "properties": {"name": "Tippecanoe", "id": "18157", "FIPS": "18157", "FIPS State": 18, "ST": "IN", "County": "Tippecanoe County,IN", "State": "Indiana"}, "geometry": {"type": "Polygon", "coordinates": [[[-87.096403, 40.560274], [-86.773264, 40.560274], [-86.696587, 40.434304], [-86.696587, 40.215227], [-86.921141, 40.215227], [-87.090926, 40.215227], [-87.090926, 40.368581], [-87.096403, 40.47812], [-87.096403, 40.560274]]]}}, {"type": "Feature", "properties": {"name": "Blair", "id": "42013", "FIPS": "42013", "FIPS State": 42, "ST": "PA", "County": "Blair County,PA", "State": "Pennsylvania"}, "geometry": {"type": "Polygon", "coordinates": [[[-78.360683, 40.735536], [-78.114221, 40.741013], [-78.256622, 40.297381], [-78.6181, 40.324766], [-78.349729, 40.724582], [-78.360683, 40.735536]]]}}, {"type": "Feature", "properties": {"name": "Cumberland", "id": "37051", "FIPS": "37051", "FIPS State": 37, "ST": "NC", "County": "Cumberland County,NC", "State": "North Carolina"}, "geometry": {"type": "Polygon", "coordinates": [[[-78.952193, 35.21478], [-78.6181, 35.247642], [-78.49213, 34.858779], [-78.9029, 34.836871], [-79.034347, 34.951887], [-79.10007, 35.176442], [-79.094593, 35.192872], [-78.952193, 35.21478]]]}}, {"type": "Feature", "properties": {"name": "New Hanover", "id": "37129", "FIPS": "37129", "FIPS State": 37, "ST": "NC", "County": "New Hanover County,NC", "State": "North Carolina"}, "geometry": {"type": "Polygon", "coordinates": [[[-77.960867, 34.376808], [-77.714404, 34.294654], [-77.938959, 33.927699], [-78.032067, 34.332993], [-77.960867, 34.376808]]]}}, {"type": "Feature", "properties": {"name": "Saratoga", "id": "36091", "FIPS": "36091", "FIPS State": 36, "ST": "NY", "County": "Saratoga County,NY", "State": "New York"}, "geometry": {"type": "Polygon", "coordinates": [[[-73.886023, 43.397329], [-73.595745, 43.304221], [-73.634084, 42.942743], [-73.677899, 42.783912], [-73.809346, 42.778435], [-74.094147, 42.953697], [-74.099624, 42.981082], [-74.137962, 43.254929], [-74.15987, 43.369944], [-73.886023, 43.397329]]]}}, {"type": "Feature", "properties": {"name": "Lorain", "id": "39093", "FIPS": "39093", "FIPS State": 39, "ST": "OH", "County": "Lorain County,OH", "State": "Ohio"}, "geometry": {"type": "Polygon", "coordinates": [[[-81.969987, 41.507785], [-81.876879, 41.277753], [-82.172634, 41.064153], [-82.336942, 41.064153], [-82.342419, 41.28323], [-82.347896, 41.431108], [-81.969987, 41.507785]]]}}, {"type": "Feature", "properties": {"name": "Outagamie", "id": "55087", "FIPS": "55087", "FIPS State": 55, "ST": "WI", "County": "Outagamie County,WI", "State": "Wisconsin"}, "geometry": {"type": "Polygon", "coordinates": [[[-88.575177, 44.591302], [-88.246561, 44.585825], [-88.191791, 44.240778], [-88.405392, 44.246255], [-88.471115, 44.246255], [-88.739485, 44.240778], [-88.608039, 44.591302], [-88.575177, 44.591302]]]}}, {"type": "Feature", "properties": {"name": "Placer", "id": "06061", "FIPS": "06061", "FIPS State": 6, "ST": "CA", "County": "Placer County,CA", "State": "California"}, "geometry": {"type": "Polygon", "coordinates": [[[-120.149738, 39.317009], [-120.007338, 39.317009], [-120.001861, 39.163654], [-120.001861, 39.114362], [-120.001861, 39.065069], [-121.04248, 38.917192], [-121.141065, 38.714545], [-121.486112, 38.736453], [-121.414912, 38.999346], [-121.277988, 39.032208], [-120.149738, 39.317009]]]}}, {"type": "Feature", "properties": {"name": "Kalamazoo", "id": "26077", "FIPS": "26077", "FIPS State": 26, "ST": "MI", "County": "Kalamazoo County,MI", "State": "Michigan"}, "geometry": {"type": "Polygon", "coordinates": [[[-85.540952, 42.422434], [-85.299967, 42.416957], [-85.29449, 42.07191], [-85.299967, 42.07191], [-85.765507, 42.07191], [-85.765507, 42.422434], [-85.540952, 42.422434]]]}}, {"type": "Feature", "properties": {"name": "Lane", "id": "41039", "FIPS": "41039", "FIPS State": 41, "ST": "OR", "County": "Lane County,OR", "State": "Oregon"}, "geometry": {"type": "Polygon", "coordinates": [[[-124.010981, 44.279117], [-123.775473, 44.284593], [-123.200394, 44.284593], [-121.798297, 44.257209], [-122.000944, 43.616407], [-122.132391, 43.441145], [-123.107286, 43.53973], [-123.140148, 43.780715], [-123.824765, 43.945023], [-124.158859, 43.862869], [-124.115043, 44.27364], [-124.010981, 44.279117]]]}}]}