{"type": "FeatureCollection", "crs": {"type": "name", "properties": {"name": "urn:ogc:def:crs:OGC:1.3:CRS84"}}, "features": [{"type": "Feature", "properties": {"name": "Richland", "id": "17159", "FIPS": "17159", "FIPS State": 17, "ST": "IL", "County": "Richland County,IL", "State": "Illinois"}, "geometry": {"type": "Polygon", "coordinates": [[[-87.90699, 38.851469], [-87.912467, 38.572145], [-87.956283, 38.572145], [-88.005575, 38.572145], [-88.147976, 38.566668], [-88.252038, 38.599529], [-88.257515, 38.845992], [-87.945329, 38.851469], [-87.90699, 38.851469]]]}}, {"type": "Feature", "properties": {"name": "Wabash", "id": "17185", "FIPS": "17185", "FIPS State": 17, "ST": "IL", "County": "Wabash County,IL", "State": "Illinois"}, "geometry": {"type": "Polygon", "coordinates": [[[-87.912467, 38.572145], [-87.649574, 38.566668], [-87.742682, 38.413313], [-87.972714, 38.232574], [-87.989145, 38.259959], [-87.956283, 38.572145], [-87.912467, 38.572145]]]}}, {"type": "Feature", "properties": {"name": "Marinette", "id": "55075", "FIPS": "55075", "FIPS State": 55, "ST": "WI", "County": "Marinette County,WI", "State": "Wisconsin"}, "geometry": {"type": "Polygon", "coordinates": [[[-88.060345, 45.779798], [-87.846744, 45.725029], [-87.589328, 45.095181], [-87.76459, 44.963734], [-88.4273, 45.374505], [-88.4273, 45.725029], [-88.060345, 45.779798]]]}}, {"type": "Feature", "properties": {"name": "Edgefield", "id": "45037", "FIPS": "45037", "FIPS State": 45, "ST": "SC", "County": "Edgefield County,SC", "State": "South Carolina"}, "geometry": {"type": "Polygon", "coordinates": [[[-82.008326, 33.960561], [-81.652325, 33.812683], [-82.013803, 33.53336], [-82.030233, 33.544313], [-82.117864, 33.599083], [-82.046664, 33.955084], [-82.008326, 33.960561]]]}}, {"type": "Feature", "properties": {"name": "Teton", "id": "56039", "FIPS": "56039", "FIPS State": 56, "ST": "WY", "County": "Teton County,WY", "State": "Wyoming"}, "geometry": {"type": "Polygon", "coordinates": [[[-111.058017, 44.667979], [-110.3734, 44.580348], [-110.055737, 44.010746], [-110.05026, 43.463052], [-110.576047, 43.233021], [-111.047063, 43.315175], [-111.047063, 43.501391], [-111.047063, 43.983362], [-111.047063, 44.476286], [-111.058017, 44.667979]]]}}, {"type": "Feature", "properties": {"name": "Harrison", "id": "29081", "FIPS": "29081", "FIPS State": 29, "ST": "MO", "County": "Harrison County,MO", "State": "Missouri"}, "geometry": {"type": "Polygon", "coordinates": [[[-93.772794, 40.576705], [-93.76184, 40.264519], [-93.76184, 40.133073], [-94.216426, 40.13855], [-94.216426, 40.385012], [-94.232857, 40.571228], [-94.013779, 40.571228], [-93.772794, 40.576705]]]}}, {"type": "Feature", "properties": {"name": "Newberry", "id": "45071", "FIPS": "45071", "FIPS State": 45, "ST": "SC", "County": "Newberry County,SC", "State": "South Carolina"}, "geometry": {"type": "Polygon", "coordinates": [[[-81.646848, 34.519209], [-81.641371, 34.53564], [-81.422293, 34.491824], [-81.318231, 34.239885], [-81.340139, 34.196069], [-81.471585, 34.075577], [-81.739956, 34.185115], [-81.871402, 34.135823], [-81.942602, 34.201546], [-81.646848, 34.519209]]]}}, {"type": "Feature", "properties": {"name": "Talbot", "id": "13263", "FIPS": "13263", "FIPS State": 13, "ST": "GA", "County": "Talbot County,GA", "State": "Georgia"}, "geometry": {"type": "Polygon", "coordinates": [[[-84.50581, 32.881604], [-84.286733, 32.750157], [-84.445564, 32.563941], [-84.637257, 32.536556], [-84.692026, 32.520126], [-84.692026, 32.585849], [-84.70298, 32.843265], [-84.50581, 32.881604]]]}}, {"type": "Feature", "properties": {"name": "Jasper", "id": "28061", "FIPS": "28061", "FIPS State": 28, "ST": "MS", "County": "Jasper County,MS", "State": "Mississippi"}, "geometry": {"type": "Polygon", "coordinates": [[[-89.018809, 32.224371], [-88.914747, 32.224371], [-88.909271, 31.824554], [-88.942132, 31.824554], [-89.314564, 31.802646], [-89.320041, 32.224371], [-89.018809, 32.224371]]]}}, {"type": "Feature", "properties": {"name": "Texas", "id": "29215", "FIPS": "29215", "FIPS State": 29, "ST": "MO", "County": "Texas County,MO", "State": "Missouri"}, "geometry": {"type": "Polygon", "coordinates": [[[-92.250204, 37.602726], [-92.031127, 37.602726], [-91.806572, 37.597249], [-91.647741, 37.421987], [-91.653218, 37.049555], [-92.074942, 37.055032], [-92.091373, 37.055032], [-92.250204, 37.060509], [-92.250204, 37.47128], [-92.250204, 37.602726]]]}}, {"type": "Feature", "properties": {"name": "Hartley", "id": "48205", "FIPS": "48205", "FIPS State": 48, "ST": "TX", "County": "Hartley County,TX", "State": "Texas"}, "geometry": {"type": "Polygon", "coordinates": [[[-102.30039, 36.052752], [-102.163466, 36.052752], [-102.163466, 35.625551], [-103.039777, 35.620074], [-103.039777, 35.740566], [-103.039777, 36.052752], [-102.30039, 36.052752]]]}}, {"type": "Feature", "properties": {"name": "Searcy", "id": "05129", "FIPS": "05129", "FIPS State": 5, "ST": "AR", "County": "Searcy County,AR", "State": "Arkansas"}, "geometry": {"type": "Polygon", "coordinates": [[[-92.945776, 36.112998], [-92.891006, 36.112998], [-92.409035, 36.063706], [-92.414512, 35.976075], [-92.414512, 35.789859], [-92.611682, 35.789859], [-92.808852, 35.724136], [-92.951253, 35.724136], [-92.945776, 36.112998]]]}}, {"type": "Feature", "properties": {"name": "Meriwether", "id": "13199", "FIPS": "13199", "FIPS State": 13, "ST": "GA", "County": "Meriwether County,GA", "State": "Georgia"}, "geometry": {"type": "Polygon", "coordinates": [[[-84.861812, 33.193789], [-84.500334, 33.221174], [-84.494857, 33.182835], [-84.527718, 32.969235], [-84.50581, 32.881604], [-84.70298, 32.843265], [-84.861812, 32.87065], [-84.861812, 32.87065], [-84.861812, 33.193789]]]}}, {"type": "Feature", "properties": {"name": "Phillips", "id": "05107", "FIPS": "05107", "FIPS State": 5, "ST": "AR", "County": "Phillips County,AR", "State": "Arkansas"}, "geometry": {"type": "Polygon", "coordinates": [[[-91.050754, 34.645178], [-90.585214, 34.639701], [-90.568783, 34.524686], [-90.957646, 34.119392], [-90.952169, 34.119392], [-91.116477, 34.119392], [-91.056231, 34.33847], [-91.050754, 34.645178]]]}}, {"type": "Feature", "properties": {"name": "Oglethorpe", "id": "13221", "FIPS": "13221", "FIPS State": 13, "ST": "GA", "County": "Oglethorpe County,GA", "State": "Georgia"}, "geometry": {"type": "Polygon", "coordinates": [[[-83.098237, 34.026284], [-82.977744, 34.042715], [-82.780574, 33.971515], [-82.950359, 33.736006], [-82.994175, 33.692191], [-83.278976, 33.763391], [-83.273499, 33.845545], [-83.257068, 33.998899], [-83.098237, 34.026284]]]}}, {"type": "Feature", "properties": {"name": "Custer", "id": "31041", "FIPS": "31041", "FIPS State": 31, "ST": "NE", "County": "Custer County,NE", "State": "Nebraska"}, "geometry": {"type": "Polygon", "coordinates": [[[-99.222349, 41.743293], [-99.211395, 41.743293], [-99.205918, 41.392769], [-99.205918, 41.047722], [-99.424996, 41.047722], [-99.994598, 41.047722], [-100.224629, 41.047722], [-100.252014, 41.392769], [-100.252014, 41.737816], [-99.687889, 41.737816], [-99.222349, 41.743293]]]}}, {"type": "Feature", "properties": {"name": "Johnson", "id": "56019", "FIPS": "56019", "FIPS State": 56, "ST": "WY", "County": "Johnson County,WY", "State": "Wyoming"}, "geometry": {"type": "Polygon", "coordinates": [[[-106.008278, 44.563917], [-106.019232, 43.495914], [-106.079479, 43.495914], [-107.109143, 43.501391], [-107.147482, 44.164101], [-107.372036, 44.55844], [-106.008278, 44.563917]]]}}, {"type": "Feature", "properties": {"name": "Butler", "id": "01013", "FIPS": "01013", "FIPS State": 1, "ST": "AL", "County": "Butler County,AL", "State": "Alabama"}, "geometry": {"type": "Polygon", "coordinates": [[[-86.477509, 31.966955], [-86.450124, 31.966955], [-86.499417, 31.523322], [-86.702064, 31.523322], [-86.90471, 31.753354], [-86.90471, 31.830031], [-86.855418, 31.961478], [-86.477509, 31.966955]]]}}, {"type": "Feature", "properties": {"name": "Chester", "id": "47023", "FIPS": "47023", "FIPS State": 47, "ST": "TN", "County": "Chester County,TN", "State": "Tennessee"}, "geometry": {"type": "Polygon", "coordinates": [[[-88.701147, 35.477673], [-88.613516, 35.587212], [-88.361576, 35.417427], [-88.361576, 35.379088], [-88.378007, 35.373611], [-88.783301, 35.247642], [-88.843547, 35.428381], [-88.701147, 35.477673]]]}}, {"type": "Feature", "properties": {"name": "Fulton", "id": "05049", "FIPS": "05049", "FIPS State": 5, "ST": "AR", "County": "Fulton County,AR", "State": "Arkansas"}, "geometry": {"type": "Polygon", "coordinates": [[[-91.669648, 36.501861], [-91.450571, 36.496384], [-91.691556, 36.255399], [-92.124235, 36.260876], [-92.157096, 36.260876], [-92.151619, 36.496384], [-92.118758, 36.496384], [-91.669648, 36.501861]]]}}, {"type": "Feature", "properties": {"name": "Chambers", "id": "48071", "FIPS": "48071", "FIPS State": 48, "ST": "TX", "County": "Chambers County,TX", "State": "Texas"}, "geometry": {"type": "Polygon", "coordinates": [[[-94.44098, 29.891194], [-94.353349, 29.562578], [-94.36978, 29.557101], [-94.36978, 29.595439], [-94.512181, 29.54067], [-94.928428, 29.672117], [-94.97772, 29.885717], [-94.44098, 29.891194]]]}}, {"type": "Feature", "properties": {"name": "Castro", "id": "48069", "FIPS": "48069", "FIPS State": 48, "ST": "TX", "County": "Castro County,TX", "State": "Texas"}, "geometry": {"type": "Polygon", "coordinates": [[[-102.004635, 34.74924], [-101.999158, 34.74924], [-101.999158, 34.311085], [-102.092266, 34.311085], [-102.327774, 34.311085], [-102.524944, 34.311085], [-102.524944, 34.74924], [-102.168943, 34.74924], [-102.004635, 34.74924]]]}}, {"type": "Feature", "properties": {"name": "Lincoln", "id": "21137", "FIPS": "21137", "FIPS State": 21, "ST": "KY", "County": "Lincoln County,KY", "State": "Kentucky"}, "geometry": {"type": "Polygon", "coordinates": [[[-84.659165, 37.635588], [-84.445564, 37.48771], [-84.500334, 37.328879], [-84.670119, 37.27411], [-84.719411, 37.235771], [-84.845381, 37.547957], [-84.659165, 37.635588]]]}}, {"type": "Feature", "properties": {"name": "Tate", "id": "28137", "FIPS": "28137", "FIPS State": 28, "ST": "MS", "County": "Tate County,MS", "State": "Mississippi"}, "geometry": {"type": "Polygon", "coordinates": [[[-89.845827, 34.771148], [-89.725335, 34.771148], [-89.670565, 34.55207], [-89.719858, 34.55207], [-90.097767, 34.55207], [-90.196352, 34.55207], [-90.201828, 34.721856], [-89.845827, 34.771148]]]}}, {"type": "Feature", "properties": {"name": "Audubon", "id": "19009", "FIPS": "19009", "FIPS State": 19, "ST": "IA", "County": "Audubon County,IA", "State": "Iowa"}, "geometry": {"type": "Polygon", "coordinates": [[[-95.092736, 41.863786], [-94.742212, 41.863786], [-94.698396, 41.502308], [-95.043444, 41.502308], [-95.092736, 41.863786]]]}}, {"type": "Feature", "properties": {"name": "Hughes", "id": "46065", "FIPS": "46065", "FIPS State": 46, "ST": "SD", "County": "Hughes County,SD", "State": "South Dakota"}, "geometry": {"type": "Polygon", "coordinates": [[[-99.857674, 44.547487], [-99.676935, 44.547487], [-99.665981, 44.21887], [-99.939828, 44.196962], [-100.525861, 44.547487], [-99.857674, 44.547487]]]}}, {"type": "Feature", "properties": {"name": "Aitkin", "id": "27001", "FIPS": "27001", "FIPS State": 27, "ST": "MN", "County": "Aitkin County,MN", "State": "Minnesota"}, "geometry": {"type": "Polygon", "coordinates": [[[-93.712547, 47.028541], [-93.055314, 47.028541], [-93.060791, 46.765647], [-93.055314, 46.4206], [-93.055314, 46.157707], [-93.307254, 46.157707], [-93.433223, 46.15223], [-93.553716, 46.245338], [-93.794701, 46.245338], [-93.778271, 46.803986], [-93.772794, 47.028541], [-93.712547, 47.028541]]]}}, {"type": "Feature", "properties": {"name": "Jones", "id": "19105", "FIPS": "19105", "FIPS State": 19, "ST": "IA", "County": "Jones County,IA", "State": "Iowa"}, "geometry": {"type": "Polygon", "coordinates": [[[-91.36294, 42.296464], [-91.127431, 42.296464], [-90.8974, 42.296464], [-90.8974, 42.033571], [-90.8974, 41.94594], [-91.012416, 41.94594], [-91.368417, 41.94594], [-91.36294, 42.296464]]]}}, {"type": "Feature", "properties": {"name": "Custer", "id": "46033", "FIPS": "46033", "FIPS State": 46, "ST": "SD", "County": "Custer County,SD", "State": "South Dakota"}, "geometry": {"type": "Polygon", "coordinates": [[[-103.417686, 43.857392], [-102.809745, 43.687607], [-103.001438, 43.479483], [-103.937995, 43.479483], [-104.053011, 43.479483], [-104.053011, 43.501391], [-104.053011, 43.851915], [-103.417686, 43.857392]]]}}, {"type": "Feature", "properties": {"name": "Augusta", "id": "51015", "FIPS": "51015", "FIPS State": 51, "ST": "VA", "County": "Augusta County,VA", "State": "Virginia"}, "geometry": {"type": "Polygon", "coordinates": [[[-79.313671, 38.413313], [-79.22604, 38.479037], [-78.749546, 38.20519], [-78.837177, 38.046358], [-78.859085, 38.029928], [-79.15484, 37.893004], [-79.483456, 38.084697], [-79.510841, 38.177805], [-79.313671, 38.413313]]]}}, {"type": "Feature", "properties": {"name": "Jasper", "id": "45053", "FIPS": "45053", "FIPS State": 45, "ST": "SC", "County": "Jasper County,SC", "State": "South Carolina"}, "geometry": {"type": "Polygon", "coordinates": [[[-81.142969, 32.657049], [-80.869122, 32.662526], [-80.880076, 32.08197], [-80.885553, 32.032678], [-81.148446, 32.224371], [-81.279893, 32.558464], [-81.142969, 32.657049]]]}}, {"type": "Feature", "properties": {"name": "Sullivan", "id": "18153", "FIPS": "18153", "FIPS State": 18, "ST": "IN", "County": "Sullivan County,IN", "State": "Indiana"}, "geometry": {"type": "Polygon", "coordinates": [[[-87.578374, 39.256762], [-87.238804, 39.256762], [-87.238804, 39.169131], [-87.238804, 38.906238], [-87.534558, 38.900761], [-87.644097, 39.158177], [-87.605759, 39.256762], [-87.578374, 39.256762]]]}}, {"type": "Feature", "properties": {"name": "Cumberland", "id": "51049", "FIPS": "51049", "FIPS State": 51, "ST": "VA", "County": "Cumberland County,VA", "State": "Virginia"}, "geometry": {"type": "Polygon", "coordinates": [[[-78.163514, 37.750604], [-78.158037, 37.750604], [-78.070406, 37.657496], [-78.130652, 37.454849], [-78.234714, 37.367218], [-78.262098, 37.34531], [-78.464745, 37.339833], [-78.240191, 37.690357], [-78.163514, 37.750604]]]}}, {"type": "Feature", "properties": {"name": "Winn", "id": "22127", "FIPS": "22127", "FIPS State": 22, "ST": "LA", "County": "Winn County,LA", "State": "Louisiana"}, "geometry": {"type": "Polygon", "coordinates": [[[-92.940299, 32.147694], [-92.814329, 32.147694], [-92.31045, 32.147694], [-92.31045, 31.928616], [-92.36522, 31.797169], [-92.97316, 31.709538], [-92.940299, 32.147694]]]}}, {"type": "Feature", "properties": {"name": "Hawkins", "id": "47073", "FIPS": "47073", "FIPS State": 47, "ST": "TN", "County": "Hawkins County,TN", "State": "Tennessee"}, "geometry": {"type": "Polygon", "coordinates": [[[-82.654605, 36.594969], [-82.610789, 36.594969], [-82.681989, 36.430661], [-82.703897, 36.408753], [-83.081806, 36.244445], [-83.158483, 36.332076], [-83.257068, 36.288261], [-83.278976, 36.392322], [-82.829867, 36.594969], [-82.654605, 36.594969]]]}}, {"type": "Feature", "properties": {"name": "Coshocton", "id": "39031", "FIPS": "39031", "FIPS State": 39, "ST": "OH", "County": "Coshocton County,OH", "State": "Ohio"}, "geometry": {"type": "Polygon", "coordinates": [[[-82.183588, 40.456212], [-81.707094, 40.445258], [-81.62494, 40.220704], [-81.652325, 40.220704], [-81.718048, 40.149503], [-82.189065, 40.165934], [-82.194542, 40.237135], [-82.183588, 40.456212]]]}}, {"type": "Feature", "properties": {"name": "Haralson", "id": "13143", "FIPS": "13143", "FIPS State": 13, "ST": "GA", "County": "Haralson County,GA", "State": "Georgia"}, "geometry": {"type": "Polygon", "coordinates": [[[-85.310921, 33.900315], [-85.048028, 33.905791], [-85.037074, 33.812683], [-85.338305, 33.653852], [-85.387598, 33.900315], [-85.310921, 33.900315]]]}}, {"type": "Feature", "properties": {"name": "Sargent", "id": "38081", "FIPS": "38081", "FIPS State": 38, "ST": "ND", "County": "Sargent County,ND", "State": "North Dakota"}, "geometry": {"type": "Polygon", "coordinates": [[[-98.006468, 46.283677], [-97.278035, 46.283677], [-97.228743, 45.933153], [-97.853114, 45.933153], [-97.979084, 45.938629], [-98.006468, 45.938629], [-98.006468, 46.283677]]]}}, {"type": "Feature", "properties": {"name": "Meade", "id": "21163", "FIPS": "21163", "FIPS State": 21, "ST": "KY", "County": "Meade County,KY", "State": "Kentucky"}, "geometry": {"type": "Polygon", "coordinates": [[[-86.307724, 38.166851], [-86.001015, 37.997066], [-86.148893, 37.799896], [-86.488463, 38.046358], [-86.461078, 38.117559], [-86.307724, 38.166851]]]}}, {"type": "Feature", "properties": {"name": "Wilkes", "id": "13317", "FIPS": "13317", "FIPS State": 13, "ST": "GA", "County": "Wilkes County,GA", "State": "Georgia"}, "geometry": {"type": "Polygon", "coordinates": [[[-82.731282, 33.982469], [-82.643651, 33.982469], [-82.479343, 33.637421], [-82.649128, 33.610037], [-82.681989, 33.599083], [-82.950359, 33.736006], [-82.780574, 33.971515], [-82.731282, 33.982469]]]}}, {"type": "Feature", "properties": {"name": "Cassia", "id": "16031", "FIPS": "16031", "FIPS State": 16, "ST": "ID", "County": "Cassia County,ID", "State": "Idaho"}, "geometry": {"type": "Polygon", "coordinates": [[[-113.473348, 42.668896], [-113.23784, 42.625081], [-113.002331, 42.329326], [-113.002331, 42.000709], [-114.04295, 41.995232], [-114.283935, 41.995232], [-113.999134, 42.526496], [-113.933411, 42.537449], [-113.473348, 42.668896]]]}}, {"type": "Feature", "properties": {"name": "Lawrence", "id": "21127", "FIPS": "21127", "FIPS State": 21, "ST": "KY", "County": "Lawrence County,KY", "State": "Kentucky"}, "geometry": {"type": "Polygon", "coordinates": [[[-82.791528, 38.243528], [-82.605312, 38.249005], [-82.495773, 37.947773], [-82.610789, 37.876573], [-82.851774, 37.975158], [-82.988698, 37.964204], [-83.02156, 38.00802], [-82.922975, 38.177805], [-82.791528, 38.243528]]]}}, {"type": "Feature", "properties": {"name": "Camp", "id": "48063", "FIPS": "48063", "FIPS State": 48, "ST": "TX", "County": "Camp County,TX", "State": "Texas"}, "geometry": {"type": "Polygon", "coordinates": [[[-95.125598, 33.034958], [-94.818889, 32.980189], [-94.720304, 32.903511], [-94.780551, 32.903511], [-95.152983, 32.903511], [-95.152983, 33.01305], [-95.125598, 33.034958]]]}}, {"type": "Feature", "properties": {"name": "Lewis", "id": "16061", "FIPS": "16061", "FIPS State": 16, "ST": "ID", "County": "Lewis County,ID", "State": "Idaho"}, "geometry": {"type": "Polygon", "coordinates": [[[-116.31588, 46.426077], [-116.168003, 46.371308], [-116.699266, 45.998876], [-116.37065, 46.464416], [-116.31588, 46.426077]]]}}, {"type": "Feature", "properties": {"name": "Minidoka", "id": "16067", "FIPS": "16067", "FIPS State": 16, "ST": "ID", "County": "Minidoka County,ID", "State": "Idaho"}, "geometry": {"type": "Polygon", "coordinates": [[[-113.714333, 43.200159], [-113.413102, 43.200159], [-113.473348, 42.668896], [-113.933411, 42.537449], [-113.933411, 42.767481], [-113.714333, 43.200159]]]}}, {"type": "Feature", "properties": {"name": "Lincoln", "id": "40081", "FIPS": "40081", "FIPS State": 40, "ST": "OK", "County": "Lincoln County,OK", "State": "Oklahoma"}, "geometry": {"type": "Polygon", "coordinates": [[[-97.080866, 35.943213], [-96.620803, 35.943213], [-96.620803, 35.636505], [-96.626279, 35.461243], [-97.141112, 35.466719], [-97.141112, 35.724136], [-97.141112, 35.943213], [-97.080866, 35.943213]]]}}, {"type": "Feature", "properties": {"name": "Garrard", "id": "21079", "FIPS": "21079", "FIPS State": 21, "ST": "KY", "County": "Garrard County,KY", "State": "Kentucky"}, "geometry": {"type": "Polygon", "coordinates": [[[-84.648211, 37.81085], [-84.527718, 37.767034], [-84.346979, 37.537003], [-84.445564, 37.48771], [-84.659165, 37.635588], [-84.746796, 37.712265], [-84.713934, 37.816327], [-84.648211, 37.81085]]]}}, {"type": "Feature", "properties": {"name": "Panola", "id": "48365", "FIPS": "48365", "FIPS State": 48, "ST": "TX", "County": "Panola County,TX", "State": "Texas"}, "geometry": {"type": "Polygon", "coordinates": [[[-94.462888, 32.377725], [-94.041164, 32.394156], [-94.041164, 32.196986], [-94.013779, 31.977908], [-94.134272, 31.977908], [-94.512181, 31.972432], [-94.490273, 32.394156], [-94.462888, 32.377725]]]}}, {"type": "Feature", "properties": {"name": "Vance", "id": "37181", "FIPS": "37181", "FIPS State": 37, "ST": "NC", "County": "Vance County,NC", "State": "North Carolina"}, "geometry": {"type": "Polygon", "coordinates": [[[-78.322345, 36.545677], [-78.305914, 36.266353], [-78.497607, 36.173245], [-78.459268, 36.5402], [-78.322345, 36.545677]]]}}, {"type": "Feature", "properties": {"name": "Lake", "id": "41037", "FIPS": "41037", "FIPS State": 41, "ST": "OR", "County": "Lake County,OR", "State": "Oregon"}, "geometry": {"type": "Polygon", "coordinates": [[[-121.130111, 43.616407], [-119.897799, 43.61093], [-119.941615, 42.745573], [-119.366536, 42.75105], [-119.361059, 41.995232], [-120.001861, 41.995232], [-120.878171, 41.995232], [-120.883648, 42.745573], [-121.349188, 42.745573], [-121.332757, 43.616407], [-121.130111, 43.616407]]]}}, {"type": "Feature", "properties": {"name": "Crawford", "id": "26039", "FIPS": "26039", "FIPS State": 26, "ST": "MI", "County": "Crawford County,MI", "State": "Michigan"}, "geometry": {"type": "Polygon", "coordinates": [[[-84.774181, 44.859672], [-84.374364, 44.854195], [-84.368887, 44.509148], [-84.735842, 44.509148], [-84.850858, 44.509148], [-84.845381, 44.859672], [-84.774181, 44.859672]]]}}, {"type": "Feature", "properties": {"name": "Jefferson", "id": "20087", "FIPS": "20087", "FIPS State": 20, "ST": "KS", "County": "Jefferson County,KS", "State": "Kansas"}, "geometry": {"type": "Polygon", "coordinates": [[[-95.465168, 39.42107], [-95.180367, 39.42107], [-95.185844, 39.043162], [-95.49803, 39.054115], [-95.591138, 39.218424], [-95.56923, 39.42107], [-95.465168, 39.42107]]]}}, {"type": "Feature", "properties": {"name": "Luce", "id": "26095", "FIPS": "26095", "FIPS State": 26, "ST": "MI", "County": "Luce County,MI", "State": "Michigan"}, "geometry": {"type": "Polygon", "coordinates": [[[-85.23972, 46.754694], [-85.23972, 46.245338], [-85.36569, 46.245338], [-85.864092, 46.245338], [-85.864092, 46.502754], [-85.864092, 46.68897], [-85.23972, 46.754694]]]}}, {"type": "Feature", "properties": {"name": "Brown", "id": "18013", "FIPS": "18013", "FIPS State": 18, "ST": "IN", "County": "Brown County,IN", "State": "Indiana"}, "geometry": {"type": "Polygon", "coordinates": [[[-86.252954, 39.344393], [-86.083169, 39.344393], [-86.077692, 39.048638], [-86.318678, 39.048638], [-86.378924, 39.338916], [-86.252954, 39.344393]]]}}, {"type": "Feature", "properties": {"name": "Grant", "id": "20067", "FIPS": "20067", "FIPS State": 20, "ST": "KS", "County": "Grant County,KS", "State": "Kansas"}, "geometry": {"type": "Polygon", "coordinates": [[[-101.17214, 37.734173], [-101.089986, 37.734173], [-101.089986, 37.389126], [-101.528141, 37.389126], [-101.528141, 37.734173], [-101.17214, 37.734173]]]}}, {"type": "Feature", "properties": {"name": "Clearwater", "id": "27029", "FIPS": "27029", "FIPS State": 27, "ST": "MN", "County": "Clearwater County,MN", "State": "Minnesota"}, "geometry": {"type": "Polygon", "coordinates": [[[-95.580184, 48.019867], [-95.22966, 48.019867], [-95.185844, 47.411926], [-95.169413, 47.15451], [-95.552799, 47.149033], [-95.552799, 47.499557], [-95.580184, 47.932236], [-95.580184, 48.019867]]]}}, {"type": "Feature", "properties": {"name": "Wayne", "id": "29223", "FIPS": "29223", "FIPS State": 29, "ST": "MO", "County": "Wayne County,MO", "State": "Missouri"}, "geometry": {"type": "Polygon", "coordinates": [[[-90.552353, 37.317925], [-90.218259, 37.312448], [-90.10872, 37.038601], [-90.256598, 36.923586], [-90.568783, 36.929063], [-90.678322, 36.929063], [-90.776907, 37.049555], [-90.733092, 37.268633], [-90.552353, 37.317925]]]}}, {"type": "Feature", "properties": {"name": "Winston", "id": "01133", "FIPS": "01133", "FIPS State": 1, "ST": "AL", "County": "Winston County,AL", "State": "Alabama"}, "geometry": {"type": "Polygon", "coordinates": [[[-87.633143, 34.305608], [-87.529082, 34.305608], [-87.107357, 34.300131], [-87.151173, 33.993423], [-87.627666, 34.004376], [-87.63862, 34.004376], [-87.633143, 34.305608]]]}}, {"type": "Feature", "properties": {"name": "Wilkinson", "id": "28157", "FIPS": "28157", "FIPS State": 28, "ST": "MS", "County": "Wilkinson County,MS", "State": "Mississippi"}, "geometry": {"type": "Polygon", "coordinates": [[[-91.264355, 31.369968], [-91.160293, 31.34806], [-91.09457, 31.320676], [-91.061708, 30.997536], [-91.176724, 30.997536], [-91.636787, 30.997536], [-91.587494, 31.189229], [-91.264355, 31.369968]]]}}, {"type": "Feature", "properties": {"name": "Clarke", "id": "01025", "FIPS": "01025", "FIPS State": 1, "ST": "AL", "County": "Clarke County,AL", "State": "Alabama"}, "geometry": {"type": "Polygon", "coordinates": [[[-87.819359, 31.988862], [-87.666005, 31.988862], [-87.501697, 31.830031], [-87.76459, 31.298768], [-87.945329, 31.194706], [-88.087729, 31.698584], [-88.071299, 31.988862], [-87.819359, 31.988862]]]}}, {"type": "Feature", "properties": {"name": "Rusk", "id": "55107", "FIPS": "55107", "FIPS State": 55, "ST": "WI", "County": "Rusk County,WI", "State": "Wisconsin"}, "geometry": {"type": "Polygon", "coordinates": [[[-90.678322, 45.637398], [-90.678322, 45.379982], [-90.924785, 45.29235], [-91.089093, 45.29235], [-91.543679, 45.29235], [-91.538202, 45.637398], [-90.678322, 45.637398]]]}}, {"type": "Feature", "properties": {"name": "Vernon", "id": "55123", "FIPS": "55123", "FIPS State": 55, "ST": "WI", "County": "Vernon County,WI", "State": "Wisconsin"}, "geometry": {"type": "Polygon", "coordinates": [[[-90.311367, 43.731422], [-90.311367, 43.638314], [-90.311367, 43.55616], [-90.667368, 43.424714], [-90.9686, 43.424714], [-91.204109, 43.424714], [-91.215062, 43.501391], [-91.258878, 43.725946], [-90.908354, 43.725946], [-90.311367, 43.731422]]]}}, {"type": "Feature", "properties": {"name": "Newton", "id": "29145", "FIPS": "29145", "FIPS State": 29, "ST": "MO", "County": "Newton County,MO", "State": "Missouri"}, "geometry": {"type": "Polygon", "coordinates": [[[-94.616242, 37.055032], [-94.616242, 37.055032], [-94.057594, 37.049555], [-94.063071, 36.929063], [-94.068548, 36.748324], [-94.539565, 36.764754], [-94.616242, 36.764754], [-94.616242, 37.000263], [-94.616242, 37.055032]]]}}, {"type": "Feature", "properties": {"name": "Washington", "id": "28151", "FIPS": "28151", "FIPS State": 28, "ST": "MS", "County": "Washington County,MS", "State": "Mississippi"}, "geometry": {"type": "Polygon", "coordinates": [[[-91.001462, 33.527883], [-90.765953, 33.527883], [-90.716661, 33.270466], [-90.70023, 33.095204], [-90.913831, 33.095204], [-90.913831, 33.007573], [-91.16577, 33.01305], [-91.215062, 33.527883], [-91.001462, 33.527883]]]}}, {"type": "Feature", "properties": {"name": "Houston", "id": "27055", "FIPS": "27055", "FIPS State": 27, "ST": "MN", "County": "Houston County,MN", "State": "Minnesota"}, "geometry": {"type": "Polygon", "coordinates": [[[-91.373894, 43.846438], [-91.286263, 43.846438], [-91.258878, 43.725946], [-91.215062, 43.501391], [-91.368417, 43.501391], [-91.609402, 43.501391], [-91.729895, 43.501391], [-91.729895, 43.846438], [-91.373894, 43.846438]]]}}, {"type": "Feature", "properties": {"name": "Calhoun", "id": "54013", "FIPS": "54013", "FIPS State": 54, "ST": "WV", "County": "Calhoun County,WV", "State": "West Virginia"}, "geometry": {"type": "Polygon", "coordinates": [[[-81.115584, 39.037685], [-81.03343, 39.0103], [-80.984138, 38.720022], [-81.03343, 38.665253], [-81.055338, 38.643345], [-81.082723, 38.610483], [-81.279893, 38.917192], [-81.164877, 39.032208], [-81.115584, 39.037685]]]}}, {"type": "Feature", "properties": {"name": "Watonwan", "id": "27165", "FIPS": "27165", "FIPS State": 27, "ST": "MN", "County": "Watonwan County,MN", "State": "Minnesota"}, "geometry": {"type": "Polygon", "coordinates": [[[-94.490273, 44.109331], [-94.36978, 44.109331], [-94.36978, 43.846438], [-94.616242, 43.846438], [-94.851751, 43.846438], [-94.857228, 43.846438], [-94.857228, 44.109331], [-94.490273, 44.109331]]]}}, {"type": "Feature", "properties": {"name": "Buffalo", "id": "55011", "FIPS": "55011", "FIPS State": 55, "ST": "WI", "County": "Buffalo County,WI", "State": "Wisconsin"}, "geometry": {"type": "Polygon", "coordinates": [[[-91.647741, 44.596779], [-91.527248, 44.596779], [-91.56011, 44.027177], [-91.855864, 44.191485], [-92.085896, 44.405086], [-91.647741, 44.596779]]]}}, {"type": "Feature", "properties": {"name": "Bent", "id": "08011", "FIPS": "08011", "FIPS State": 8, "ST": "CO", "County": "Bent County,CO", "State": "Colorado"}, "geometry": {"type": "Polygon", "coordinates": [[[-102.744022, 38.265436], [-102.749499, 37.641065], [-103.078115, 37.641065], [-103.406732, 37.641065], [-103.401255, 38.265436], [-102.744022, 38.265436]]]}}, {"type": "Feature", "properties": {"name": "Sheridan", "id": "56033", "FIPS": "56033", "FIPS State": 56, "ST": "WY", "County": "Sheridan County,WY", "State": "Wyoming"}, "geometry": {"type": "Polygon", "coordinates": [[[-107.914254, 45.002073], [-106.265695, 44.991119], [-106.024709, 44.991119], [-106.008278, 44.563917], [-107.372036, 44.55844], [-107.914254, 45.002073]]]}}, {"type": "Feature", "properties": {"name": "Richland", "id": "55103", "FIPS": "55103", "FIPS State": 55, "ST": "WI", "County": "Richland County,WI", "State": "Wisconsin"}, "geometry": {"type": "Polygon", "coordinates": [[[-90.190875, 43.55616], [-90.196352, 43.161821], [-90.294936, 43.205636], [-90.43186, 43.200159], [-90.552353, 43.205636], [-90.667368, 43.172775], [-90.667368, 43.424714], [-90.311367, 43.55616], [-90.190875, 43.55616]]]}}, {"type": "Feature", "properties": {"name": "Page", "id": "51139", "FIPS": "51139", "FIPS State": 51, "ST": "VA", "County": "Page County,VA", "State": "Virginia"}, "geometry": {"type": "Polygon", "coordinates": [[[-78.388068, 38.829561], [-78.284006, 38.758361], [-78.338776, 38.626914], [-78.448314, 38.500944], [-78.453791, 38.47356], [-78.459268, 38.468083], [-78.486653, 38.41879], [-78.640007, 38.605006], [-78.388068, 38.829561]]]}}, {"type": "Feature", "properties": {"name": "Carbon", "id": "30009", "FIPS": "30009", "FIPS State": 30, "ST": "MT", "County": "Carbon County,MT", "State": "Montana"}, "geometry": {"type": "Polygon", "coordinates": [[[-108.806995, 45.626444], [-108.642687, 45.462136], [-108.248347, 45.002073], [-108.620779, 45.002073], [-109.798321, 45.002073], [-109.798321, 45.166381], [-108.845333, 45.610013], [-108.806995, 45.626444]]]}}, {"type": "Feature", "properties": {"name": "Golden Valley", "id": "30037", "FIPS": "30037", "FIPS State": 30, "ST": "MT", "County": "Golden Valley County,MT", "State": "Montana"}, "geometry": {"type": "Polygon", "coordinates": [[[-109.387551, 46.694447], [-109.009642, 46.749217], [-108.77961, 46.130322], [-108.922011, 46.130322], [-109.17395, 46.130322], [-109.414935, 46.042691], [-109.655921, 46.217953], [-109.387551, 46.694447]]]}}, {"type": "Feature", "properties": {"name": "Adams", "id": "55001", "FIPS": "55001", "FIPS State": 55, "ST": "WI", "County": "Adams County,WI", "State": "Wisconsin"}, "geometry": {"type": "Polygon", "coordinates": [[[-89.818443, 44.251732], [-89.725335, 44.246255], [-89.599365, 44.246255], [-89.599365, 43.983362], [-89.599365, 43.643791], [-89.785581, 43.638314], [-89.900597, 44.251732], [-89.818443, 44.251732]]]}}, {"type": "Feature", "properties": {"name": "Dent", "id": "29065", "FIPS": "29065", "FIPS State": 29, "ST": "MO", "County": "Dent County,MO", "State": "Missouri"}, "geometry": {"type": "Polygon", "coordinates": [[[-91.806572, 37.597249], [-91.527248, 37.788942], [-91.154816, 37.695834], [-91.154816, 37.586295], [-91.209585, 37.41651], [-91.554633, 37.421987], [-91.647741, 37.421987], [-91.806572, 37.597249]]]}}, {"type": "Feature", "properties": {"name": "Kalkaska", "id": "26079", "FIPS": "26079", "FIPS State": 26, "ST": "MI", "County": "Kalkaska County,MI", "State": "Michigan"}, "geometry": {"type": "Polygon", "coordinates": [[[-85.250674, 44.859672], [-84.845381, 44.859672], [-84.850858, 44.509148], [-85.332828, 44.514625], [-85.332828, 44.81038], [-85.250674, 44.859672]]]}}, {"type": "Feature", "properties": {"name": "Wabash", "id": "18169", "FIPS": "18169", "FIPS State": 18, "ST": "IN", "County": "Wabash County,IN", "State": "Indiana"}, "geometry": {"type": "Polygon", "coordinates": [[[-85.683353, 41.047722], [-85.645014, 41.003906], [-85.639537, 40.653382], [-85.864092, 40.653382], [-85.946246, 40.998429], [-85.946246, 41.042245], [-85.683353, 41.047722]]]}}, {"type": "Feature", "properties": {"name": "Choctaw", "id": "40023", "FIPS": "40023", "FIPS State": 40, "ST": "OK", "County": "Choctaw County,OK", "State": "Oklahoma"}, "geometry": {"type": "Polygon", "coordinates": [[[-95.383014, 34.157731], [-95.158459, 34.157731], [-95.158459, 33.938653], [-95.311814, 33.878407], [-95.760923, 33.87293], [-95.990954, 34.157731], [-95.777354, 34.157731], [-95.383014, 34.157731]]]}}, {"type": "Feature", "properties": {"name": "Morgan", "id": "47129", "FIPS": "47129", "FIPS State": 47, "ST": "TN", "County": "Morgan County,TN", "State": "Tennessee"}, "geometry": {"type": "Polygon", "coordinates": [[[-84.724888, 36.375892], [-84.70298, 36.370415], [-84.440087, 36.162291], [-84.341502, 36.047275], [-84.681073, 35.910352], [-84.905627, 36.156814], [-84.724888, 36.375892]]]}}, {"type": "Feature", "properties": {"name": "Beaver", "id": "49001", "FIPS": "49001", "FIPS State": 49, "ST": "UT", "County": "Beaver County,UT", "State": "Utah"}, "geometry": {"type": "Polygon", "coordinates": [[[-113.97175, 38.572145], [-112.514883, 38.572145], [-112.52036, 38.511898], [-112.443683, 38.15042], [-112.476545, 38.144943], [-112.876362, 38.15042], [-114.048427, 38.15042], [-114.048427, 38.572145], [-113.97175, 38.572145]]]}}, {"type": "Feature", "properties": {"name": "Stanley", "id": "46117", "FIPS": "46117", "FIPS State": 46, "ST": "SD", "County": "Stanley County,SD", "State": "South Dakota"}, "geometry": {"type": "Polygon", "coordinates": [[[-100.717554, 44.772041], [-100.525861, 44.547487], [-99.939828, 44.196962], [-100.224629, 44.196962], [-100.36703, 44.169578], [-101.013309, 44.169578], [-101.04617, 44.169578], [-101.139278, 44.744656], [-100.717554, 44.772041]]]}}, {"type": "Feature", "properties": {"name": "Saline", "id": "31151", "FIPS": "31151", "FIPS State": 31, "ST": "NE", "County": "Saline County,NE", "State": "Nebraska"}, "geometry": {"type": "Polygon", "coordinates": [[[-97.365666, 40.697198], [-96.91108, 40.697198], [-96.91108, 40.521935], [-96.916557, 40.35215], [-97.365666, 40.35215], [-97.365666, 40.697198]]]}}, {"type": "Feature", "properties": {"name": "Liberty", "id": "12077", "FIPS": "12077", "FIPS State": 12, "ST": "FL", "County": "Liberty County,FL", "State": "Florida"}, "geometry": {"type": "Polygon", "coordinates": [[[-84.933012, 30.608673], [-84.648211, 30.389596], [-84.713934, 30.301965], [-84.544149, 30.011687], [-85.004212, 30.011687], [-85.02612, 29.973348], [-85.113751, 30.197903], [-84.933012, 30.608673]]]}}, {"type": "Feature", "properties": {"name": "Hood River", "id": "41027", "FIPS": "41027", "FIPS State": 41, "ST": "OR", "County": "Hood River County,OR", "State": "Oregon"}, "geometry": {"type": "Polygon", "coordinates": [[[-121.924267, 45.648352], [-121.52445, 45.725029], [-121.442296, 45.697644], [-121.694236, 45.259489], [-121.820205, 45.462136], [-121.924267, 45.648352]]]}}, {"type": "Feature", "properties": {"name": "Huron", "id": "26063", "FIPS": "26063", "FIPS State": 26, "ST": "MI", "County": "Huron County,MI", "State": "Michigan"}, "geometry": {"type": "Polygon", "coordinates": [[[-82.605312, 43.693084], [-82.69842, 43.687607], [-83.120145, 43.676653], [-83.465192, 43.725946], [-83.465192, 43.731422], [-82.917498, 44.070993], [-82.605312, 43.693084]]]}}, {"type": "Feature", "properties": {"name": "Douglas", "id": "29067", "FIPS": "29067", "FIPS State": 29, "ST": "MO", "County": "Douglas County,MO", "State": "Missouri"}, "geometry": {"type": "Polygon", "coordinates": [[[-92.688359, 37.065986], [-92.250204, 37.060509], [-92.091373, 37.055032], [-92.113281, 36.792139], [-92.529528, 36.803093], [-92.765037, 36.80857], [-92.907437, 36.80857], [-92.90196, 37.071463], [-92.688359, 37.065986]]]}}, {"type": "Feature", "properties": {"name": "Geneva", "id": "01061", "FIPS": "01061", "FIPS State": 1, "ST": "AL", "County": "Geneva County,AL", "State": "Alabama"}, "geometry": {"type": "Polygon", "coordinates": [[[-85.486183, 31.200183], [-85.486183, 30.997536], [-85.497137, 30.997536], [-86.033877, 30.992059], [-86.187231, 30.992059], [-86.192708, 31.194706], [-85.792891, 31.194706], [-85.710737, 31.194706], [-85.486183, 31.200183]]]}}, {"type": "Feature", "properties": {"name": "Lawrence", "id": "05075", "FIPS": "05075", "FIPS State": 5, "ST": "AR", "County": "Lawrence County,AR", "State": "Arkansas"}, "geometry": {"type": "Polygon", "coordinates": [[[-91.242447, 36.255399], [-90.809769, 36.151337], [-90.853584, 35.970598], [-91.034323, 35.882967], [-91.198632, 35.888444], [-91.357463, 35.888444], [-91.258878, 36.255399], [-91.242447, 36.255399]]]}}, {"type": "Feature", "properties": {"name": "Hancock", "id": "17067", "FIPS": "17067", "FIPS State": 17, "ST": "IL", "County": "Hancock County,IL", "State": "Illinois"}, "geometry": {"type": "Polygon", "coordinates": [[[-91.187678, 40.636951], [-90.902877, 40.636951], [-90.908354, 40.286427], [-90.913831, 40.193319], [-91.204109, 40.198796], [-91.50534, 40.198796], [-91.499863, 40.248088], [-91.417709, 40.379535], [-91.187678, 40.636951]]]}}, {"type": "Feature", "properties": {"name": "Edwards", "id": "17047", "FIPS": "17047", "FIPS State": 17, "ST": "IL", "County": "Edwards County,IL", "State": "Illinois"}, "geometry": {"type": "Polygon", "coordinates": [[[-88.005575, 38.572145], [-87.956283, 38.572145], [-87.989145, 38.259959], [-88.005575, 38.259959], [-88.153453, 38.254482], [-88.147976, 38.566668], [-88.005575, 38.572145]]]}}, {"type": "Feature", "properties": {"name": "Custer", "id": "16037", "FIPS": "16037", "FIPS State": 16, "ST": "ID", "County": "Custer County,ID", "State": "Idaho"}, "geometry": {"type": "Polygon", "coordinates": [[[-115.04523, 44.750133], [-114.809722, 44.81038], [-114.563259, 44.574871], [-114.196304, 44.859672], [-113.319994, 44.235301], [-113.374763, 43.8081], [-113.796488, 43.567114], [-114.656367, 43.917638], [-114.968553, 43.939546], [-114.990461, 43.9505], [-115.297169, 44.339363], [-115.04523, 44.750133]]]}}, {"type": "Feature", "properties": {"name": "Dawson", "id": "31047", "FIPS": "31047", "FIPS State": 31, "ST": "NE", "County": "Dawson County,NE", "State": "Nebraska"}, "geometry": {"type": "Polygon", "coordinates": [[[-99.994598, 41.047722], [-99.424996, 41.047722], [-99.419519, 40.669813], [-99.644074, 40.686244], [-99.983644, 40.697198], [-100.224629, 40.702674], [-100.224629, 41.047722], [-99.994598, 41.047722]]]}}, {"type": "Feature", "properties": {"name": "Pike", "id": "18125", "FIPS": "18125", "FIPS State": 18, "ST": "IN", "County": "Pike County,IN", "State": "Indiana"}, "geometry": {"type": "Polygon", "coordinates": [[[-87.074495, 38.517375], [-87.074495, 38.232574], [-87.310004, 38.243528], [-87.315481, 38.243528], [-87.463358, 38.533806], [-87.244281, 38.54476], [-87.074495, 38.517375]]]}}, {"type": "Feature", "properties": {"name": "Lewis", "id": "54041", "FIPS": "54041", "FIPS State": 54, "ST": "WV", "County": "Lewis County,WV", "State": "West Virginia"}, "geometry": {"type": "Polygon", "coordinates": [[[-80.452875, 39.141746], [-80.29952, 39.103408], [-80.392628, 38.725499], [-80.458352, 38.74193], [-80.606229, 38.906238], [-80.726722, 39.097931], [-80.595275, 39.169131], [-80.452875, 39.141746]]]}}, {"type": "Feature", "properties": {"name": "Wolfe", "id": "21237", "FIPS": "21237", "FIPS State": 21, "ST": "KY", "County": "Wolfe County,KY", "State": "Kentucky"}, "geometry": {"type": "Polygon", "coordinates": [[[-83.607592, 37.827281], [-83.492576, 37.860142], [-83.262545, 37.712265], [-83.246114, 37.668449], [-83.377561, 37.695834], [-83.519961, 37.641065], [-83.706177, 37.717742], [-83.6295, 37.827281], [-83.607592, 37.827281]]]}}, {"type": "Feature", "properties": {"name": "Clay", "id": "05021", "FIPS": "05021", "FIPS State": 5, "ST": "AR", "County": "Clay County,AR", "State": "Arkansas"}, "geometry": {"type": "Polygon", "coordinates": [[[-90.782384, 36.496384], [-90.57426, 36.496384], [-90.218259, 36.496384], [-90.190875, 36.200629], [-90.804292, 36.266353], [-90.782384, 36.496384]]]}}, {"type": "Feature", "properties": {"name": "West Baton Rouge", "id": "22121", "FIPS": "22121", "FIPS State": 22, "ST": "LA", "County": "West Baton Rouge County,LA", "State": "Louisiana"}, "geometry": {"type": "Polygon", "coordinates": [[[-91.330078, 30.657966], [-91.302693, 30.652489], [-91.297217, 30.647012], [-91.143862, 30.323872], [-91.483432, 30.499135], [-91.330078, 30.657966]]]}}, {"type": "Feature", "properties": {"name": "Waushara", "id": "55137", "FIPS": "55137", "FIPS State": 55, "ST": "WI", "County": "Waushara County,WI", "State": "Wisconsin"}, "geometry": {"type": "Polygon", "coordinates": [[[-89.599365, 44.246255], [-89.226933, 44.246255], [-88.887363, 44.240778], [-88.887363, 43.983362], [-88.936655, 43.983362], [-89.166687, 43.983362], [-89.599365, 43.983362], [-89.599365, 44.246255]]]}}, {"type": "Feature", "properties": {"name": "Le Flore", "id": "40079", "FIPS": "40079", "FIPS State": 40, "ST": "OK", "County": "Le Flore County,OK", "State": "Oklahoma"}, "geometry": {"type": "Polygon", "coordinates": [[[-94.430026, 35.379088], [-94.446457, 34.935456], [-94.451934, 34.727333], [-94.462888, 34.508255], [-94.616242, 34.508255], [-94.939382, 34.508255], [-95.059875, 34.67804], [-94.928428, 35.055949], [-94.813412, 35.324319], [-94.430026, 35.379088]]]}}, {"type": "Feature", "properties": {"name": "Milam", "id": "48331", "FIPS": "48331", "FIPS State": 48, "ST": "TX", "County": "Milam County,TX", "State": "Texas"}, "geometry": {"type": "Polygon", "coordinates": [[[-96.828926, 31.107075], [-96.620803, 30.729166], [-96.96585, 30.559381], [-97.157543, 30.455319], [-97.316374, 30.751074], [-97.069912, 30.986582], [-96.828926, 31.107075]]]}}, {"type": "Feature", "properties": {"name": "Union", "id": "21225", "FIPS": "21225", "FIPS State": 21, "ST": "KY", "County": "Union County,KY", "State": "Kentucky"}, "geometry": {"type": "Polygon", "coordinates": [[[-88.027483, 37.799896], [-87.928898, 37.903958], [-87.731728, 37.635588], [-87.934375, 37.482234], [-88.060345, 37.504141], [-88.131545, 37.575342], [-88.027483, 37.799896]]]}}, {"type": "Feature", "properties": {"name": "Pike", "id": "13231", "FIPS": "13231", "FIPS State": 13, "ST": "GA", "County": "Pike County,GA", "State": "Georgia"}, "geometry": {"type": "Polygon", "coordinates": [[[-84.494857, 33.182835], [-84.248394, 33.188312], [-84.270302, 32.991142], [-84.36341, 32.991142], [-84.527718, 32.969235], [-84.494857, 33.182835]]]}}, {"type": "Feature", "properties": {"name": "Traill", "id": "38097", "FIPS": "38097", "FIPS State": 38, "ST": "ND", "County": "Traill County,ND", "State": "North Dakota"}, "geometry": {"type": "Polygon", "coordinates": [[[-97.475205, 47.669343], [-96.889173, 47.67482], [-96.850834, 47.499557], [-96.834403, 47.236664], [-97.453297, 47.236664], [-97.475205, 47.669343]]]}}, {"type": "Feature", "properties": {"name": "Bailey", "id": "48017", "FIPS": "48017", "FIPS State": 48, "ST": "TX", "County": "Bailey County,TX", "State": "Texas"}, "geometry": {"type": "Polygon", "coordinates": [[[-102.612575, 34.311085], [-102.618052, 33.823637], [-103.001438, 33.823637], [-103.045254, 33.823637], [-103.045254, 34.300131], [-103.045254, 34.311085], [-102.612575, 34.311085]]]}}, {"type": "Feature", "properties": {"name": "Crisp", "id": "13081", "FIPS": "13081", "FIPS State": 13, "ST": "GA", "County": "Crisp County,GA", "State": "Georgia"}, "geometry": {"type": "Polygon", "coordinates": [[[-83.963593, 32.032678], [-83.607592, 32.027201], [-83.613069, 31.851939], [-83.804762, 31.802646], [-83.941686, 31.846462], [-83.925255, 31.912185], [-83.963593, 32.032678]]]}}, {"type": "Feature", "properties": {"name": "Fremont", "id": "16043", "FIPS": "16043", "FIPS State": 16, "ST": "ID", "County": "Fremont County,ID", "State": "Idaho"}, "geometry": {"type": "Polygon", "coordinates": [[[-111.37568, 44.750133], [-111.047063, 44.476286], [-111.047063, 43.983362], [-111.397588, 43.923115], [-111.978143, 43.928592], [-112.153405, 44.060039], [-111.616665, 44.547487], [-111.479742, 44.711795], [-111.37568, 44.750133]]]}}, {"type": "Feature", "properties": {"name": "Preston", "id": "54077", "FIPS": "54077", "FIPS State": 54, "ST": "WV", "County": "Preston County,WV", "State": "West Virginia"}, "geometry": {"type": "Polygon", "coordinates": [[[-79.609426, 39.722302], [-79.477979, 39.722302], [-79.488933, 39.20747], [-79.488933, 39.196516], [-79.812073, 39.229378], [-79.894227, 39.300578], [-79.894227, 39.437501], [-79.76278, 39.722302], [-79.609426, 39.722302]]]}}, {"type": "Feature", "properties": {"name": "Moore", "id": "47127", "FIPS": "47127", "FIPS State": 47, "ST": "TN", "County": "Moore County,TN", "State": "Tennessee"}, "geometry": {"type": "Polygon", "coordinates": [[[-86.258431, 35.41195], [-86.263908, 35.335273], [-86.318678, 35.127149], [-86.526801, 35.357181], [-86.258431, 35.41195], [-86.258431, 35.41195]]]}}, {"type": "Feature", "properties": {"name": "Eastland", "id": "48133", "FIPS": "48133", "FIPS State": 48, "ST": "TX", "County": "Eastland County,TX", "State": "Texas"}, "geometry": {"type": "Polygon", "coordinates": [[[-98.740378, 32.514649], [-98.57607, 32.514649], [-98.477485, 32.514649], [-98.548686, 32.262709], [-98.926594, 32.076493], [-99.118287, 32.08197], [-99.11281, 32.514649], [-99.09638, 32.514649], [-98.740378, 32.514649]]]}}, {"type": "Feature", "properties": {"name": "Santa Cruz", "id": "04023", "FIPS": "04023", "FIPS State": 4, "ST": "AZ", "County": "Santa Cruz County,AZ", "State": "Arizona"}, "geometry": {"type": "Polygon", "coordinates": [[[-110.789647, 31.731446], [-110.450077, 31.731446], [-110.461031, 31.331629], [-111.364726, 31.424737], [-110.789647, 31.731446]]]}}, {"type": "Feature", "properties": {"name": "Pope", "id": "27121", "FIPS": "27121", "FIPS State": 27, "ST": "MN", "County": "Pope County,MN", "State": "Minnesota"}, "geometry": {"type": "Polygon", "coordinates": [[[-95.42683, 45.75789], [-95.142029, 45.75789], [-95.131075, 45.412843], [-95.257044, 45.412843], [-95.749969, 45.412843], [-95.760923, 45.75789], [-95.42683, 45.75789]]]}}, {"type": "Feature", "properties": {"name": "Webster", "id": "54101", "FIPS": "54101", "FIPS State": 54, "ST": "WV", "County": "Webster County,WV", "State": "West Virginia"}, "geometry": {"type": "Polygon", "coordinates": [[[-80.458352, 38.74193], [-80.392628, 38.725499], [-80.277612, 38.692637], [-80.244751, 38.385929], [-80.359767, 38.227097], [-80.414536, 38.254482], [-80.436444, 38.265436], [-80.650044, 38.528329], [-80.458352, 38.74193]]]}}, {"type": "Feature", "properties": {"name": "King George", "id": "51099", "FIPS": "51099", "FIPS State": 51, "ST": "VA", "County": "King George County,VA", "State": "Virginia"}, "geometry": {"type": "Polygon", "coordinates": [[[-76.996925, 38.27639], [-77.062649, 38.161374], [-77.117418, 38.15042], [-77.325542, 38.243528], [-77.287203, 38.34759], [-76.996925, 38.27639]]]}}, {"type": "Feature", "properties": {"name": "Roscommon", "id": "26143", "FIPS": "26143", "FIPS State": 26, "ST": "MI", "County": "Roscommon County,MI", "State": "Michigan"}, "geometry": {"type": "Polygon", "coordinates": [[[-84.735842, 44.509148], [-84.368887, 44.509148], [-84.368887, 44.158624], [-84.609872, 44.158624], [-84.850858, 44.158624], [-84.850858, 44.509148], [-84.735842, 44.509148]]]}}, {"type": "Feature", "properties": {"name": "Nobles", "id": "27105", "FIPS": "27105", "FIPS State": 27, "ST": "MN", "County": "Nobles County,MN", "State": "Minnesota"}, "geometry": {"type": "Polygon", "coordinates": [[[-96.051201, 43.846438], [-95.465168, 43.846438], [-95.454214, 43.846438], [-95.454214, 43.501391], [-95.859508, 43.501391], [-96.051201, 43.501391], [-96.051201, 43.846438]]]}}, {"type": "Feature", "properties": {"name": "Humboldt", "id": "32013", "FIPS": "32013", "FIPS State": 32, "ST": "NV", "County": "Humboldt County,NV", "State": "Nevada"}, "geometry": {"type": "Polygon", "coordinates": [[[-117.027882, 42.000709], [-117.016928, 42.000709], [-117.016928, 40.998429], [-117.301729, 40.527412], [-118.013732, 40.856029], [-119.311766, 40.960091], [-119.32272, 41.995232], [-118.194471, 41.995232], [-117.027882, 42.000709]]]}}, {"type": "Feature", "properties": {"name": "Lewis", "id": "36049", "FIPS": "36049", "FIPS State": 36, "ST": "NY", "County": "Lewis County,NY", "State": "New York"}, "geometry": {"type": "Polygon", "coordinates": [[[-75.446951, 44.21887], [-75.167627, 44.098377], [-75.112858, 43.616407], [-75.75366, 43.468529], [-75.775568, 43.687607], [-75.446951, 44.21887]]]}}, {"type": "Feature", "properties": {"name": "Tuolumne", "id": "06109", "FIPS": "06109", "FIPS State": 6, "ST": "CA", "County": "Tuolumne County,CA", "State": "California"}, "geometry": {"type": "Polygon", "coordinates": [[[-120.045677, 38.424267], [-120.018292, 38.435221], [-119.640383, 38.325682], [-119.267951, 37.73965], [-119.30629, 37.777988], [-120.084015, 37.827281], [-120.385247, 37.635588], [-120.653617, 37.832758], [-120.045677, 38.424267]]]}}, {"type": "Feature", "properties": {"name": "Eddy", "id": "35015", "FIPS": "35015", "FIPS State": 35, "ST": "NM", "County": "Eddy County,NM", "State": "New Mexico"}, "geometry": {"type": "Polygon", "coordinates": [[[-104.102303, 32.963758], [-103.812025, 32.963758], [-103.724394, 31.999816], [-103.98181, 31.999816], [-104.025626, 31.999816], [-104.847167, 31.999816], [-104.852644, 32.520126], [-104.84169, 32.963758], [-104.102303, 32.963758]]]}}, {"type": "Feature", "properties": {"name": "Meeker", "id": "27093", "FIPS": "27093", "FIPS State": 27, "ST": "MN", "County": "Meeker County,MN", "State": "Minnesota"}, "geometry": {"type": "Polygon", "coordinates": [[[-94.534088, 45.325212], [-94.260241, 45.281397], [-94.254764, 44.980165], [-94.501227, 44.892534], [-94.758643, 44.892534], [-94.76412, 45.325212], [-94.534088, 45.325212]]]}}, {"type": "Feature", "properties": {"name": "Missaukee", "id": "26113", "FIPS": "26113", "FIPS State": 26, "ST": "MI", "County": "Missaukee County,MI", "State": "Michigan"}, "geometry": {"type": "Polygon", "coordinates": [[[-85.332828, 44.514625], [-84.850858, 44.509148], [-84.850858, 44.158624], [-85.086366, 44.164101], [-85.332828, 44.164101], [-85.332828, 44.514625]]]}}, {"type": "Feature", "properties": {"name": "Sanilac", "id": "26151", "FIPS": "26151", "FIPS State": 26, "ST": "MI", "County": "Sanilac County,MI", "State": "Michigan"}, "geometry": {"type": "Polygon", "coordinates": [[[-82.69842, 43.687607], [-82.605312, 43.693084], [-82.50125, 43.167298], [-82.566974, 43.167298], [-82.994175, 43.156344], [-83.120145, 43.326129], [-83.120145, 43.676653], [-82.69842, 43.687607]]]}}, {"type": "Feature", "properties": {"name": "Rich", "id": "49033", "FIPS": "49033", "FIPS State": 49, "ST": "UT", "County": "Rich County,UT", "State": "Utah"}, "geometry": {"type": "Polygon", "coordinates": [[[-111.047063, 42.000709], [-111.047063, 41.578985], [-111.047063, 41.250368], [-111.266141, 41.146307], [-111.419495, 41.359907], [-111.512603, 41.425631], [-111.507126, 42.000709], [-111.047063, 42.000709]]]}}, {"type": "Feature", "properties": {"name": "Stanton", "id": "31167", "FIPS": "31167", "FIPS State": 31, "ST": "NE", "County": "Stanton County,NE", "State": "Nebraska"}, "geometry": {"type": "Polygon", "coordinates": [[[-97.36019, 42.08834], [-97.020619, 42.08834], [-97.020619, 41.743293], [-97.250651, 41.743293], [-97.250651, 41.743293], [-97.365666, 41.743293], [-97.365666, 42.08834], [-97.36019, 42.08834]]]}}, {"type": "Feature", "properties": {"name": "Clear Creek", "id": "08019", "FIPS": "08019", "FIPS State": 8, "ST": "CO", "County": "Clear Creek County,CO", "State": "Colorado"}, "geometry": {"type": "Polygon", "coordinates": [[[-105.926124, 39.700394], [-105.690616, 39.853749], [-105.400338, 39.749687], [-105.400338, 39.563471], [-105.827539, 39.563471], [-105.926124, 39.700394]]]}}, {"type": "Feature", "properties": {"name": "Potter", "id": "42105", "FIPS": "42105", "FIPS State": 42, "ST": "PA", "County": "Potter County,PA", "State": "Pennsylvania"}, "geometry": {"type": "Polygon", "coordinates": [[[-78.207329, 42.000709], [-77.747266, 42.000709], [-77.610343, 42.000709], [-77.599389, 41.540646], [-77.599389, 41.4804], [-77.747266, 41.474923], [-77.988251, 41.474923], [-78.201852, 41.617324], [-78.207329, 42.000709]]]}}, {"type": "Feature", "properties": {"name": "Juniata", "id": "42067", "FIPS": "42067", "FIPS State": 42, "ST": "PA", "County": "Juniata County,PA", "State": "Pennsylvania"}, "geometry": {"type": "Polygon", "coordinates": [[[-77.133849, 40.686244], [-76.936679, 40.636951], [-76.947633, 40.625997], [-77.670589, 40.291904], [-77.703451, 40.264519], [-77.752743, 40.379535], [-77.287203, 40.691721], [-77.133849, 40.686244]]]}}, {"type": "Feature", "properties": {"name": "Mathews", "id": "51115", "FIPS": "51115", "FIPS State": 51, "ST": "VA", "County": "Mathews County,VA", "State": "Virginia"}, "geometry": {"type": "Polygon", "coordinates": [[[-76.356123, 37.526049], [-76.356123, 37.526049], [-76.405416, 37.400079], [-76.438277, 37.515095], [-76.356123, 37.526049]]]}}, {"type": "Feature", "properties": {"name": "Lunenburg", "id": "51111", "FIPS": "51111", "FIPS State": 51, "ST": "VA", "County": "Lunenburg County,VA", "State": "Virginia"}, "geometry": {"type": "Polygon", "coordinates": [[[-78.399022, 37.087894], [-78.240191, 37.120755], [-78.004682, 37.022171], [-78.02659, 36.775708], [-78.475699, 36.885247], [-78.49213, 36.890724], [-78.442837, 37.07694], [-78.399022, 37.087894]]]}}, {"type": "Feature", "properties": {"name": "Nemaha", "id": "20131", "FIPS": "20131", "FIPS State": 20, "ST": "KS", "County": "Nemaha County,KS", "State": "Kansas"}, "geometry": {"type": "Polygon", "coordinates": [[[-96.237417, 40.001626], [-96.012862, 40.001626], [-95.788308, 40.001626], [-95.788308, 39.651102], [-96.03477, 39.563471], [-96.237417, 39.568948], [-96.237417, 40.001626], [-96.237417, 40.001626]]]}}, {"type": "Feature", "properties": {"name": "Thayer", "id": "31169", "FIPS": "31169", "FIPS State": 31, "ST": "NE", "County": "Thayer County,NE", "State": "Nebraska"}, "geometry": {"type": "Polygon", "coordinates": [[[-97.50259, 40.35215], [-97.365666, 40.35215], [-97.371143, 40.001626], [-97.820252, 40.001626], [-97.820252, 40.35215], [-97.50259, 40.35215]]]}}, {"type": "Feature", "properties": {"name": "Cass", "id": "31025", "FIPS": "31025", "FIPS State": 31, "ST": "NE", "County": "Cass County,NE", "State": "Nebraska"}, "geometry": {"type": "Polygon", "coordinates": [[[-96.040247, 41.064153], [-95.881416, 41.053199], [-95.815692, 40.899844], [-95.832123, 40.784829], [-95.892369, 40.784829], [-96.461971, 40.784829], [-96.461971, 41.01486], [-96.319571, 41.047722], [-96.040247, 41.064153]]]}}, {"type": "Feature", "properties": {"name": "Madison", "id": "51113", "FIPS": "51113", "FIPS State": 51, "ST": "VA", "County": "Madison County,VA", "State": "Virginia"}, "geometry": {"type": "Polygon", "coordinates": [[[-78.448314, 38.500944], [-78.338776, 38.626914], [-78.229237, 38.533806], [-78.092313, 38.309252], [-78.289483, 38.270913], [-78.453791, 38.47356], [-78.448314, 38.500944]]]}}, {"type": "Feature", "properties": {"name": "Sumter", "id": "01119", "FIPS": "01119", "FIPS State": 1, "ST": "AL", "County": "Sumter County,AL", "State": "Alabama"}, "geometry": {"type": "Polygon", "coordinates": [[[-88.339669, 32.991142], [-88.169884, 32.996619], [-87.852221, 32.531079], [-87.928898, 32.312002], [-87.994621, 32.312002], [-88.421823, 32.306525], [-88.388961, 32.580372], [-88.345146, 32.930896], [-88.339669, 32.991142]]]}}, {"type": "Feature", "properties": {"name": "Craig", "id": "51045", "FIPS": "51045", "FIPS State": 51, "ST": "VA", "County": "Craig County,VA", "State": "Virginia"}, "geometry": {"type": "Polygon", "coordinates": [[[-80.020196, 37.646542], [-80.074966, 37.421987], [-80.173551, 37.378172], [-80.261182, 37.339833], [-80.430967, 37.312448], [-80.474782, 37.421987], [-80.222843, 37.630111], [-80.020196, 37.646542]]]}}, {"type": "Feature", "properties": {"name": "Caroline", "id": "51033", "FIPS": "51033", "FIPS State": 51, "ST": "VA", "County": "Caroline County,VA", "State": "Virginia"}, "geometry": {"type": "Polygon", "coordinates": [[[-77.325542, 38.243528], [-77.117418, 38.15042], [-77.068125, 37.964204], [-77.073602, 37.964204], [-77.183141, 37.893004], [-77.347449, 37.788942], [-77.643204, 37.991589], [-77.369357, 38.249005], [-77.325542, 38.243528]]]}}, {"type": "Feature", "properties": {"name": "Mason", "id": "48319", "FIPS": "48319", "FIPS State": 48, "ST": "TX", "County": "Mason County,TX", "State": "Texas"}, "geometry": {"type": "Polygon", "coordinates": [[[-99.485242, 30.942767], [-99.090903, 30.942767], [-98.964933, 30.920859], [-98.964933, 30.499135], [-99.304503, 30.499135], [-99.485242, 30.712735], [-99.485242, 30.942767]]]}}, {"type": "Feature", "properties": {"name": "Coryell", "id": "48099", "FIPS": "48099", "FIPS State": 48, "ST": "TX", "County": "Coryell County,TX", "State": "Texas"}, "geometry": {"type": "Polygon", "coordinates": [[[-97.688806, 31.709538], [-97.606652, 31.589046], [-97.420436, 31.320676], [-97.907884, 31.068736], [-98.181731, 31.463076], [-97.765483, 31.6712], [-97.688806, 31.709538]]]}}, {"type": "Feature", "properties": {"name": "Emmons", "id": "38029", "FIPS": "38029", "FIPS State": 38, "ST": "ND", "County": "Emmons County,ND", "State": "North Dakota"}, "geometry": {"type": "Polygon", "coordinates": [[[-100.586107, 46.634201], [-100.082229, 46.634201], [-99.917921, 46.634201], [-99.879582, 46.283677], [-99.879582, 45.944106], [-100.432753, 45.944106], [-100.498476, 45.944106], [-100.50943, 45.944106], [-100.591584, 46.426077], [-100.662785, 46.634201], [-100.586107, 46.634201]]]}}, {"type": "Feature", "properties": {"name": "Stone", "id": "28131", "FIPS": "28131", "FIPS State": 28, "ST": "MS", "County": "Stone County,MS", "State": "Mississippi"}, "geometry": {"type": "Polygon", "coordinates": [[[-88.996902, 30.909905], [-88.887363, 30.909905], [-88.881886, 30.734643], [-88.881886, 30.679874], [-89.341949, 30.647012], [-89.341949, 30.909905], [-89.139302, 30.909905], [-88.996902, 30.909905]]]}}, {"type": "Feature", "properties": {"name": "Valencia", "id": "35061", "FIPS": "35061", "FIPS State": 35, "ST": "NM", "County": "Valencia County,NM", "State": "New Mexico"}, "geometry": {"type": "Polygon", "coordinates": [[[-107.196774, 34.957364], [-107.065328, 34.957364], [-106.413572, 34.869733], [-106.419049, 34.442532], [-107.202251, 34.579455], [-107.196774, 34.957364]]]}}, {"type": "Feature", "properties": {"name": "Ford", "id": "17053", "FIPS": "17053", "FIPS State": 17, "ST": "IL", "County": "Ford County,IL", "State": "Illinois"}, "geometry": {"type": "Polygon", "coordinates": [[[-88.131545, 40.998429], [-87.934375, 40.483597], [-87.934375, 40.401443], [-88.109637, 40.401443], [-88.460161, 40.401443], [-88.460161, 40.615043], [-88.246561, 40.992952], [-88.131545, 40.998429], [-88.131545, 40.998429]]]}}, {"type": "Feature", "properties": {"name": "Glascock", "id": "13125", "FIPS": "13125", "FIPS State": 13, "ST": "GA", "County": "Glascock County,GA", "State": "Georgia"}, "geometry": {"type": "Polygon", "coordinates": [[[-82.687466, 33.270466], [-82.43005, 33.275943], [-82.660082, 33.128066], [-82.747713, 33.237605], [-82.75319, 33.254036], [-82.687466, 33.270466]]]}}, {"type": "Feature", "properties": {"name": "Highland", "id": "51091", "FIPS": "51091", "FIPS State": 51, "ST": "VA", "County": "Highland County,VA", "State": "Virginia"}, "geometry": {"type": "Polygon", "coordinates": [[[-79.647764, 38.594052], [-79.313671, 38.413313], [-79.510841, 38.177805], [-79.795642, 38.265436], [-79.647764, 38.594052]]]}}, {"type": "Feature", "properties": {"name": "Vinton", "id": "39163", "FIPS": "39163", "FIPS State": 39, "ST": "OH", "County": "Vinton County,OH", "State": "Ohio"}, "geometry": {"type": "Polygon", "coordinates": [[[-82.747713, 39.366301], [-82.28765, 39.382732], [-82.271219, 39.201993], [-82.28765, 39.201993], [-82.320511, 39.026731], [-82.435527, 39.037685], [-82.671035, 39.201993], [-82.764143, 39.20747], [-82.747713, 39.366301]]]}}]}