{"type": "FeatureCollection", "crs": {"type": "name", "properties": {"name": "urn:ogc:def:crs:OGC:1.3:CRS84"}}, "features": [{"type": "Feature", "properties": {"name": "Madison", "id": "28089", "FIPS": "28089", "FIPS State": 28, "ST": "MS", "County": "Madison County,MS", "State": "Mississippi"}, "geometry": {"type": "Polygon", "coordinates": [[[-89.96632, 32.881604], [-89.730812, 32.887081], [-89.730812, 32.635141], [-89.785581, 32.585849], [-90.03752, 32.448925], [-90.064905, 32.399633], [-90.448291, 32.574895], [-89.96632, 32.881604]]]}}, {"type": "Feature", "properties": {"name": "Monroe", "id": "26115", "FIPS": "26115", "FIPS State": 26, "ST": "MI", "County": "Monroe County,MI", "State": "Michigan"}, "geometry": {"type": "Polygon", "coordinates": [[[-83.421376, 42.093817], [-83.185868, 42.033571], [-83.454238, 41.732339], [-83.760947, 41.721385], [-83.7719, 42.082863], [-83.541869, 42.082863], [-83.421376, 42.093817]]]}}, {"type": "Feature", "properties": {"name": "Hunterdon", "id": "34019", "FIPS": "34019", "FIPS State": 34, "ST": "NJ", "County": "Hunterdon County,NJ", "State": "New Jersey"}, "geometry": {"type": "Polygon", "coordinates": [[[-74.888303, 40.790306], [-74.723995, 40.719105], [-74.745903, 40.423351], [-74.800672, 40.417874], [-74.943073, 40.341196], [-75.189535, 40.593136], [-74.888303, 40.790306]]]}}, {"type": "Feature", "properties": {"name": "Fayette", "id": "42051", "FIPS": "42051", "FIPS State": 42, "ST": "PA", "County": "Fayette County,PA", "State": "Pennsylvania"}, "geometry": {"type": "Polygon", "coordinates": [[[-79.499887, 40.13855], [-79.291763, 40.039965], [-79.390348, 39.722302], [-79.477979, 39.722302], [-79.609426, 39.722302], [-79.76278, 39.722302], [-79.916134, 39.722302], [-79.998289, 39.985195], [-79.877796, 40.127596], [-79.499887, 40.13855]]]}}, {"type": "Feature", "properties": {"name": "Charles", "id": "24017", "FIPS": "24017", "FIPS State": 24, "ST": "MD", "County": "Charles County,MD", "State": "Maryland"}, "geometry": {"type": "Polygon", "coordinates": [[[-77.046218, 38.61596], [-76.673786, 38.533806], [-76.673786, 38.500944], [-76.706647, 38.506421], [-76.832617, 38.298298], [-77.128372, 38.632391], [-77.084556, 38.709068], [-77.046218, 38.61596]]]}}, {"type": "Feature", "properties": {"name": "Clarke", "id": "13059", "FIPS": "13059", "FIPS State": 13, "ST": "GA", "County": "Clarke County,GA", "State": "Georgia"}, "geometry": {"type": "Polygon", "coordinates": [[[-83.36113, 34.042715], [-83.257068, 33.998899], [-83.273499, 33.845545], [-83.530915, 33.960561], [-83.536392, 33.966038], [-83.36113, 34.042715]]]}}, {"type": "Feature", "properties": {"name": "Sullivan", "id": "47163", "FIPS": "47163", "FIPS State": 47, "ST": "TN", "County": "Sullivan County,TN", "State": "Tennessee"}, "geometry": {"type": "Polygon", "coordinates": [[[-81.827587, 36.616877], [-81.986418, 36.507338], [-82.298603, 36.397799], [-82.473866, 36.441615], [-82.681989, 36.430661], [-82.610789, 36.594969], [-82.293127, 36.594969], [-82.243834, 36.594969], [-82.145249, 36.594969], [-81.827587, 36.616877]]]}}, {"type": "Feature", "properties": {"name": "Saginaw", "id": "26145", "FIPS": "26145", "FIPS State": 26, "ST": "MI", "County": "Saginaw County,MI", "State": "Michigan"}, "geometry": {"type": "Polygon", "coordinates": [[[-84.138855, 43.567114], [-83.7007, 43.479483], [-83.695223, 43.222067], [-83.930732, 43.134436], [-83.941686, 43.134436], [-84.368887, 43.128959], [-84.368887, 43.468529], [-84.16624, 43.567114], [-84.138855, 43.567114]]]}}, {"type": "Feature", "properties": {"name": "Stafford", "id": "51179", "FIPS": "51179", "FIPS State": 51, "ST": "VA", "County": "Stafford County,VA", "State": "Virginia"}, "geometry": {"type": "Polygon", "coordinates": [[[-77.533665, 38.555714], [-77.303634, 38.506421], [-77.287203, 38.34759], [-77.325542, 38.243528], [-77.369357, 38.249005], [-77.446034, 38.281867], [-77.528188, 38.309252], [-77.621296, 38.369498], [-77.637727, 38.407836], [-77.533665, 38.555714]]]}}, {"type": "Feature", "properties": {"name": "Webb", "id": "48479", "FIPS": "48479", "FIPS State": 48, "ST": "TX", "County": "Webb County,TX", "State": "Texas"}, "geometry": {"type": "Polygon", "coordinates": [[[-100.115091, 28.19882], [-99.392134, 28.204297], [-98.800625, 28.056419], [-98.800625, 27.355371], [-98.953979, 27.26774], [-99.359273, 27.306078], [-99.452381, 27.262263], [-100.213675, 28.19882], [-100.115091, 28.19882]]]}}, {"type": "Feature", "properties": {"name": "Grafton", "id": "33009", "FIPS": "33009", "FIPS State": 33, "ST": "NH", "County": "Grafton County,NH", "State": "New Hampshire"}, "geometry": {"type": "Polygon", "coordinates": [[[-71.837647, 44.350317], [-71.766447, 44.405086], [-71.415923, 44.213393], [-71.530939, 43.764284], [-71.728109, 43.561637], [-71.81574, 43.545207], [-71.936232, 43.528776], [-72.330572, 43.599976], [-72.204602, 43.769761], [-72.040294, 44.153147], [-71.837647, 44.350317]]]}}, {"type": "Feature", "properties": {"name": "Washington", "id": "24043", "FIPS": "24043", "FIPS State": 24, "ST": "MD", "County": "Washington County,MD", "State": "Maryland"}, "geometry": {"type": "Polygon", "coordinates": [[[-78.284006, 39.722302], [-78.09779, 39.722302], [-77.467942, 39.722302], [-77.676066, 39.322485], [-77.719881, 39.322485], [-77.823943, 39.492271], [-78.021113, 39.61824], [-78.185421, 39.694917], [-78.333299, 39.634671], [-78.344253, 39.722302], [-78.284006, 39.722302]]]}}, {"type": "Feature", "properties": {"name": "Hendricks", "id": "18063", "FIPS": "18063", "FIPS State": 18, "ST": "IN", "County": "Hendricks County,IN", "State": "Indiana"}, "geometry": {"type": "Polygon", "coordinates": [[[-86.433693, 39.924949], [-86.324155, 39.924949], [-86.324155, 39.629194], [-86.658248, 39.601809], [-86.696587, 39.864703], [-86.696587, 39.924949], [-86.433693, 39.924949]]]}}, {"type": "Feature", "properties": {"name": "Sangamon", "id": "17167", "FIPS": "17167", "FIPS State": 17, "ST": "IL", "County": "Sangamon County,IL", "State": "Illinois"}, "geometry": {"type": "Polygon", "coordinates": [[[-89.489826, 39.974241], [-89.215979, 39.919472], [-89.215979, 39.81541], [-89.254318, 39.820887], [-89.533642, 39.525132], [-89.588411, 39.525132], [-89.703427, 39.525132], [-89.758196, 39.525132], [-89.927981, 39.519655], [-89.993705, 39.87018], [-89.993705, 39.903041], [-89.577457, 39.974241], [-89.489826, 39.974241]]]}}, {"type": "Feature", "properties": {"name": "Alamance", "id": "37001", "FIPS": "37001", "FIPS State": 37, "ST": "NC", "County": "Alamance County,NC", "State": "North Carolina"}, "geometry": {"type": "Polygon", "coordinates": [[[-79.532749, 36.249922], [-79.258902, 36.244445], [-79.247948, 35.87749], [-79.543702, 35.844628], [-79.543702, 35.899398], [-79.532749, 36.238968], [-79.532749, 36.249922]]]}}, {"type": "Feature", "properties": {"name": "Penobscot", "id": "23019", "FIPS": "23019", "FIPS State": 23, "ST": "ME", "County": "Penobscot County,ME", "State": "Maine"}, "geometry": {"type": "Polygon", "coordinates": [[[-68.513145, 46.382262], [-68.43099, 45.577151], [-68.047605, 45.637398], [-68.058559, 45.254012], [-68.814376, 44.68441], [-69.268962, 44.722749], [-69.356593, 45.073273], [-68.776038, 45.243058], [-68.819853, 46.393216], [-68.513145, 46.382262]]]}}, {"type": "Feature", "properties": {"name": "Blair", "id": "42013", "FIPS": "42013", "FIPS State": 42, "ST": "PA", "County": "Blair County,PA", "State": "Pennsylvania"}, "geometry": {"type": "Polygon", "coordinates": [[[-78.360683, 40.735536], [-78.114221, 40.741013], [-78.256622, 40.297381], [-78.6181, 40.324766], [-78.349729, 40.724582], [-78.360683, 40.735536]]]}}, {"type": "Feature", "properties": {"name": "Monongalia", "id": "54061", "FIPS": "54061", "FIPS State": 54, "ST": "WV", "County": "Monongalia County,WV", "State": "West Virginia"}, "geometry": {"type": "Polygon", "coordinates": [[[-79.916134, 39.722302], [-79.76278, 39.722302], [-79.894227, 39.437501], [-79.938042, 39.453932], [-80.398105, 39.634671], [-80.420013, 39.722302], [-79.916134, 39.722302]]]}}, {"type": "Feature", "properties": {"name": "Lebanon", "id": "42075", "FIPS": "42075", "FIPS State": 42, "ST": "PA", "County": "Lebanon County,PA", "State": "Pennsylvania"}, "geometry": {"type": "Polygon", "coordinates": [[[-76.536862, 40.554797], [-76.438277, 40.494551], [-76.153476, 40.313812], [-76.306831, 40.253565], [-76.564247, 40.198796], [-76.536862, 40.554797]]]}}, {"type": "Feature", "properties": {"name": "Cumberland", "id": "34011", "FIPS": "34011", "FIPS State": 34, "ST": "NJ", "County": "Cumberland County,NJ", "State": "New Jersey"}, "geometry": {"type": "Polygon", "coordinates": [[[-75.058088, 39.568948], [-74.986888, 39.514178], [-74.860918, 39.322485], [-74.915688, 39.180085], [-75.408613, 39.382732], [-75.063565, 39.568948], [-75.058088, 39.568948]]]}}, {"type": "Feature", "properties": {"name": "Washington", "id": "47179", "FIPS": "47179", "FIPS State": 47, "ST": "TN", "County": "Washington County,TN", "State": "Tennessee"}, "geometry": {"type": "Polygon", "coordinates": [[[-82.473866, 36.441615], [-82.298603, 36.397799], [-82.342419, 36.255399], [-82.594358, 36.096568], [-82.632697, 36.419707], [-82.703897, 36.408753], [-82.681989, 36.430661], [-82.473866, 36.441615]]]}}, {"type": "Feature", "properties": {"name": "Peoria", "id": "17143", "FIPS": "17143", "FIPS State": 17, "ST": "IL", "County": "Peoria County,IL", "State": "Illinois"}, "geometry": {"type": "Polygon", "coordinates": [[[-89.96632, 40.976521], [-89.637704, 40.976521], [-89.473395, 40.921752], [-89.555549, 40.74649], [-89.873212, 40.510982], [-89.988228, 40.713628], [-89.988228, 40.976521], [-89.96632, 40.976521]]]}}, {"type": "Feature", "properties": {"name": "Martin", "id": "12085", "FIPS": "12085", "FIPS State": 12, "ST": "FL", "County": "Martin County,FL", "State": "Florida"}, "geometry": {"type": "Polygon", "coordinates": [[[-80.080443, 26.971985], [-80.885553, 26.961031], [-80.677429, 27.207493], [-80.200935, 27.262263], [-80.080443, 26.971985]]]}}, {"type": "Feature", "properties": {"name": "Merrimack", "id": "33013", "FIPS": "33013", "FIPS State": 33, "ST": "NH", "County": "Merrimack County,NH", "State": "New Hampshire"}, "geometry": {"type": "Polygon", "coordinates": [[[-71.81574, 43.545207], [-71.728109, 43.561637], [-71.235184, 43.282313], [-71.246138, 43.276836], [-71.394015, 43.008466], [-71.914325, 43.205636], [-72.007433, 43.189205], [-71.936232, 43.528776], [-71.81574, 43.545207]]]}}, {"type": "Feature", "properties": {"name": "Montgomery", "id": "51121", "FIPS": "51121", "FIPS State": 51, "ST": "VA", "County": "Montgomery County,VA", "State": "Virginia"}, "geometry": {"type": "Polygon", "coordinates": [[[-80.261182, 37.339833], [-80.179028, 37.115279], [-80.545983, 36.983832], [-80.578844, 37.087894], [-80.529552, 37.131709], [-80.606229, 37.246725], [-80.430967, 37.312448], [-80.261182, 37.339833]]]}}, {"type": "Feature", "properties": {"name": "Baldwin", "id": "01003", "FIPS": "01003", "FIPS State": 1, "ST": "AL", "County": "Baldwin County,AL", "State": "Alabama"}, "geometry": {"type": "Polygon", "coordinates": [[[-87.76459, 31.298768], [-87.616713, 31.243998], [-87.600282, 30.997536], [-87.518128, 30.280057], [-88.005575, 30.685351], [-87.972714, 31.161844], [-87.945329, 31.194706], [-87.76459, 31.298768]]]}}, {"type": "Feature", "properties": {"name": "Jackson", "id": "26075", "FIPS": "26075", "FIPS State": 26, "ST": "MI", "County": "Jackson County,MI", "State": "Michigan"}, "geometry": {"type": "Polygon", "coordinates": [[[-84.598918, 42.422434], [-84.138855, 42.422434], [-84.133379, 42.422434], [-84.133379, 42.07191], [-84.36341, 42.07191], [-84.708457, 42.07191], [-84.719411, 42.422434], [-84.598918, 42.422434]]]}}, {"type": "Feature", "properties": {"name": "Smith", "id": "48423", "FIPS": "48423", "FIPS State": 48, "ST": "TX", "County": "Smith County,TX", "State": "Texas"}, "geometry": {"type": "Polygon", "coordinates": [[[-95.574707, 32.67348], [-95.152983, 32.569418], [-94.988674, 32.536556], [-94.988674, 32.366771], [-94.983197, 32.13674], [-95.459691, 32.13674], [-95.448737, 32.355817], [-95.596615, 32.684434], [-95.574707, 32.67348]]]}}, {"type": "Feature", "properties": {"name": "Greene", "id": "39057", "FIPS": "39057", "FIPS State": 39, "ST": "OH", "County": "Greene County,OH", "State": "Ohio"}, "geometry": {"type": "Polygon", "coordinates": [[[-84.029317, 39.848272], [-83.645931, 39.771595], [-83.651408, 39.716825], [-83.667839, 39.552517], [-83.974547, 39.568948], [-83.974547, 39.568948], [-84.111471, 39.579902], [-84.051224, 39.848272], [-84.029317, 39.848272]]]}}, {"type": "Feature", "properties": {"name": "Houston", "id": "13153", "FIPS": "13153", "FIPS State": 13, "ST": "GA", "County": "Houston County,GA", "State": "Georgia"}, "geometry": {"type": "Polygon", "coordinates": [[[-83.7007, 32.689911], [-83.7007, 32.689911], [-83.596638, 32.662526], [-83.498053, 32.454402], [-83.498053, 32.399633], [-83.613069, 32.290094], [-83.848578, 32.290094], [-83.848578, 32.465356], [-83.7007, 32.689911]]]}}, {"type": "Feature", "properties": {"name": "Kenosha", "id": "55059", "FIPS": "55059", "FIPS State": 55, "ST": "WI", "County": "Kenosha County,WI", "State": "Wisconsin"}, "geometry": {"type": "Polygon", "coordinates": [[[-88.027483, 42.668896], [-87.808406, 42.668896], [-87.802929, 42.493634], [-88.202745, 42.493634], [-88.219176, 42.493634], [-88.306807, 42.493634], [-88.306807, 42.60865], [-88.027483, 42.668896]]]}}, {"type": "Feature", "properties": {"name": "Tuscaloosa", "id": "01125", "FIPS": "01125", "FIPS State": 1, "ST": "AL", "County": "Tuscaloosa County,AL", "State": "Alabama"}, "geometry": {"type": "Polygon", "coordinates": [[[-87.841267, 33.522406], [-87.42502, 33.60456], [-87.266188, 33.511452], [-87.063542, 33.248559], [-87.419543, 33.002096], [-87.644097, 33.007573], [-87.715298, 33.007573], [-87.83579, 33.155451], [-87.841267, 33.522406]]]}}, {"type": "Feature", "properties": {"name": "Washington", "id": "55131", "FIPS": "55131", "FIPS State": 55, "ST": "WI", "County": "Washington County,WI", "State": "Wisconsin"}, "geometry": {"type": "Polygon", "coordinates": [[[-88.399915, 43.545207], [-88.15893, 43.545207], [-88.038437, 43.53973], [-88.065822, 43.194682], [-88.416346, 43.194682], [-88.399915, 43.545207]]]}}, {"type": "Feature", "properties": {"name": "Wood", "id": "39173", "FIPS": "39173", "FIPS State": 39, "ST": "OH", "County": "Wood County,OH", "State": "Ohio"}, "geometry": {"type": "Polygon", "coordinates": [[[-83.415899, 41.617324], [-83.415899, 41.502308], [-83.421376, 41.255845], [-83.421376, 41.168214], [-83.881439, 41.168214], [-83.881439, 41.414677], [-83.415899, 41.617324]]]}}, {"type": "Feature", "properties": {"name": "Portage", "id": "39133", "FIPS": "39133", "FIPS State": 39, "ST": "OH", "County": "Portage County,OH", "State": "Ohio"}, "geometry": {"type": "Polygon", "coordinates": [[[-81.389431, 41.348953], [-81.000569, 41.348953], [-81.000569, 41.135353], [-81.0882, 40.987475], [-81.394908, 40.987475], [-81.389431, 41.348953], [-81.389431, 41.348953]]]}}, {"type": "Feature", "properties": {"name": "York", "id": "23031", "FIPS": "23031", "FIPS State": 23, "ST": "ME", "County": "York County,ME", "State": "Maine"}, "geometry": {"type": "Polygon", "coordinates": [[[-70.780598, 43.813577], [-70.353397, 43.534253], [-70.703921, 43.057759], [-70.818936, 43.123482], [-70.961337, 43.53973], [-70.988722, 43.791669], [-70.780598, 43.813577]]]}}, {"type": "Feature", "properties": {"name": "Union", "id": "37179", "FIPS": "37179", "FIPS State": 37, "ST": "NC", "County": "Union County,NC", "State": "North Carolina"}, "geometry": {"type": "Polygon", "coordinates": [[[-80.55146, 35.209303], [-80.507644, 35.187396], [-80.277612, 35.198349], [-80.321428, 34.814964], [-80.562413, 34.814964], [-80.841737, 35.00118], [-80.55146, 35.209303]]]}}, {"type": "Feature", "properties": {"name": "Chautauqua", "id": "36013", "FIPS": "36013", "FIPS State": 36, "ST": "NY", "County": "Chautauqua County,NY", "State": "New York"}, "geometry": {"type": "Polygon", "coordinates": [[[-79.138409, 42.570311], [-79.061732, 42.537449], [-79.061732, 42.000709], [-79.609426, 42.000709], [-79.76278, 42.252649], [-79.76278, 42.269079], [-79.138409, 42.570311], [-79.138409, 42.570311]]]}}, {"type": "Feature", "properties": {"name": "Trumbull", "id": "39155", "FIPS": "39155", "FIPS State": 39, "ST": "OH", "County": "Trumbull County,OH", "State": "Ohio"}, "geometry": {"type": "Polygon", "coordinates": [[[-81.000569, 41.502308], [-80.518598, 41.502308], [-80.518598, 41.491354], [-80.518598, 41.135353], [-80.786968, 41.135353], [-81.000569, 41.135353], [-81.000569, 41.348953], [-81.000569, 41.502308]]]}}, {"type": "Feature", "properties": {"name": "Clayton", "id": "13063", "FIPS": "13063", "FIPS State": 13, "ST": "GA", "County": "Clayton County,GA", "State": "Georgia"}, "geometry": {"type": "Polygon", "coordinates": [[[-84.352456, 33.648375], [-84.281256, 33.648375], [-84.352456, 33.35262], [-84.368887, 33.35262], [-84.385318, 33.35262], [-84.451041, 33.54979], [-84.456518, 33.54979], [-84.352456, 33.648375]]]}}, {"type": "Feature", "properties": {"name": "Eau Claire", "id": "55035", "FIPS": "55035", "FIPS State": 55, "ST": "WI", "County": "Eau Claire County,WI", "State": "Wisconsin"}, "geometry": {"type": "Polygon", "coordinates": [[[-91.499863, 44.859672], [-90.924785, 44.859672], [-90.924785, 44.596779], [-91.16577, 44.596779], [-91.286263, 44.596779], [-91.527248, 44.596779], [-91.647741, 44.596779], [-91.647741, 44.68441], [-91.653218, 44.854195], [-91.499863, 44.859672]]]}}, {"type": "Feature", "properties": {"name": "Shasta", "id": "06089", "FIPS": "06089", "FIPS State": 6, "ST": "CA", "County": "Shasta County,CA", "State": "California"}, "geometry": {"type": "Polygon", "coordinates": [[[-121.447773, 41.184645], [-121.332757, 41.184645], [-121.327281, 40.445258], [-121.497066, 40.445258], [-123.063471, 40.286427], [-122.691039, 40.576705], [-122.499346, 41.184645], [-121.447773, 41.184645]]]}}, {"type": "Feature", "properties": {"name": "Harrison", "id": "28047", "FIPS": "28047", "FIPS State": 28, "ST": "MS", "County": "Harrison County,MS", "State": "Mississippi"}, "geometry": {"type": "Polygon", "coordinates": [[[-88.881886, 30.679874], [-88.843547, 30.406027], [-89.341949, 30.373165], [-89.341949, 30.647012], [-88.881886, 30.679874]]]}}, {"type": "Feature", "properties": {"name": "Forsyth", "id": "13117", "FIPS": "13117", "FIPS State": 13, "ST": "GA", "County": "Forsyth County,GA", "State": "Georgia"}, "geometry": {"type": "Polygon", "coordinates": [[[-84.259348, 34.332993], [-83.958116, 34.332993], [-84.062178, 34.168685], [-84.09504, 34.048192], [-84.259348, 34.185115], [-84.259348, 34.332993]]]}}, {"type": "Feature", "properties": {"name": "Indian River", "id": "12061", "FIPS": "12061", "FIPS State": 12, "ST": "FL", "County": "Indian River County,FL", "State": "Florida"}, "geometry": {"type": "Polygon", "coordinates": [[[-80.321428, 27.558018], [-80.677429, 27.558018], [-80.792445, 27.645649], [-80.874599, 27.640172], [-80.869122, 27.820911], [-80.447398, 27.859249], [-80.321428, 27.558018]]]}}, {"type": "Feature", "properties": {"name": "Racine", "id": "55101", "FIPS": "55101", "FIPS State": 55, "ST": "WI", "County": "Racine County,WI", "State": "Wisconsin"}, "geometry": {"type": "Polygon", "coordinates": [[[-87.956283, 42.844158], [-87.824836, 42.844158], [-87.808406, 42.668896], [-88.027483, 42.668896], [-88.306807, 42.60865], [-88.306807, 42.844158], [-88.071299, 42.844158], [-87.956283, 42.844158]]]}}, {"type": "Feature", "properties": {"name": "Kalamazoo", "id": "26077", "FIPS": "26077", "FIPS State": 26, "ST": "MI", "County": "Kalamazoo County,MI", "State": "Michigan"}, "geometry": {"type": "Polygon", "coordinates": [[[-85.540952, 42.422434], [-85.299967, 42.416957], [-85.29449, 42.07191], [-85.299967, 42.07191], [-85.765507, 42.07191], [-85.765507, 42.422434], [-85.540952, 42.422434]]]}}, {"type": "Feature", "properties": {"name": "Vanderburgh", "id": "18163", "FIPS": "18163", "FIPS State": 18, "ST": "IN", "County": "Vanderburgh County,IN", "State": "Indiana"}, "geometry": {"type": "Polygon", "coordinates": [[[-87.687913, 38.166851], [-87.468835, 38.166851], [-87.452404, 37.942297], [-87.698867, 37.898481], [-87.687913, 38.166851]]]}}, {"type": "Feature", "properties": {"name": "Jackson", "id": "41029", "FIPS": "41029", "FIPS State": 41, "ST": "OR", "County": "Jackson County,OR", "State": "Oregon"}, "geometry": {"type": "Polygon", "coordinates": [[[-122.280268, 42.992036], [-122.291222, 42.006186], [-123.233256, 42.006186], [-123.227779, 42.701758], [-122.280268, 42.997512], [-122.280268, 42.992036]]]}}, {"type": "Feature", "properties": {"name": "Scott", "id": "19163", "FIPS": "19163", "FIPS State": 19, "ST": "IA", "County": "Scott County,IA", "State": "Iowa"}, "geometry": {"type": "Polygon", "coordinates": [[[-90.798815, 41.770678], [-90.316844, 41.726862], [-90.787861, 41.453015], [-90.8974, 41.595416], [-90.8974, 41.770678], [-90.798815, 41.770678]]]}}, {"type": "Feature", "properties": {"name": "Strafford", "id": "33017", "FIPS": "33017", "FIPS State": 33, "ST": "NH", "County": "Strafford County,NH", "State": "New Hampshire"}, "geometry": {"type": "Polygon", "coordinates": [[[-71.109214, 43.506868], [-70.961337, 43.53973], [-70.818936, 43.123482], [-71.246138, 43.276836], [-71.235184, 43.282313], [-71.163984, 43.53973], [-71.109214, 43.506868]]]}}, {"type": "Feature", "properties": {"name": "Clermont", "id": "39025", "FIPS": "39025", "FIPS State": 39, "ST": "OH", "County": "Clermont County,OH", "State": "Ohio"}, "geometry": {"type": "Polygon", "coordinates": [[[-84.259348, 39.273193], [-84.007409, 39.256762], [-83.990978, 39.256762], [-84.051224, 38.769315], [-84.231963, 38.829561], [-84.231963, 38.873376], [-84.319594, 39.021254], [-84.259348, 39.273193]]]}}, {"type": "Feature", "properties": {"name": "Shawnee", "id": "20177", "FIPS": "20177", "FIPS State": 20, "ST": "KS", "County": "Shawnee County,KS", "State": "Kansas"}, "geometry": {"type": "Polygon", "coordinates": [[[-95.886893, 39.218424], [-95.591138, 39.218424], [-95.49803, 39.054115], [-95.49803, 38.867899], [-95.667815, 38.867899], [-95.947139, 38.867899], [-96.040247, 39.125316], [-96.03477, 39.218424], [-95.886893, 39.218424]]]}}, {"type": "Feature", "properties": {"name": "Wood", "id": "55141", "FIPS": "55141", "FIPS State": 55, "ST": "WI", "County": "Wood County,WI", "State": "Wisconsin"}, "geometry": {"type": "Polygon", "coordinates": [[[-90.207305, 44.68441], [-89.845827, 44.68441], [-89.725335, 44.246255], [-89.818443, 44.251732], [-89.900597, 44.251732], [-90.081336, 44.246255], [-90.311367, 44.246255], [-90.316844, 44.426994], [-90.316844, 44.68441], [-90.207305, 44.68441]]]}}, {"type": "Feature", "properties": {"name": "Wyandotte", "id": "20209", "FIPS": "20209", "FIPS State": 20, "ST": "KS", "County": "Wyandotte County,KS", "State": "Kansas"}, "geometry": {"type": "Polygon", "coordinates": [[[-94.862705, 39.201993], [-94.775074, 39.201993], [-94.599812, 39.158177], [-94.605288, 39.114362], [-94.605288, 39.043162], [-94.90652, 38.988392], [-94.862705, 39.201993]]]}}, {"type": "Feature", "properties": {"name": "El Dorado", "id": "06017", "FIPS": "06017", "FIPS State": 6, "ST": "CA", "County": "El Dorado County,CA", "State": "California"}, "geometry": {"type": "Polygon", "coordinates": [[[-120.001861, 39.065069], [-119.903276, 38.933623], [-120.073061, 38.703591], [-121.026049, 38.506421], [-121.141065, 38.714545], [-121.04248, 38.917192], [-120.001861, 39.065069]]]}}, {"type": "Feature", "properties": {"name": "Black Hawk", "id": "19013", "FIPS": "19013", "FIPS State": 19, "ST": "IA", "County": "Black Hawk County,IA", "State": "Iowa"}, "geometry": {"type": "Polygon", "coordinates": [[[-92.469282, 42.641511], [-92.080419, 42.641511], [-92.063988, 42.296464], [-92.299497, 42.296464], [-92.535005, 42.296464], [-92.551436, 42.55388], [-92.556913, 42.641511], [-92.469282, 42.641511]]]}}, {"type": "Feature", "properties": {"name": "La Crosse", "id": "55063", "FIPS": "55063", "FIPS State": 55, "ST": "WI", "County": "La Crosse County,WI", "State": "Wisconsin"}, "geometry": {"type": "Polygon", "coordinates": [[[-91.176724, 44.087424], [-91.149339, 44.081947], [-90.974077, 44.070993], [-90.908354, 43.725946], [-91.258878, 43.725946], [-91.286263, 43.846438], [-91.423186, 43.983362], [-91.176724, 44.087424]]]}}, {"type": "Feature", "properties": {"name": "Stearns", "id": "27145", "FIPS": "27145", "FIPS State": 27, "ST": "MN", "County": "Stearns County,MN", "State": "Minnesota"}, "geometry": {"type": "Polygon", "coordinates": [[[-94.451934, 45.774321], [-94.271195, 45.774321], [-94.150702, 45.560721], [-94.046641, 45.423797], [-94.052118, 45.423797], [-94.260241, 45.281397], [-94.534088, 45.325212], [-94.76412, 45.325212], [-94.884612, 45.412843], [-95.131075, 45.412843], [-95.142029, 45.75789], [-95.142029, 45.774321], [-94.643627, 45.774321], [-94.451934, 45.774321]]]}}, {"type": "Feature", "properties": {"name": "Shelby", "id": "01117", "FIPS": "01117", "FIPS State": 1, "ST": "AL", "County": "Shelby County,AL", "State": "Alabama"}, "geometry": {"type": "Polygon", "coordinates": [[[-86.515848, 33.544313], [-86.378924, 33.390959], [-86.488463, 33.100681], [-86.515848, 33.018527], [-86.882803, 33.051389], [-87.025203, 33.248559], [-86.515848, 33.544313]]]}}, {"type": "Feature", "properties": {"name": "Livingston", "id": "26093", "FIPS": "26093", "FIPS State": 26, "ST": "MI", "County": "Livingston County,MI", "State": "Michigan"}, "geometry": {"type": "Polygon", "coordinates": [[[-83.684269, 42.783912], [-83.662362, 42.433388], [-84.133379, 42.422434], [-84.138855, 42.422434], [-84.160763, 42.778435], [-83.925255, 42.778435], [-83.684269, 42.783912]]]}}, {"type": "Feature", "properties": {"name": "Muscogee", "id": "13215", "FIPS": "13215", "FIPS State": 13, "ST": "GA", "County": "Muscogee County,GA", "State": "Georgia"}, "geometry": {"type": "Polygon", "coordinates": [[[-85.02612, 32.607757], [-84.692026, 32.585849], [-84.692026, 32.520126], [-84.982304, 32.372248], [-84.998735, 32.509172], [-85.080889, 32.607757], [-85.02612, 32.607757]]]}}, {"type": "Feature", "properties": {"name": "Licking", "id": "39089", "FIPS": "39089", "FIPS State": 39, "ST": "OH", "County": "Licking County,OH", "State": "Ohio"}, "geometry": {"type": "Polygon", "coordinates": [[[-82.75319, 40.275473], [-82.194542, 40.237135], [-82.189065, 40.165934], [-82.23288, 39.913995], [-82.462912, 39.930426], [-82.780574, 39.94138], [-82.764143, 40.127596], [-82.75319, 40.275473]]]}}, {"type": "Feature", "properties": {"name": "Merced", "id": "06047", "FIPS": "06047", "FIPS State": 6, "ST": "CA", "County": "Merced County,CA", "State": "California"}, "geometry": {"type": "Polygon", "coordinates": [[[-120.385247, 37.635588], [-120.051153, 37.181002], [-120.544078, 37.044078], [-120.91651, 36.742847], [-121.217742, 36.961924], [-121.228696, 37.137186], [-120.385247, 37.635588]]]}}, {"type": "Feature", "properties": {"name": "Iredell", "id": "37097", "FIPS": "37097", "FIPS State": 37, "ST": "NC", "County": "Iredell County,NC", "State": "North Carolina"}, "geometry": {"type": "Polygon", "coordinates": [[[-80.880076, 36.058229], [-80.69386, 36.052752], [-80.710291, 35.850105], [-80.737675, 35.505058], [-80.781491, 35.505058], [-80.907461, 35.516012], [-80.945799, 35.488627], [-80.96223, 35.548874], [-81.110107, 35.778905], [-81.027953, 36.047275], [-80.880076, 36.058229]]]}}, {"type": "Feature", "properties": {"name": "Weber", "id": "49057", "FIPS": "49057", "FIPS State": 49, "ST": "UT", "County": "Weber County,UT", "State": "Utah"}, "geometry": {"type": "Polygon", "coordinates": [[[-111.655004, 41.4092], [-111.512603, 41.425631], [-111.419495, 41.359907], [-111.857651, 41.14083], [-112.011005, 41.151784], [-112.492976, 41.075106], [-111.885035, 41.425631], [-111.655004, 41.4092]]]}}, {"type": "Feature", "properties": {"name": "Midland", "id": "48329", "FIPS": "48329", "FIPS State": 48, "ST": "TX", "County": "Midland County,TX", "State": "Texas"}, "geometry": {"type": "Polygon", "coordinates": [[[-101.933435, 32.087447], [-101.774603, 32.087447], [-101.774603, 31.649292], [-102.223713, 31.649292], [-102.289436, 31.649292], [-102.289436, 32.087447], [-102.212759, 32.087447], [-101.933435, 32.087447]]]}}, {"type": "Feature", "properties": {"name": "Delaware", "id": "39041", "FIPS": "39041", "FIPS State": 39, "ST": "OH", "County": "Delaware County,OH", "State": "Ohio"}, "geometry": {"type": "Polygon", "coordinates": [[[-83.246114, 40.445258], [-83.02156, 40.434304], [-82.742236, 40.346673], [-82.75319, 40.275473], [-82.764143, 40.127596], [-83.03799, 40.13855], [-83.169437, 40.144027], [-83.246114, 40.445258]]]}}, {"type": "Feature", "properties": {"name": "York", "id": "45091", "FIPS": "45091", "FIPS State": 45, "ST": "SC", "County": "York County,SC", "State": "South Carolina"}, "geometry": {"type": "Polygon", "coordinates": [[[-81.367524, 35.165488], [-81.329185, 35.165488], [-81.044384, 35.149057], [-80.907461, 35.077857], [-80.907461, 35.077857], [-80.896507, 34.820441], [-81.28537, 34.820441], [-81.477062, 34.820441], [-81.455155, 34.836871], [-81.367524, 35.165488]]]}}, {"type": "Feature", "properties": {"name": "Niagara", "id": "36063", "FIPS": "36063", "FIPS State": 36, "ST": "NY", "County": "Niagara County,NY", "State": "New York"}, "geometry": {"type": "Polygon", "coordinates": [[[-78.464745, 43.369944], [-78.464745, 43.128959], [-78.464745, 43.09062], [-78.552376, 43.096097], [-79.023393, 43.068713], [-78.464745, 43.369944]]]}}, {"type": "Feature", "properties": {"name": "Porter", "id": "18127", "FIPS": "18127", "FIPS State": 18, "ST": "IN", "County": "Porter County,IN", "State": "Indiana"}, "geometry": {"type": "Polygon", "coordinates": [[[-86.932095, 41.710431], [-86.932095, 41.239415], [-87.036157, 41.255845], [-87.216896, 41.239415], [-87.222373, 41.6228], [-86.932095, 41.710431]]]}}, {"type": "Feature", "properties": {"name": "Bay", "id": "12005", "FIPS": "12005", "FIPS State": 12, "ST": "FL", "County": "Bay County,FL", "State": "Florida"}, "geometry": {"type": "Polygon", "coordinates": [[[-85.382121, 30.564858], [-85.387598, 30.20338], [-85.387598, 29.924056], [-85.995538, 30.269103], [-85.990061, 30.389596], [-85.43689, 30.570335], [-85.382121, 30.564858]]]}}, {"type": "Feature", "properties": {"name": "Orange", "id": "37135", "FIPS": "37135", "FIPS State": 37, "ST": "NC", "County": "Orange County,NC", "State": "North Carolina"}, "geometry": {"type": "Polygon", "coordinates": [[[-79.247948, 36.244445], [-79.15484, 36.244445], [-78.952193, 36.238968], [-79.017916, 35.861059], [-79.187701, 35.872013], [-79.247948, 35.87749], [-79.258902, 36.244445], [-79.247948, 36.244445]]]}}, {"type": "Feature", "properties": {"name": "Lubbock", "id": "48303", "FIPS": "48303", "FIPS State": 48, "ST": "TX", "County": "Lubbock County,TX", "State": "Texas"}, "geometry": {"type": "Polygon", "coordinates": [[[-101.571957, 33.829114], [-101.561003, 33.829114], [-101.555526, 33.396436], [-102.075835, 33.390959], [-102.086789, 33.823637], [-101.571957, 33.829114]]]}}, {"type": "Feature", "properties": {"name": "Sussex", "id": "34037", "FIPS": "34037", "FIPS State": 34, "ST": "NJ", "County": "Sussex County,NJ", "State": "New Jersey"}, "geometry": {"type": "Polygon", "coordinates": [[[-74.367994, 41.201076], [-74.504917, 41.08606], [-74.76781, 40.910798], [-74.96498, 41.091537], [-74.96498, 41.097014], [-74.992365, 41.091537], [-74.69661, 41.359907], [-74.367994, 41.201076]]]}}, {"type": "Feature", "properties": {"name": "Cambria", "id": "42021", "FIPS": "42021", "FIPS State": 42, "ST": "PA", "County": "Cambria County,PA", "State": "Pennsylvania"}, "geometry": {"type": "Polygon", "coordinates": [[[-78.804316, 40.724582], [-78.349729, 40.724582], [-78.6181, 40.324766], [-78.656438, 40.242611], [-79.001485, 40.286427], [-79.056255, 40.286427], [-78.974101, 40.395966], [-78.804316, 40.724582]]]}}, {"type": "Feature", "properties": {"name": "Monroe", "id": "42089", "FIPS": "42089", "FIPS State": 42, "ST": "PA", "County": "Monroe County,PA", "State": "Pennsylvania"}, "geometry": {"type": "Polygon", "coordinates": [[[-75.271689, 41.244892], [-74.992365, 41.091537], [-74.96498, 41.097014], [-75.118335, 40.965568], [-75.474336, 40.812213], [-75.649598, 41.124399], [-75.600305, 41.162737], [-75.507197, 41.233938], [-75.35932, 41.239415], [-75.271689, 41.244892]]]}}, {"type": "Feature", "properties": {"name": "Boone", "id": "29019", "FIPS": "29019", "FIPS State": 29, "ST": "MO", "County": "Boone County,MO", "State": "Missouri"}, "geometry": {"type": "Polygon", "coordinates": [[[-92.430943, 39.251285], [-92.315927, 39.245808], [-92.107804, 39.065069], [-92.222819, 38.643345], [-92.392605, 38.736453], [-92.463805, 38.862422], [-92.496666, 38.922669], [-92.556913, 38.971961], [-92.430943, 39.251285]]]}}, {"type": "Feature", "properties": {"name": "Washington", "id": "05143", "FIPS": "05143", "FIPS State": 5, "ST": "AR", "County": "Washington County,AR", "State": "Arkansas"}, "geometry": {"type": "Polygon", "coordinates": [[[-94.013779, 36.206106], [-93.887809, 36.233491], [-93.964486, 35.762474], [-94.490273, 35.756997], [-94.550519, 36.102045], [-94.013779, 36.206106]]]}}, {"type": "Feature", "properties": {"name": "Rensselaer", "id": "36083", "FIPS": "36083", "FIPS State": 36, "ST": "NY", "County": "Rensselaer County,NY", "State": "New York"}, "geometry": {"type": "Polygon", "coordinates": [[[-73.387622, 42.94822], [-73.272606, 42.942743], [-73.267129, 42.745573], [-73.35476, 42.510065], [-73.398575, 42.504588], [-73.781961, 42.466249], [-73.677899, 42.783912], [-73.634084, 42.942743], [-73.387622, 42.94822]]]}}, {"type": "Feature", "properties": {"name": "Carroll", "id": "24013", "FIPS": "24013", "FIPS State": 24, "ST": "MD", "County": "Carroll County,MD", "State": "Maryland"}, "geometry": {"type": "Polygon", "coordinates": [[[-76.788801, 39.722302], [-76.881909, 39.34987], [-77.079079, 39.366301], [-77.16671, 39.355347], [-77.216003, 39.722302], [-76.996925, 39.722302], [-76.788801, 39.722302]]]}}, {"type": "Feature", "properties": {"name": "Henry", "id": "13151", "FIPS": "13151", "FIPS State": 13, "ST": "GA", "County": "Henry County,GA", "State": "Georgia"}, "geometry": {"type": "Polygon", "coordinates": [[[-84.226487, 33.637421], [-84.182671, 33.648375], [-84.045747, 33.527883], [-83.925255, 33.451205], [-84.100517, 33.297851], [-84.352456, 33.35262], [-84.281256, 33.648375], [-84.226487, 33.637421]]]}}, {"type": "Feature", "properties": {"name": "Spartanburg", "id": "45083", "FIPS": "45083", "FIPS State": 45, "ST": "SC", "County": "Spartanburg County,SC", "State": "South Carolina"}, "geometry": {"type": "Polygon", "coordinates": [[[-82.216449, 35.198349], [-81.969987, 35.187396], [-81.876879, 35.181919], [-81.712571, 34.913548], [-81.712571, 34.913548], [-81.854971, 34.595886], [-82.145249, 34.787579], [-82.216449, 35.198349]]]}}, {"type": "Feature", "properties": {"name": "Jefferson", "id": "48245", "FIPS": "48245", "FIPS State": 48, "ST": "TX", "County": "Jefferson County,TX", "State": "Texas"}, "geometry": {"type": "Polygon", "coordinates": [[[-94.216426, 30.175995], [-94.117841, 30.159564], [-93.854948, 29.863809], [-93.838517, 29.688547], [-94.353349, 29.562578], [-94.44098, 29.891194], [-94.446457, 30.110272], [-94.216426, 30.175995]]]}}, {"type": "Feature", "properties": {"name": "Butler", "id": "42019", "FIPS": "42019", "FIPS State": 42, "ST": "PA", "County": "Butler County,PA", "State": "Pennsylvania"}, "geometry": {"type": "Polygon", "coordinates": [[[-79.998289, 41.173691], [-79.697057, 41.173691], [-79.69158, 41.168214], [-79.69158, 40.669813], [-80.146166, 40.67529], [-80.15712, 40.856029], [-80.096873, 41.069629], [-79.998289, 41.173691]]]}}, {"type": "Feature", "properties": {"name": "Montgomery", "id": "47125", "FIPS": "47125", "FIPS State": 47, "ST": "TN", "County": "Montgomery County,TN", "State": "Tennessee"}, "geometry": {"type": "Polygon", "coordinates": [[[-87.112834, 36.644262], [-87.118311, 36.458046], [-87.288096, 36.321122], [-87.512651, 36.332076], [-87.594805, 36.364938], [-87.63862, 36.638785], [-87.337389, 36.644262], [-87.112834, 36.644262]]]}}, {"type": "Feature", "properties": {"name": "Lafayette", "id": "22055", "FIPS": "22055", "FIPS State": 22, "ST": "LA", "County": "Lafayette County,LA", "State": "Louisiana"}, "geometry": {"type": "Polygon", "coordinates": [[[-92.053034, 30.378642], [-91.987311, 30.367688], [-91.948972, 30.071933], [-91.965403, 30.033595], [-92.250204, 30.143133], [-92.283066, 30.14861], [-92.140665, 30.296488], [-92.053034, 30.378642]]]}}, {"type": "Feature", "properties": {"name": "Cass", "id": "38017", "FIPS": "38017", "FIPS State": 38, "ST": "ND", "County": "Cass County,ND", "State": "North Dakota"}, "geometry": {"type": "Polygon", "coordinates": [[[-97.453297, 47.236664], [-96.834403, 47.236664], [-96.828926, 47.149033], [-96.790588, 46.628724], [-97.278035, 46.628724], [-97.683329, 46.628724], [-97.705237, 47.242141], [-97.453297, 47.236664]]]}}, {"type": "Feature", "properties": {"name": "Rock", "id": "55105", "FIPS": "55105", "FIPS State": 55, "ST": "WI", "County": "Rock County,WI", "State": "Wisconsin"}, "geometry": {"type": "Polygon", "coordinates": [[[-89.051671, 42.849635], [-89.013332, 42.849635], [-88.777824, 42.844158], [-88.777824, 42.493634], [-88.942132, 42.493634], [-89.363857, 42.499111], [-89.369334, 42.844158], [-89.051671, 42.849635]]]}}, {"type": "Feature", "properties": {"name": "Monroe", "id": "18105", "FIPS": "18105", "FIPS State": 18, "ST": "IN", "County": "Monroe County,IN", "State": "Indiana"}, "geometry": {"type": "Polygon", "coordinates": [[[-86.630863, 39.34987], [-86.378924, 39.338916], [-86.318678, 39.048638], [-86.318678, 38.988392], [-86.680156, 38.993869], [-86.685633, 39.163654], [-86.630863, 39.34987]]]}}, {"type": "Feature", "properties": {"name": "Warren", "id": "34041", "FIPS": "34041", "FIPS State": 34, "ST": "NJ", "County": "Warren County,NJ", "State": "New Jersey"}, "geometry": {"type": "Polygon", "coordinates": [[[-74.96498, 41.091537], [-74.76781, 40.910798], [-74.888303, 40.790306], [-75.189535, 40.593136], [-75.195012, 40.609566], [-75.118335, 40.965568], [-74.96498, 41.097014], [-74.96498, 41.091537]]]}}, {"type": "Feature", "properties": {"name": "Hinds", "id": "28049", "FIPS": "28049", "FIPS State": 28, "ST": "MS", "County": "Hinds County,MS", "State": "Mississippi"}, "geometry": {"type": "Polygon", "coordinates": [[[-90.486629, 32.542033], [-90.448291, 32.574895], [-90.064905, 32.399633], [-90.229213, 32.049109], [-90.716661, 32.049109], [-90.727615, 32.224371], [-90.552353, 32.509172], [-90.486629, 32.542033]]]}}, {"type": "Feature", "properties": {"name": "Okaloosa", "id": "12091", "FIPS": "12091", "FIPS State": 12, "ST": "FL", "County": "Okaloosa County,FL", "State": "Florida"}, "geometry": {"type": "Polygon", "coordinates": [[[-86.685633, 30.992059], [-86.389878, 30.992059], [-86.395355, 30.378642], [-86.800648, 30.384119], [-86.784218, 30.997536], [-86.685633, 30.992059]]]}}, {"type": "Feature", "properties": {"name": "Davis", "id": "49011", "FIPS": "49011", "FIPS State": 49, "ST": "UT", "County": "Davis County,UT", "State": "Utah"}, "geometry": {"type": "Polygon", "coordinates": [[[-112.011005, 41.151784], [-111.857651, 41.14083], [-111.737158, 40.861506], [-111.98362, 40.921752], [-112.262944, 40.773875], [-112.492976, 41.075106], [-112.011005, 41.151784]]]}}, {"type": "Feature", "properties": {"name": "Buncombe", "id": "37021", "FIPS": "37021", "FIPS State": 37, "ST": "NC", "County": "Buncombe County,NC", "State": "North Carolina"}, "geometry": {"type": "Polygon", "coordinates": [[[-82.276696, 35.702228], [-82.167157, 35.526966], [-82.265742, 35.466719], [-82.408142, 35.472196], [-82.747713, 35.422904], [-82.884636, 35.68032], [-82.408142, 35.817244], [-82.276696, 35.702228]]]}}, {"type": "Feature", "properties": {"name": "Pitt", "id": "37147", "FIPS": "37147", "FIPS State": 37, "ST": "NC", "County": "Pitt County,NC", "State": "North Carolina"}, "geometry": {"type": "Polygon", "coordinates": [[[-77.413173, 35.822721], [-77.352926, 35.817244], [-77.172187, 35.73509], [-77.188618, 35.417427], [-77.391265, 35.34075], [-77.446034, 35.379088], [-77.473419, 35.428381], [-77.681543, 35.636505], [-77.697974, 35.652935], [-77.659635, 35.674843], [-77.413173, 35.822721]]]}}, {"type": "Feature", "properties": {"name": "Rutherford", "id": "47149", "FIPS": "47149", "FIPS State": 47, "ST": "TN", "County": "Rutherford County,TN", "State": "Tennessee"}, "geometry": {"type": "Polygon", "coordinates": [[[-86.515848, 36.102045], [-86.15437, 35.954167], [-86.209139, 35.702228], [-86.247477, 35.631028], [-86.521325, 35.691274], [-86.641817, 35.685797], [-86.685633, 35.707705], [-86.619909, 35.970598], [-86.515848, 36.102045]]]}}, {"type": "Feature", "properties": {"name": "Hampshire", "id": "25015", "FIPS": "25015", "FIPS State": 25, "ST": "MA", "County": "Hampshire County,MA", "State": "Massachusetts"}, "geometry": {"type": "Polygon", "coordinates": [[[-72.976851, 42.55388], [-72.314141, 42.345757], [-72.221033, 42.247172], [-72.998759, 42.312895], [-72.998759, 42.312895], [-72.976851, 42.55388]]]}}, {"type": "Feature", "properties": {"name": "Sussex", "id": "10005", "FIPS": "10005", "FIPS State": 10, "ST": "DE", "County": "Sussex County,DE", "State": "Delaware"}, "geometry": {"type": "Polygon", "coordinates": [[[-75.047134, 38.451652], [-75.342889, 38.451652], [-75.69889, 38.561191], [-75.709844, 38.637868], [-75.720798, 38.829561], [-75.310028, 38.944577], [-75.047134, 38.451652]]]}}, {"type": "Feature", "properties": {"name": "Marion", "id": "41047", "FIPS": "41047", "FIPS State": 41, "ST": "OR", "County": "Marion County,OR", "State": "Oregon"}, "geometry": {"type": "Polygon", "coordinates": [[[-122.964886, 45.286874], [-122.84987, 45.259489], [-122.395284, 44.887057], [-121.732574, 44.887057], [-121.759959, 44.826811], [-121.79282, 44.68441], [-122.658177, 44.777518], [-123.145625, 44.750133], [-123.068948, 45.073273], [-122.964886, 45.286874]]]}}, {"type": "Feature", "properties": {"name": "Washington", "id": "27163", "FIPS": "27163", "FIPS State": 27, "ST": "MN", "County": "Washington County,MN", "State": "Minnesota"}, "geometry": {"type": "Polygon", "coordinates": [[[-93.016976, 45.297827], [-92.743129, 45.297827], [-92.75956, 45.210196], [-92.770513, 44.859672], [-92.803375, 44.744656], [-93.016976, 44.892534], [-93.022453, 45.122565], [-93.016976, 45.297827]]]}}, {"type": "Feature", "properties": {"name": "Tippecanoe", "id": "18157", "FIPS": "18157", "FIPS State": 18, "ST": "IN", "County": "Tippecanoe County,IN", "State": "Indiana"}, "geometry": {"type": "Polygon", "coordinates": [[[-87.096403, 40.560274], [-86.773264, 40.560274], [-86.696587, 40.434304], [-86.696587, 40.215227], [-86.921141, 40.215227], [-87.090926, 40.215227], [-87.090926, 40.368581], [-87.096403, 40.47812], [-87.096403, 40.560274]]]}}, {"type": "Feature", "properties": {"name": "Warren", "id": "39165", "FIPS": "39165", "FIPS State": 39, "ST": "OH", "County": "Warren County,OH", "State": "Ohio"}, "geometry": {"type": "Polygon", "coordinates": [[[-84.36341, 39.590856], [-84.111471, 39.579902], [-83.974547, 39.568948], [-84.007409, 39.256762], [-84.259348, 39.273193], [-84.352456, 39.289624], [-84.36341, 39.590856]]]}}, {"type": "Feature", "properties": {"name": "Tompkins", "id": "36109", "FIPS": "36109", "FIPS State": 36, "ST": "NY", "County": "Tompkins County,NY", "State": "New York"}, "geometry": {"type": "Polygon", "coordinates": [[[-76.460185, 42.625081], [-76.263015, 42.625081], [-76.252061, 42.406003], [-76.536862, 42.280033], [-76.619016, 42.28551], [-76.695693, 42.548403], [-76.668309, 42.625081], [-76.460185, 42.625081]]]}}, {"type": "Feature", "properties": {"name": "Ulster", "id": "36111", "FIPS": "36111", "FIPS State": 36, "ST": "NY", "County": "Ulster County,NY", "State": "New York"}, "geometry": {"type": "Polygon", "coordinates": [[[-74.01747, 42.159541], [-73.913408, 42.126679], [-73.929839, 42.077386], [-73.951746, 41.589939], [-74.263932, 41.633754], [-74.367994, 41.589939], [-74.778764, 42.01714], [-74.450148, 42.170494], [-74.01747, 42.159541]]]}}, {"type": "Feature", "properties": {"name": "Kitsap", "id": "53035", "FIPS": "53035", "FIPS State": 53, "ST": "WA", "County": "Kitsap County,WA", "State": "Washington"}, "geometry": {"type": "Polygon", "coordinates": [[[-122.482915, 47.510511], [-122.537684, 47.400973], [-122.800578, 47.406449], [-122.948455, 47.603619], [-122.751285, 47.740543], [-122.482915, 47.510511]]]}}, {"type": "Feature", "properties": {"name": "Weld", "id": "08123", "FIPS": "08123", "FIPS State": 8, "ST": "CO", "County": "Weld County,CO", "State": "Colorado"}, "geometry": {"type": "Polygon", "coordinates": [[[-103.576517, 41.003906], [-103.581994, 40.521935], [-104.091349, 40.521935], [-104.151596, 40.001626], [-105.055291, 40.001626], [-105.055291, 40.264519], [-104.945752, 40.998429], [-104.053011, 41.003906], [-103.576517, 41.003906]]]}}, {"type": "Feature", "properties": {"name": "Washington", "id": "42125", "FIPS": "42125", "FIPS State": 42, "ST": "PA", "County": "Washington County,PA", "State": "Pennsylvania"}, "geometry": {"type": "Polygon", "coordinates": [[[-80.398105, 40.47812], [-80.359767, 40.47812], [-79.872319, 40.198796], [-79.877796, 40.127596], [-79.998289, 39.985195], [-80.064012, 40.007103], [-80.518598, 39.963288], [-80.518598, 40.018057], [-80.518598, 40.160457], [-80.518598, 40.401443], [-80.518598, 40.47812], [-80.398105, 40.47812]]]}}, {"type": "Feature", "properties": {"name": "Outagamie", "id": "55087", "FIPS": "55087", "FIPS State": 55, "ST": "WI", "County": "Outagamie County,WI", "State": "Wisconsin"}, "geometry": {"type": "Polygon", "coordinates": [[[-88.575177, 44.591302], [-88.246561, 44.585825], [-88.191791, 44.240778], [-88.405392, 44.246255], [-88.471115, 44.246255], [-88.739485, 44.240778], [-88.608039, 44.591302], [-88.575177, 44.591302]]]}}, {"type": "Feature", "properties": {"name": "Richmond", "id": "13245", "FIPS": "13245", "FIPS State": 13, "ST": "GA", "County": "Richmond County,GA", "State": "Georgia"}, "geometry": {"type": "Polygon", "coordinates": [[[-82.030233, 33.544313], [-82.013803, 33.53336], [-81.849494, 33.248559], [-82.189065, 33.292374], [-82.265742, 33.264989], [-82.353373, 33.314282], [-82.293127, 33.35262], [-82.030233, 33.544313]]]}}, {"type": "Feature", "properties": {"name": "Douglas", "id": "08035", "FIPS": "08035", "FIPS State": 8, "ST": "CO", "County": "Douglas County,CO", "State": "Colorado"}, "geometry": {"type": "Polygon", "coordinates": [[[-104.989567, 39.568948], [-104.660951, 39.563471], [-104.660951, 39.130793], [-104.995044, 39.130793], [-105.033383, 39.130793], [-105.329138, 39.130793], [-105.049814, 39.563471], [-104.989567, 39.568948]]]}}, {"type": "Feature", "properties": {"name": "Saratoga", "id": "36091", "FIPS": "36091", "FIPS State": 36, "ST": "NY", "County": "Saratoga County,NY", "State": "New York"}, "geometry": {"type": "Polygon", "coordinates": [[[-73.886023, 43.397329], [-73.595745, 43.304221], [-73.634084, 42.942743], [-73.677899, 42.783912], [-73.809346, 42.778435], [-74.094147, 42.953697], [-74.099624, 42.981082], [-74.137962, 43.254929], [-74.15987, 43.369944], [-73.886023, 43.397329]]]}}, {"type": "Feature", "properties": {"name": "Nueces", "id": "48355", "FIPS": "48355", "FIPS State": 48, "ST": "TX", "County": "Nueces County,TX", "State": "Texas"}, "geometry": {"type": "MultiPolygon", "coordinates": [[[[-97.803822, 27.979742], [-97.365666, 27.848295], [-97.327328, 27.563495], [-97.940745, 27.634695], [-97.798345, 27.996173], [-97.803822, 27.979742]]], [[[-97.053481, 27.842818], [-97.048004, 27.837342], [-97.223266, 27.574448], [-97.245174, 27.579925], [-97.053481, 27.842818]]]]}}, {"type": "Feature", "properties": {"name": "Lexington", "id": "45063", "FIPS": "45063", "FIPS State": 45, "ST": "SC", "County": "Lexington County,SC", "State": "South Carolina"}, "geometry": {"type": "Polygon", "coordinates": [[[-81.340139, 34.196069], [-81.011523, 33.878407], [-81.044384, 33.796253], [-81.044384, 33.708622], [-81.186785, 33.653852], [-81.57017, 33.878407], [-81.471585, 34.075577], [-81.340139, 34.196069]]]}}, {"type": "Feature", "properties": {"name": "Erie", "id": "42049", "FIPS": "42049", "FIPS State": 42, "ST": "PA", "County": "Erie County,PA", "State": "Pennsylvania"}, "geometry": {"type": "Polygon", "coordinates": [[[-79.76278, 42.252649], [-79.609426, 42.000709], [-79.609426, 41.847355], [-79.708011, 41.852832], [-80.518598, 41.847355], [-80.518598, 41.978802], [-80.518598, 41.978802], [-79.76278, 42.269079], [-79.76278, 42.252649]]]}}, {"type": "Feature", "properties": {"name": "Greene", "id": "29077", "FIPS": "29077", "FIPS State": 29, "ST": "MO", "County": "Greene County,MO", "State": "Missouri"}, "geometry": {"type": "Polygon", "coordinates": [[[-93.619439, 37.427464], [-93.619439, 37.427464], [-93.181284, 37.41651], [-93.071745, 37.41651], [-93.066268, 37.087894], [-93.482516, 37.098848], [-93.608485, 37.098848], [-93.624916, 37.279587], [-93.619439, 37.427464]]]}}, {"type": "Feature", "properties": {"name": "Minnehaha", "id": "46099", "FIPS": "46099", "FIPS State": 46, "ST": "SD", "County": "Minnehaha County,SD", "State": "South Dakota"}, "geometry": {"type": "Polygon", "coordinates": [[[-96.489356, 43.846438], [-96.451017, 43.851915], [-96.451017, 43.501391], [-96.598895, 43.501391], [-96.779634, 43.501391], [-96.922034, 43.501391], [-97.130158, 43.501391], [-97.130158, 43.846438], [-96.889173, 43.846438], [-96.489356, 43.846438]]]}}, {"type": "Feature", "properties": {"name": "Butte", "id": "06007", "FIPS": "06007", "FIPS State": 6, "ST": "CA", "County": "Butte County,CA", "State": "California"}, "geometry": {"type": "Polygon", "coordinates": [[[-121.584697, 40.100211], [-121.436819, 40.149503], [-121.075341, 39.596333], [-121.623035, 39.295101], [-121.907836, 39.306055], [-121.891405, 39.382732], [-122.04476, 39.798979], [-121.584697, 40.100211]]]}}, {"type": "Feature", "properties": {"name": "Cabarrus", "id": "37025", "FIPS": "37025", "FIPS State": 37, "ST": "NC", "County": "Cabarrus County,NC", "State": "North Carolina"}, "geometry": {"type": "Polygon", "coordinates": [[[-80.737675, 35.505058], [-80.294043, 35.505058], [-80.507644, 35.187396], [-80.55146, 35.209303], [-80.781491, 35.505058], [-80.737675, 35.505058]]]}}, {"type": "Feature", "properties": {"name": "Schenectady", "id": "36093", "FIPS": "36093", "FIPS State": 36, "ST": "NY", "County": "Schenectady County,NY", "State": "New York"}, "geometry": {"type": "Polygon", "coordinates": [[[-74.094147, 42.953697], [-73.809346, 42.778435], [-74.181778, 42.729142], [-74.263932, 42.794866], [-74.094147, 42.953697]]]}}, {"type": "Feature", "properties": {"name": "Thurston", "id": "53067", "FIPS": "53067", "FIPS State": 53, "ST": "WA", "County": "Thurston County,WA", "State": "Washington"}, "geometry": {"type": "Polygon", "coordinates": [[[-122.904639, 47.15451], [-122.822485, 47.192849], [-122.203591, 46.760171], [-123.162056, 46.793032], [-123.200394, 47.08331], [-122.904639, 47.15451]]]}}, {"type": "Feature", "properties": {"name": "Harford", "id": "24025", "FIPS": "24025", "FIPS State": 24, "ST": "MD", "County": "Harford County,MD", "State": "Maryland"}, "geometry": {"type": "Polygon", "coordinates": [[[-76.241107, 39.722302], [-76.235631, 39.722302], [-76.076799, 39.541563], [-76.328738, 39.355347], [-76.569724, 39.722302], [-76.241107, 39.722302]]]}}, {"type": "Feature", "properties": {"name": "Mahoning", "id": "39099", "FIPS": "39099", "FIPS State": 39, "ST": "OH", "County": "Mahoning County,OH", "State": "Ohio"}, "geometry": {"type": "Polygon", "coordinates": [[[-80.786968, 41.135353], [-80.518598, 41.135353], [-80.518598, 41.124399], [-80.518598, 40.899844], [-80.858168, 40.927229], [-81.0882, 40.905321], [-81.0882, 40.987475], [-81.000569, 41.135353], [-80.786968, 41.135353]]]}}, {"type": "Feature", "properties": {"name": "Hernando", "id": "12053", "FIPS": "12053", "FIPS State": 12, "ST": "FL", "County": "Hernando County,FL", "State": "Florida"}, "geometry": {"type": "Polygon", "coordinates": [[[-82.265742, 28.669836], [-82.057618, 28.478144], [-82.254788, 28.478144], [-82.676512, 28.434328], [-82.649128, 28.691744], [-82.265742, 28.669836]]]}}, {"type": "Feature", "properties": {"name": "Cameron", "id": "48061", "FIPS": "48061", "FIPS State": 48, "ST": "TX", "County": "Cameron County,TX", "State": "Texas"}, "geometry": {"type": "Polygon", "coordinates": [[[-97.864068, 26.347614], [-97.382097, 26.413337], [-97.371143, 25.838258], [-97.864068, 26.051859], [-97.864068, 26.347614]]]}}, {"type": "Feature", "properties": {"name": "Montgomery", "id": "01101", "FIPS": "01101", "FIPS State": 1, "ST": "AL", "County": "Montgomery County,AL", "State": "Alabama"}, "geometry": {"type": "Polygon", "coordinates": [[[-86.307724, 32.416064], [-86.022923, 32.421541], [-85.918861, 32.273663], [-85.995538, 32.049109], [-86.192708, 31.966955], [-86.302247, 31.988862], [-86.406309, 32.049109], [-86.499417, 32.344863], [-86.411786, 32.410587], [-86.307724, 32.416064]]]}}, {"type": "Feature", "properties": {"name": "Hamilton", "id": "18057", "FIPS": "18057", "FIPS State": 18, "ST": "IN", "County": "Hamilton County,IN", "State": "Indiana"}, "geometry": {"type": "Polygon", "coordinates": [[[-85.875046, 40.220704], [-85.864092, 40.220704], [-85.864092, 39.94138], [-85.935292, 39.924949], [-86.110554, 39.924949], [-86.242001, 39.924949], [-86.242001, 40.182365], [-86.242001, 40.215227], [-85.875046, 40.220704]]]}}, {"type": "Feature", "properties": {"name": "Marin", "id": "06041", "FIPS": "06041", "FIPS State": 6, "ST": "CA", "County": "Marin County,CA", "State": "California"}, "geometry": {"type": "Polygon", "coordinates": [[[-122.844393, 38.27639], [-122.488392, 38.112082], [-122.504823, 37.821804], [-123.014178, 38.002543], [-123.003224, 38.298298], [-122.844393, 38.27639]]]}}, {"type": "Feature", "properties": {"name": "Madison", "id": "17119", "FIPS": "17119", "FIPS State": 17, "ST": "IL", "County": "Madison County,IL", "State": "Illinois"}, "geometry": {"type": "Polygon", "coordinates": [[[-90.240167, 38.999346], [-90.147059, 38.999346], [-89.69795, 38.999346], [-89.637704, 38.999346], [-89.599365, 38.74193], [-89.708904, 38.654299], [-90.179921, 38.659776], [-90.168967, 38.774791], [-90.119674, 38.807653], [-90.278506, 38.922669], [-90.240167, 38.999346]]]}}, {"type": "Feature", "properties": {"name": "Escambia", "id": "12033", "FIPS": "12033", "FIPS State": 12, "ST": "FL", "County": "Escambia County,FL", "State": "Florida"}, "geometry": {"type": "Polygon", "coordinates": [[[-87.249758, 30.997536], [-87.162127, 30.997536], [-87.310004, 30.734643], [-86.921141, 30.373165], [-87.518128, 30.280057], [-87.600282, 30.997536], [-87.249758, 30.997536]]]}}, {"type": "Feature", "properties": {"name": "Horry", "id": "45051", "FIPS": "45051", "FIPS State": 45, "ST": "SC", "County": "Horry County,SC", "State": "South Carolina"}, "geometry": {"type": "Polygon", "coordinates": [[[-79.078163, 34.294654], [-79.072686, 34.300131], [-78.650961, 33.94413], [-78.541422, 33.851022], [-79.001485, 33.571698], [-79.187701, 33.703145], [-79.127455, 34.256316], [-79.078163, 34.294654]]]}}, {"type": "Feature", "properties": {"name": "Kanawha", "id": "54039", "FIPS": "54039", "FIPS State": 54, "ST": "WV", "County": "Kanawha County,WV", "State": "West Virginia"}, "geometry": {"type": "Polygon", "coordinates": [[[-81.69614, 38.626914], [-81.69614, 38.626914], [-81.520878, 38.610483], [-81.192262, 38.528329], [-81.2306, 38.265436], [-81.2306, 38.265436], [-81.378478, 37.969681], [-81.455155, 37.986112], [-81.756386, 38.20519], [-81.833064, 38.210667], [-81.915218, 38.325682], [-81.69614, 38.626914]]]}}, {"type": "Feature", "properties": {"name": "Chatham", "id": "13051", "FIPS": "13051", "FIPS State": 13, "ST": "GA", "County": "Chatham County,GA", "State": "Georgia"}, "geometry": {"type": "Polygon", "coordinates": [[[-81.1594, 32.229848], [-81.148446, 32.224371], [-80.885553, 32.032678], [-81.153923, 31.725969], [-81.389431, 32.098401], [-81.1594, 32.229848]]]}}, {"type": "Feature", "properties": {"name": "Olmsted", "id": "27109", "FIPS": "27109", "FIPS State": 27, "ST": "MN", "County": "Olmsted County,MN", "State": "Minnesota"}, "geometry": {"type": "Polygon", "coordinates": [[[-92.666452, 44.196962], [-92.551436, 44.196962], [-92.080419, 44.109331], [-92.080419, 43.846438], [-92.381651, 43.846438], [-92.447374, 43.835484], [-92.688359, 43.846438], [-92.677405, 44.196962], [-92.666452, 44.196962]]]}}, {"type": "Feature", "properties": {"name": "Clay", "id": "29047", "FIPS": "29047", "FIPS State": 29, "ST": "MO", "County": "Clay County,MO", "State": "Missouri"}, "geometry": {"type": "Polygon", "coordinates": [[[-94.56695, 39.453932], [-94.210949, 39.453932], [-94.210949, 39.20747], [-94.419073, 39.147223], [-94.605288, 39.114362], [-94.599812, 39.158177], [-94.599812, 39.453932], [-94.56695, 39.453932]]]}}, {"type": "Feature", "properties": {"name": "New Hanover", "id": "37129", "FIPS": "37129", "FIPS State": 37, "ST": "NC", "County": "New Hanover County,NC", "State": "North Carolina"}, "geometry": {"type": "Polygon", "coordinates": [[[-77.960867, 34.376808], [-77.714404, 34.294654], [-77.938959, 33.927699], [-78.032067, 34.332993], [-77.960867, 34.376808]]]}}, {"type": "Feature", "properties": {"name": "Henrico", "id": "51087", "FIPS": "51087", "FIPS State": 51, "ST": "VA", "County": "Henrico County,VA", "State": "Virginia"}, "geometry": {"type": "Polygon", "coordinates": [[[-77.63225, 37.706788], [-77.226957, 37.537003], [-77.177664, 37.493187], [-77.248864, 37.383649], [-77.41865, 37.449372], [-77.473419, 37.597249], [-77.593912, 37.553434], [-77.654158, 37.564388], [-77.63225, 37.706788]]]}}, {"type": "Feature", "properties": {"name": "Anchorage", "id": "02020", "FIPS": "02020", "FIPS State": 2, "ST": "AK", "County": "Anchorage County,AK", "State": "Alaska"}, "geometry": {"type": "Polygon", "coordinates": [[[-149.259676, 61.482186], [-148.460043, 61.427417], [-148.470997, 60.852338], [-148.744844, 60.731845], [-149.730693, 60.994739], [-149.73617, 60.994739], [-149.988109, 61.230247], [-149.259676, 61.482186]]]}}, {"type": "Feature", "properties": {"name": "Cleveland", "id": "40027", "FIPS": "40027", "FIPS State": 40, "ST": "OK", "County": "Cleveland County,OK", "State": "Oklahoma"}, "geometry": {"type": "Polygon", "coordinates": [[[-97.425913, 35.379088], [-97.141112, 35.379088], [-97.141112, 34.929979], [-97.672375, 35.335273], [-97.672375, 35.379088], [-97.425913, 35.379088]]]}}, {"type": "Feature", "properties": {"name": "Galveston", "id": "48167", "FIPS": "48167", "FIPS State": 48, "ST": "TX", "County": "Galveston County,TX", "State": "Texas"}, "geometry": {"type": "MultiPolygon", "coordinates": [[[[-94.36978, 29.595439], [-94.36978, 29.557101], [-94.512181, 29.54067], [-94.36978, 29.595439]]], [[[-95.202275, 29.562578], [-95.016059, 29.557101], [-95.120121, 29.07513], [-95.218706, 29.557101], [-95.202275, 29.562578]]]]}}, {"type": "Feature", "properties": {"name": "Anoka", "id": "27003", "FIPS": "27003", "FIPS State": 27, "ST": "MN", "County": "Anoka County,MN", "State": "Minnesota"}, "geometry": {"type": "Polygon", "coordinates": [[[-93.159376, 45.412843], [-93.016976, 45.412843], [-93.016976, 45.297827], [-93.022453, 45.122565], [-93.230576, 45.122565], [-93.2251, 45.034934], [-93.5099, 45.243058], [-93.5099, 45.412843], [-93.159376, 45.412843]]]}}, {"type": "Feature", "properties": {"name": "Williamson", "id": "47187", "FIPS": "47187", "FIPS State": 47, "ST": "TN", "County": "Williamson County,TN", "State": "Tennessee"}, "geometry": {"type": "Polygon", "coordinates": [[[-86.921141, 36.052752], [-86.619909, 35.970598], [-86.685633, 35.707705], [-86.784218, 35.707705], [-87.216896, 35.850105], [-87.205942, 35.959644], [-87.184034, 36.047275], [-87.052588, 36.047275], [-86.921141, 36.052752]]]}}, {"type": "Feature", "properties": {"name": "Lake", "id": "39085", "FIPS": "39085", "FIPS State": 39, "ST": "OH", "County": "Lake County,OH", "State": "Ohio"}, "geometry": {"type": "Polygon", "coordinates": [[[-81.000569, 41.852832], [-81.006046, 41.715908], [-81.389431, 41.568031], [-81.488016, 41.633754], [-81.000569, 41.852832]]]}}, {"type": "Feature", "properties": {"name": "Oneida", "id": "36065", "FIPS": "36065", "FIPS State": 36, "ST": "NY", "County": "Oneida County,NY", "State": "New York"}, "geometry": {"type": "Polygon", "coordinates": [[[-75.112858, 43.616407], [-75.211443, 42.882497], [-75.249781, 42.871543], [-75.885106, 43.156344], [-75.75366, 43.468529], [-75.112858, 43.616407]]]}}, {"type": "Feature", "properties": {"name": "Chittenden", "id": "50007", "FIPS": "50007", "FIPS State": 50, "ST": "VT", "County": "Chittenden County,VT", "State": "Vermont"}, "geometry": {"type": "Polygon", "coordinates": [[[-73.22879, 44.722749], [-72.922082, 44.635118], [-72.807066, 44.454379], [-72.954943, 44.164101], [-73.22879, 44.262686], [-73.310944, 44.262686], [-73.338329, 44.547487], [-73.360237, 44.563917], [-73.22879, 44.722749]]]}}, {"type": "Feature", "properties": {"name": "Cumberland", "id": "42041", "FIPS": "42041", "FIPS State": 42, "ST": "PA", "County": "Cumberland County,PA", "State": "Pennsylvania"}, "geometry": {"type": "Polygon", "coordinates": [[[-77.122895, 40.297381], [-76.914771, 40.330243], [-76.860002, 40.226181], [-76.903817, 40.220704], [-77.139326, 40.067349], [-77.473419, 39.946857], [-77.615819, 40.198796], [-77.122895, 40.297381]]]}}, {"type": "Feature", "properties": {"name": "Santa Cruz", "id": "06087", "FIPS": "06087", "FIPS State": 6, "ST": "CA", "County": "Santa Cruz County,CA", "State": "California"}, "geometry": {"type": "Polygon", "coordinates": [[[-122.154299, 37.285064], [-121.57922, 36.901678], [-121.644943, 36.896201], [-121.699712, 36.918109], [-121.809251, 36.852385], [-122.291222, 37.109802], [-122.154299, 37.285064]]]}}, {"type": "Feature", "properties": {"name": "Brazos", "id": "48041", "FIPS": "48041", "FIPS State": 48, "ST": "TX", "County": "Brazos County,TX", "State": "Texas"}, "geometry": {"type": "Polygon", "coordinates": [[[-96.237417, 30.964674], [-96.166217, 30.822274], [-96.155263, 30.329349], [-96.297663, 30.378642], [-96.566033, 30.696304], [-96.242894, 30.975628], [-96.237417, 30.964674]]]}}, {"type": "Feature", "properties": {"name": "Bell", "id": "48027", "FIPS": "48027", "FIPS State": 48, "ST": "TX", "County": "Bell County,TX", "State": "Texas"}, "geometry": {"type": "Polygon", "coordinates": [[[-97.404005, 31.304245], [-97.278035, 31.282337], [-97.069912, 30.986582], [-97.316374, 30.751074], [-97.831206, 30.904428], [-97.91336, 31.035875], [-97.907884, 31.068736], [-97.420436, 31.320676], [-97.404005, 31.304245]]]}}, {"type": "Feature", "properties": {"name": "Brazoria", "id": "48039", "FIPS": "48039", "FIPS State": 48, "ST": "TX", "County": "Brazoria County,TX", "State": "Texas"}, "geometry": {"type": "Polygon", "coordinates": [[[-95.295383, 29.595439], [-95.218706, 29.557101], [-95.120121, 29.07513], [-95.508984, 28.823191], [-95.864985, 29.223007], [-95.875939, 29.228484], [-95.848554, 29.261346], [-95.42683, 29.579009], [-95.295383, 29.595439]]]}}, {"type": "Feature", "properties": {"name": "Centre", "id": "42027", "FIPS": "42027", "FIPS State": 42, "ST": "PA", "County": "Centre County,PA", "State": "Pennsylvania"}, "geometry": {"type": "Polygon", "coordinates": [[[-77.708927, 41.113445], [-77.144803, 41.042245], [-77.36388, 40.845075], [-77.681543, 40.730059], [-78.114221, 40.741013], [-78.360683, 40.735536], [-78.037544, 41.151784], [-77.708927, 41.113445]]]}}, {"type": "Feature", "properties": {"name": "Monterey", "id": "06053", "FIPS": "06053", "FIPS State": 6, "ST": "CA", "County": "Monterey County,CA", "State": "California"}, "geometry": {"type": "Polygon", "coordinates": [[[-121.699712, 36.918109], [-121.644943, 36.896201], [-121.31085, 36.501861], [-120.681002, 36.266353], [-120.314047, 35.904875], [-120.215462, 35.789859], [-121.343711, 35.795336], [-121.896882, 36.315645], [-121.809251, 36.852385], [-121.699712, 36.918109]]]}}, {"type": "Feature", "properties": {"name": "Johnson", "id": "19103", "FIPS": "19103", "FIPS State": 19, "ST": "IA", "County": "Johnson County,IA", "State": "Iowa"}, "geometry": {"type": "Polygon", "coordinates": [[[-91.664172, 41.863786], [-91.368417, 41.858309], [-91.368417, 41.600893], [-91.368417, 41.425631], [-91.483432, 41.425631], [-91.790141, 41.513262], [-91.82848, 41.513262], [-91.833957, 41.863786], [-91.664172, 41.863786]]]}}, {"type": "Feature", "properties": {"name": "Barnstable", "id": "25001", "FIPS": "25001", "FIPS State": 25, "ST": "MA", "County": "Barnstable County,MA", "State": "Massachusetts"}, "geometry": {"type": "Polygon", "coordinates": [[[-70.671059, 41.513262], [-70.692967, 41.524216], [-70.643674, 41.715908], [-70.539613, 41.809016], [-69.926195, 41.694001], [-70.671059, 41.513262]]]}}, {"type": "Feature", "properties": {"name": "Pulaski", "id": "05119", "FIPS": "05119", "FIPS State": 5, "ST": "AR", "County": "Pulaski County,AR", "State": "Arkansas"}, "geometry": {"type": "Polygon", "coordinates": [[[-92.228296, 34.957364], [-92.118758, 35.012133], [-92.031127, 34.491824], [-92.069465, 34.491824], [-92.206389, 34.491824], [-92.244727, 34.491824], [-92.737652, 34.853302], [-92.545959, 34.951887], [-92.228296, 34.957364]]]}}, {"type": "Feature", "properties": {"name": "Medina", "id": "39103", "FIPS": "39103", "FIPS State": 39, "ST": "OH", "County": "Medina County,OH", "State": "Ohio"}, "geometry": {"type": "Polygon", "coordinates": [[[-81.685186, 41.277753], [-81.690663, 40.987475], [-82.079526, 40.992952], [-82.128818, 40.992952], [-82.172634, 41.064153], [-81.876879, 41.277753], [-81.685186, 41.277753]]]}}, {"type": "Feature", "properties": {"name": "Tulare", "id": "06107", "FIPS": "06107", "FIPS State": 6, "ST": "CA", "County": "Tulare County,CA", "State": "California"}, "geometry": {"type": "Polygon", "coordinates": [[[-118.358779, 36.742847], [-118.008255, 35.789859], [-119.536321, 35.789859], [-119.57466, 36.490907], [-118.98315, 36.742847], [-118.358779, 36.742847]]]}}, {"type": "Feature", "properties": {"name": "Broome", "id": "36007", "FIPS": "36007", "FIPS State": 36, "ST": "NY", "County": "Broome County,NY", "State": "New York"}, "geometry": {"type": "Polygon", "coordinates": [[[-75.863199, 42.416957], [-75.419566, 42.192402], [-75.35932, 42.000709], [-75.479813, 42.000709], [-75.48529, 42.000709], [-75.890583, 42.000709], [-76.104184, 42.000709], [-76.131569, 42.41148], [-75.863199, 42.416957]]]}}, {"type": "Feature", "properties": {"name": "Linn", "id": "19113", "FIPS": "19113", "FIPS State": 19, "ST": "IA", "County": "Linn County,IA", "State": "Iowa"}, "geometry": {"type": "Polygon", "coordinates": [[[-91.713464, 42.296464], [-91.598448, 42.296464], [-91.36294, 42.296464], [-91.368417, 41.94594], [-91.368417, 41.858309], [-91.664172, 41.863786], [-91.833957, 41.863786], [-91.82848, 42.296464], [-91.713464, 42.296464]]]}}, {"type": "Feature", "properties": {"name": "Frederick", "id": "24021", "FIPS": "24021", "FIPS State": 24, "ST": "MD", "County": "Frederick County,MD", "State": "Maryland"}, "geometry": {"type": "Polygon", "coordinates": [[[-77.467942, 39.722302], [-77.456988, 39.722302], [-77.216003, 39.722302], [-77.16671, 39.355347], [-77.16671, 39.355347], [-77.243388, 39.317009], [-77.456988, 39.218424], [-77.676066, 39.322485], [-77.467942, 39.722302]]]}}, {"type": "Feature", "properties": {"name": "Fayette", "id": "21067", "FIPS": "21067", "FIPS State": 21, "ST": "KY", "County": "Fayette County,KY", "State": "Kentucky"}, "geometry": {"type": "Polygon", "coordinates": [[[-84.401749, 38.20519], [-84.286733, 38.068266], [-84.336025, 37.893004], [-84.43461, 37.849189], [-84.659165, 38.002543], [-84.626303, 38.117559], [-84.401749, 38.20519]]]}}, {"type": "Feature", "properties": {"name": "Champaign", "id": "17019", "FIPS": "17019", "FIPS State": 17, "ST": "IL", "County": "Champaign County,IL", "State": "Illinois"}, "geometry": {"type": "Polygon", "coordinates": [[[-88.109637, 40.401443], [-87.934375, 40.401443], [-87.939852, 39.881133], [-88.126068, 39.881133], [-88.460161, 39.881133], [-88.460161, 40.28095], [-88.460161, 40.401443], [-88.109637, 40.401443]]]}}, {"type": "Feature", "properties": {"name": "Larimer", "id": "08069", "FIPS": "08069", "FIPS State": 8, "ST": "CO", "County": "Larimer County,CO", "State": "Colorado"}, "geometry": {"type": "Polygon", "coordinates": [[[-105.279845, 40.998429], [-104.945752, 40.998429], [-105.055291, 40.264519], [-105.340092, 40.259042], [-105.652277, 40.259042], [-105.854924, 40.483597], [-106.189017, 40.998429], [-105.279845, 40.998429]]]}}, {"type": "Feature", "properties": {"name": "Dauphin", "id": "42043", "FIPS": "42043", "FIPS State": 42, "ST": "PA", "County": "Dauphin County,PA", "State": "Pennsylvania"}, "geometry": {"type": "Polygon", "coordinates": [[[-76.536862, 40.554797], [-76.564247, 40.198796], [-76.723078, 40.122119], [-76.860002, 40.226181], [-76.914771, 40.330243], [-76.95311, 40.60409], [-76.947633, 40.625997], [-76.70117, 40.658859], [-76.536862, 40.554797]]]}}, {"type": "Feature", "properties": {"name": "Lake", "id": "12069", "FIPS": "12069", "FIPS State": 12, "ST": "FL", "County": "Lake County,FL", "State": "Florida"}, "geometry": {"type": "Polygon", "coordinates": [[[-81.641371, 29.277777], [-81.367524, 28.87796], [-81.411339, 28.784852], [-81.542786, 28.784852], [-81.657801, 28.346697], [-81.959033, 28.346697], [-81.953556, 28.960114], [-81.641371, 29.277777]]]}}, {"type": "Feature", "properties": {"name": "Marion", "id": "12083", "FIPS": "12083", "FIPS State": 12, "ST": "FL", "County": "Marion County,FL", "State": "Florida"}, "geometry": {"type": "Polygon", "coordinates": [[[-81.844017, 29.518762], [-81.679709, 29.327069], [-81.641371, 29.277777], [-81.953556, 28.960114], [-82.013803, 28.960114], [-82.309557, 28.960114], [-82.523158, 29.042268], [-82.534112, 29.042268], [-82.408142, 29.485901], [-82.057618, 29.46947], [-81.844017, 29.518762]]]}}, {"type": "Feature", "properties": {"name": "Brown", "id": "55009", "FIPS": "55009", "FIPS State": 55, "ST": "WI", "County": "Brown County,WI", "State": "Wisconsin"}, "geometry": {"type": "Polygon", "coordinates": [[[-88.235607, 44.678933], [-87.989145, 44.678933], [-87.76459, 44.646072], [-87.76459, 44.328409], [-87.885083, 44.328409], [-88.043914, 44.240778], [-88.191791, 44.240778], [-88.246561, 44.585825], [-88.241084, 44.678933], [-88.235607, 44.678933]]]}}, {"type": "Feature", "properties": {"name": "Lane", "id": "41039", "FIPS": "41039", "FIPS State": 41, "ST": "OR", "County": "Lane County,OR", "State": "Oregon"}, "geometry": {"type": "Polygon", "coordinates": [[[-124.010981, 44.279117], [-123.775473, 44.284593], [-123.200394, 44.284593], [-121.798297, 44.257209], [-122.000944, 43.616407], [-122.132391, 43.441145], [-123.107286, 43.53973], [-123.140148, 43.780715], [-123.824765, 43.945023], [-124.158859, 43.862869], [-124.115043, 44.27364], [-124.010981, 44.279117]]]}}, {"type": "Feature", "properties": {"name": "Collier", "id": "12021", "FIPS": "12021", "FIPS State": 12, "ST": "FL", "County": "Collier County,FL", "State": "Florida"}, "geometry": {"type": "Polygon", "coordinates": [[[-81.564693, 26.511922], [-80.880076, 26.259983], [-80.874599, 25.980659], [-80.874599, 25.805397], [-81.345616, 25.805397], [-81.679709, 25.843735], [-81.844017, 26.331183], [-81.564693, 26.511922]]]}}, {"type": "Feature", "properties": {"name": "Osceola", "id": "12097", "FIPS": "12097", "FIPS State": 12, "ST": "FL", "County": "Osceola County,FL", "State": "Florida"}, "geometry": {"type": "Polygon", "coordinates": [[[-81.2306, 28.346697], [-80.863645, 28.346697], [-80.869122, 27.820911], [-80.874599, 27.640172], [-81.142969, 27.645649], [-81.657801, 28.346697], [-81.2306, 28.346697]]]}}, {"type": "Feature", "properties": {"name": "Clackamas", "id": "41005", "FIPS": "41005", "FIPS State": 41, "ST": "OR", "County": "Clackamas County,OR", "State": "Oregon"}, "geometry": {"type": "Polygon", "coordinates": [[[-122.356945, 45.462136], [-121.820205, 45.462136], [-121.694236, 45.259489], [-121.732574, 44.887057], [-122.395284, 44.887057], [-122.84987, 45.259489], [-122.866301, 45.319735], [-122.745808, 45.434751], [-122.356945, 45.462136]]]}}, {"type": "Feature", "properties": {"name": "Rockland", "id": "36087", "FIPS": "36087", "FIPS State": 36, "ST": "NY", "County": "Rockland County,NY", "State": "New York"}, "geometry": {"type": "Polygon", "coordinates": [[[-73.984608, 41.321569], [-73.8915, 40.998429], [-74.21464, 41.135353], [-74.236547, 41.14083], [-73.979131, 41.327046], [-73.984608, 41.321569]]]}}, {"type": "Feature", "properties": {"name": "Allen", "id": "18003", "FIPS": "18003", "FIPS State": 18, "ST": "IN", "County": "Allen County,IN", "State": "Indiana"}, "geometry": {"type": "Polygon", "coordinates": [[[-84.845381, 41.272276], [-84.801565, 41.272276], [-84.801565, 41.250368], [-84.801565, 40.987475], [-84.801565, 40.921752], [-84.878242, 40.921752], [-85.075412, 40.916275], [-85.108274, 40.916275], [-85.338305, 40.916275], [-85.332828, 41.003906], [-85.305444, 41.266799], [-85.190428, 41.266799], [-84.845381, 41.272276]]]}}, {"type": "Feature", "properties": {"name": "Pasco", "id": "12101", "FIPS": "12101", "FIPS State": 12, "ST": "FL", "County": "Pasco County,FL", "State": "Florida"}, "geometry": {"type": "Polygon", "coordinates": [[[-82.254788, 28.478144], [-82.057618, 28.478144], [-82.057618, 28.313835], [-82.106911, 28.171435], [-82.649128, 28.171435], [-82.802482, 28.171435], [-82.676512, 28.434328], [-82.254788, 28.478144]]]}}, {"type": "Feature", "properties": {"name": "San Luis Obispo", "id": "06079", "FIPS": "06079", "FIPS State": 6, "ST": "CA", "County": "San Luis Obispo County,CA", "State": "California"}, "geometry": {"type": "Polygon", "coordinates": [[[-121.343711, 35.795336], [-120.215462, 35.789859], [-120.193554, 35.789859], [-119.470598, 34.902595], [-120.094969, 35.116195], [-120.64814, 34.973795], [-121.343711, 35.795336]]]}}, {"type": "Feature", "properties": {"name": "Charleston", "id": "45019", "FIPS": "45019", "FIPS State": 45, "ST": "SC", "County": "Charleston County,SC", "State": "South Carolina"}, "geometry": {"type": "Polygon", "coordinates": [[[-79.49441, 33.188312], [-79.445118, 33.215697], [-79.291763, 33.111635], [-80.250228, 32.531079], [-80.403582, 32.859696], [-80.151643, 33.024004], [-79.927088, 32.821357], [-79.49441, 33.188312]]]}}, {"type": "Feature", "properties": {"name": "Lackawanna", "id": "42069", "FIPS": "42069", "FIPS State": 42, "ST": "PA", "County": "Lackawanna County,PA", "State": "Pennsylvania"}, "geometry": {"type": "Polygon", "coordinates": [[[-75.720798, 41.644708], [-75.463382, 41.639231], [-75.507197, 41.233938], [-75.600305, 41.162737], [-75.835814, 41.425631], [-75.720798, 41.644708]]]}}, {"type": "Feature", "properties": {"name": "Hidalgo", "id": "48215", "FIPS": "48215", "FIPS State": 48, "ST": "TX", "County": "Hidalgo County,TX", "State": "Texas"}, "geometry": {"type": "Polygon", "coordinates": [[[-98.318654, 26.785769], [-97.984561, 26.780292], [-97.957176, 26.610507], [-97.864068, 26.347614], [-97.864068, 26.051859], [-98.587024, 26.254506], [-98.318654, 26.785769]]]}}, {"type": "Feature", "properties": {"name": "Yolo", "id": "06113", "FIPS": "06113", "FIPS State": 6, "ST": "CA", "County": "Yolo County,CA", "State": "California"}, "geometry": {"type": "Polygon", "coordinates": [[[-122.061191, 38.928146], [-121.836636, 38.922669], [-121.601128, 38.736453], [-121.590174, 38.314728], [-121.738051, 38.539283], [-122.105006, 38.511898], [-122.395284, 38.862422], [-122.340515, 38.922669], [-122.061191, 38.928146]]]}}, {"type": "Feature", "properties": {"name": "Lehigh", "id": "42077", "FIPS": "42077", "FIPS State": 42, "ST": "PA", "County": "Lehigh County,PA", "State": "Pennsylvania"}, "geometry": {"type": "Polygon", "coordinates": [[[-75.611259, 40.784829], [-75.331935, 40.538366], [-75.48529, 40.417874], [-75.490767, 40.423351], [-75.529105, 40.445258], [-75.890583, 40.67529], [-75.759137, 40.735536], [-75.611259, 40.784829]]]}}, {"type": "Feature", "properties": {"name": "Somerset", "id": "34035", "FIPS": "34035", "FIPS State": 34, "ST": "NJ", "County": "Somerset County,NJ", "State": "New Jersey"}, "geometry": {"type": "Polygon", "coordinates": [[[-74.718518, 40.719105], [-74.461102, 40.67529], [-74.461102, 40.598613], [-74.619933, 40.374058], [-74.745903, 40.423351], [-74.723995, 40.719105], [-74.718518, 40.719105]]]}}, {"type": "Feature", "properties": {"name": "Cumberland", "id": "37051", "FIPS": "37051", "FIPS State": 37, "ST": "NC", "County": "Cumberland County,NC", "State": "North Carolina"}, "geometry": {"type": "Polygon", "coordinates": [[[-78.952193, 35.21478], [-78.6181, 35.247642], [-78.49213, 34.858779], [-78.9029, 34.836871], [-79.034347, 34.951887], [-79.10007, 35.176442], [-79.094593, 35.192872], [-78.952193, 35.21478]]]}}, {"type": "Feature", "properties": {"name": "Madison", "id": "01089", "FIPS": "01089", "FIPS State": 1, "ST": "AL", "County": "Madison County,AL", "State": "Alabama"}, "geometry": {"type": "Polygon", "coordinates": [[[-86.784218, 34.990226], [-86.318678, 34.990226], [-86.313201, 34.990226], [-86.329632, 34.601363], [-86.548709, 34.546593], [-86.789695, 34.55207], [-86.784218, 34.990226]]]}}, {"type": "Feature", "properties": {"name": "Winnebago", "id": "17201", "FIPS": "17201", "FIPS State": 17, "ST": "IL", "County": "Winnebago County,IL", "State": "Illinois"}, "geometry": {"type": "Polygon", "coordinates": [[[-89.363857, 42.499111], [-88.942132, 42.493634], [-88.942132, 42.154064], [-89.281702, 42.203356], [-89.396718, 42.203356], [-89.402195, 42.499111], [-89.363857, 42.499111]]]}}]}