{"type": "FeatureCollection", "crs": {"type": "name", "properties": {"name": "urn:ogc:def:crs:OGC:1.3:CRS84"}}, "features": [{"type": "Feature", "properties": {"name": "Lincoln", "id": "53043", "FIPS": "53043", "FIPS State": 53, "ST": "WA", "County": "Lincoln County,WA", "State": "Washington"}, "geometry": {"type": "Polygon", "coordinates": [[[-118.972196, 47.94319], [-118.851704, 47.95962], [-118.342348, 47.893897], [-117.822039, 47.822697], [-117.822039, 47.258572], [-117.958962, 47.258572], [-118.950288, 47.264049], [-118.977673, 47.264049], [-118.972196, 47.94319]]]}}, {"type": "Feature", "properties": {"name": "Chesterfield", "id": "45025", "FIPS": "45025", "FIPS State": 45, "ST": "SC", "County": "Chesterfield County,SC", "State": "South Carolina"}, "geometry": {"type": "Polygon", "coordinates": [[[-80.562413, 34.814964], [-80.321428, 34.814964], [-79.927088, 34.80401], [-79.828503, 34.530163], [-79.866842, 34.508255], [-80.288566, 34.365854], [-80.387151, 34.595886], [-80.409059, 34.612317], [-80.562413, 34.814964]]]}}, {"type": "Feature", "properties": {"name": "Greene", "id": "18055", "FIPS": "18055", "FIPS State": 18, "ST": "IN", "County": "Greene County,IN", "State": "Indiana"}, "geometry": {"type": "Polygon", "coordinates": [[[-87.211419, 39.169131], [-87.052588, 39.169131], [-86.685633, 39.163654], [-86.680156, 38.993869], [-86.680156, 38.906238], [-86.756833, 38.906238], [-86.90471, 38.906238], [-87.096403, 38.906238], [-87.238804, 38.906238], [-87.238804, 39.169131], [-87.211419, 39.169131]]]}}, {"type": "Feature", "properties": {"name": "Jefferson", "id": "53031", "FIPS": "53031", "FIPS State": 53, "ST": "WA", "County": "Jefferson County,WA", "State": "Washington"}, "geometry": {"type": "Polygon", "coordinates": [[[-122.751285, 47.740543], [-122.948455, 47.603619], [-123.507103, 47.515988], [-124.323167, 47.532419], [-124.356029, 47.532419], [-124.613445, 47.882943], [-122.948455, 47.866512], [-122.926547, 48.063682], [-122.751285, 47.740543]]]}}, {"type": "Feature", "properties": {"name": "Rooks", "id": "20163", "FIPS": "20163", "FIPS State": 20, "ST": "KS", "County": "Rooks County,KS", "State": "Kansas"}, "geometry": {"type": "Polygon", "coordinates": [[[-99.063518, 39.568948], [-99.04161, 39.568948], [-99.047087, 39.130793], [-99.408565, 39.130793], [-99.589304, 39.130793], [-99.605735, 39.130793], [-99.600258, 39.568948], [-99.063518, 39.568948]]]}}, {"type": "Feature", "properties": {"name": "Spink", "id": "46115", "FIPS": "46115", "FIPS State": 46, "ST": "SD", "County": "Spink County,SD", "State": "South Dakota"}, "geometry": {"type": "Polygon", "coordinates": [[[-98.532255, 45.243058], [-97.979084, 45.243058], [-97.979084, 45.155427], [-97.979084, 44.629641], [-98.088623, 44.629641], [-98.707517, 44.635118], [-98.718471, 44.898011], [-98.718471, 45.243058], [-98.532255, 45.243058]]]}}, {"type": "Feature", "properties": {"name": "Palo Alto", "id": "19147", "FIPS": "19147", "FIPS State": 19, "ST": "IA", "County": "Palo Alto County,IA", "State": "Iowa"}, "geometry": {"type": "Polygon", "coordinates": [[[-94.588858, 43.254929], [-94.44098, 43.254929], [-94.44098, 42.909881], [-94.911997, 42.909881], [-94.911997, 43.254929], [-94.588858, 43.254929]]]}}, {"type": "Feature", "properties": {"name": "Knox", "id": "29103", "FIPS": "29103", "FIPS State": 29, "ST": "MO", "County": "Knox County,MO", "State": "Missouri"}, "geometry": {"type": "Polygon", "coordinates": [[[-92.140665, 40.302858], [-91.948972, 40.302858], [-91.948972, 40.259042], [-91.954449, 39.946857], [-91.998265, 39.952334], [-92.288543, 39.952334], [-92.343312, 40.039965], [-92.348789, 40.302858], [-92.140665, 40.302858]]]}}, {"type": "Feature", "properties": {"name": "La Salle", "id": "48283", "FIPS": "48283", "FIPS State": 48, "ST": "TX", "County": "La Salle County,TX", "State": "Texas"}, "geometry": {"type": "Polygon", "coordinates": [[[-98.800625, 28.647929], [-98.800625, 28.636975], [-98.800625, 28.056419], [-99.392134, 28.204297], [-99.397611, 28.642452], [-98.800625, 28.647929]]]}}, {"type": "Feature", "properties": {"name": "Owen", "id": "18119", "FIPS": "18119", "FIPS State": 18, "ST": "IN", "County": "Owen County,IN", "State": "Indiana"}, "geometry": {"type": "Polygon", "coordinates": [[[-86.937572, 39.47584], [-86.685633, 39.470363], [-86.630863, 39.34987], [-86.685633, 39.163654], [-87.052588, 39.169131], [-86.937572, 39.47584]]]}}, {"type": "Feature", "properties": {"name": "Lee", "id": "19111", "FIPS": "19111", "FIPS State": 19, "ST": "IA", "County": "Lee County,IA", "State": "Iowa"}, "geometry": {"type": "Polygon", "coordinates": [[[-91.603925, 40.812213], [-91.406755, 40.812213], [-91.111001, 40.697198], [-91.187678, 40.636951], [-91.417709, 40.379535], [-91.718941, 40.598613], [-91.718941, 40.812213], [-91.603925, 40.812213]]]}}, {"type": "Feature", "properties": {"name": "Hood", "id": "48221", "FIPS": "48221", "FIPS State": 48, "ST": "TX", "County": "Hood County,TX", "State": "Texas"}, "geometry": {"type": "Polygon", "coordinates": [[[-98.066715, 32.558464], [-97.617606, 32.552987], [-97.617606, 32.317479], [-97.946222, 32.235325], [-98.066715, 32.509172], [-98.066715, 32.558464]]]}}, {"type": "Feature", "properties": {"name": "Adams", "id": "28001", "FIPS": "28001", "FIPS State": 28, "ST": "MS", "County": "Adams County,MS", "State": "Mississippi"}, "geometry": {"type": "Polygon", "coordinates": [[[-91.319124, 31.758831], [-91.154816, 31.610953], [-91.160293, 31.34806], [-91.264355, 31.369968], [-91.587494, 31.189229], [-91.379371, 31.731446], [-91.346509, 31.753354], [-91.319124, 31.758831]]]}}, {"type": "Feature", "properties": {"name": "Baker", "id": "12003", "FIPS": "12003", "FIPS State": 12, "ST": "FL", "County": "Baker County,FL", "State": "Florida"}, "geometry": {"type": "Polygon", "coordinates": [[[-82.419096, 30.581289], [-82.216449, 30.570335], [-82.052141, 30.362211], [-82.046664, 30.27458], [-82.052141, 30.186949], [-82.052141, 30.143133], [-82.145249, 30.143133], [-82.298603, 30.143133], [-82.457435, 30.137656], [-82.457435, 30.586766], [-82.419096, 30.581289]]]}}, {"type": "Feature", "properties": {"name": "Young", "id": "48503", "FIPS": "48503", "FIPS State": 48, "ST": "TX", "County": "Young County,TX", "State": "Texas"}, "geometry": {"type": "Polygon", "coordinates": [[[-98.953979, 33.396436], [-98.422716, 33.396436], [-98.428193, 33.007573], [-98.57607, 32.952804], [-98.762286, 32.958281], [-98.948502, 32.958281], [-98.953979, 33.396436]]]}}, {"type": "Feature", "properties": {"name": "Cleburne", "id": "05023", "FIPS": "05023", "FIPS State": 5, "ST": "AR", "County": "Cleburne County,AR", "State": "Arkansas"}, "geometry": {"type": "Polygon", "coordinates": [[[-91.998265, 35.707705], [-91.839434, 35.702228], [-91.795618, 35.532443], [-92.113281, 35.362658], [-92.250204, 35.362658], [-92.23925, 35.713182], [-91.998265, 35.707705]]]}}, {"type": "Feature", "properties": {"name": "Carroll", "id": "05015", "FIPS": "05015", "FIPS State": 5, "ST": "AR", "County": "Carroll County,AR", "State": "Arkansas"}, "geometry": {"type": "Polygon", "coordinates": [[[-93.728978, 36.496384], [-93.586578, 36.496384], [-93.312731, 36.496384], [-93.2963, 36.496384], [-93.301777, 36.123952], [-93.477039, 36.123952], [-93.816609, 36.304691], [-93.865902, 36.496384], [-93.728978, 36.496384]]]}}, {"type": "Feature", "properties": {"name": "Calhoun", "id": "05013", "FIPS": "05013", "FIPS State": 5, "ST": "AR", "County": "Calhoun County,AR", "State": "Arkansas"}, "geometry": {"type": "Polygon", "coordinates": [[[-92.584298, 33.80173], [-92.332358, 33.796253], [-92.332358, 33.708622], [-92.348789, 33.297851], [-92.567867, 33.369051], [-92.584298, 33.80173]]]}}, {"type": "Feature", "properties": {"name": "Garfield", "id": "31071", "FIPS": "31071", "FIPS State": 31, "ST": "NE", "County": "Garfield County,NE", "State": "Nebraska"}, "geometry": {"type": "Polygon", "coordinates": [[[-98.762286, 42.08834], [-98.756809, 41.737816], [-99.074472, 41.737816], [-99.211395, 41.743293], [-99.222349, 41.743293], [-99.222349, 42.08834], [-98.762286, 42.08834]]]}}, {"type": "Feature", "properties": {"name": "Madison", "id": "22065", "FIPS": "22065", "FIPS State": 22, "ST": "LA", "County": "Madison County,LA", "State": "Louisiana"}, "geometry": {"type": "Polygon", "coordinates": [[[-91.368417, 32.536556], [-91.067185, 32.563941], [-91.121954, 32.213417], [-91.494386, 32.202463], [-91.477956, 32.40511], [-91.456048, 32.536556], [-91.368417, 32.536556]]]}}, {"type": "Feature", "properties": {"name": "Jefferson", "id": "20087", "FIPS": "20087", "FIPS State": 20, "ST": "KS", "County": "Jefferson County,KS", "State": "Kansas"}, "geometry": {"type": "Polygon", "coordinates": [[[-95.465168, 39.42107], [-95.180367, 39.42107], [-95.185844, 39.043162], [-95.49803, 39.054115], [-95.591138, 39.218424], [-95.56923, 39.42107], [-95.465168, 39.42107]]]}}, {"type": "Feature", "properties": {"name": "Arkansas", "id": "05001", "FIPS": "05001", "FIPS State": 5, "ST": "AR", "County": "Arkansas County,AR", "State": "Arkansas"}, "geometry": {"type": "Polygon", "coordinates": [[[-91.587494, 34.568501], [-91.379371, 34.563024], [-91.056231, 34.33847], [-91.116477, 34.119392], [-91.423186, 34.01533], [-91.445094, 34.081054], [-91.70251, 34.48087], [-91.680602, 34.48087], [-91.587494, 34.568501]]]}}, {"type": "Feature", "properties": {"name": "Copiah", "id": "28029", "FIPS": "28029", "FIPS State": 28, "ST": "MS", "County": "Copiah County,MS", "State": "Mississippi"}, "geometry": {"type": "Polygon", "coordinates": [[[-90.716661, 32.049109], [-90.229213, 32.049109], [-90.125151, 31.753354], [-90.245644, 31.715015], [-90.311367, 31.698584], [-90.738569, 31.698584], [-90.738569, 31.786216], [-90.716661, 32.049109]]]}}, {"type": "Feature", "properties": {"name": "Hooker", "id": "31091", "FIPS": "31091", "FIPS State": 31, "ST": "NE", "County": "Hooker County,NE", "State": "Nebraska"}, "geometry": {"type": "Polygon", "coordinates": [[[-101.424079, 42.093817], [-100.843524, 42.08834], [-100.843524, 41.737816], [-101.407648, 41.743293], [-101.424079, 41.743293], [-101.424079, 42.093817]]]}}, {"type": "Feature", "properties": {"name": "Graham", "id": "04009", "FIPS": "04009", "FIPS State": 4, "ST": "AZ", "County": "Graham County,AZ", "State": "Arizona"}, "geometry": {"type": "Polygon", "coordinates": [[[-109.743552, 33.500498], [-109.497089, 33.653852], [-109.497089, 33.078773], [-109.113704, 32.427018], [-109.831183, 32.427018], [-110.450077, 32.427018], [-110.450077, 32.514649], [-110.450077, 33.193789], [-110.000968, 33.577175], [-109.891429, 33.566221], [-109.743552, 33.500498]]]}}, {"type": "Feature", "properties": {"name": "King William", "id": "51101", "FIPS": "51101", "FIPS State": 51, "ST": "VA", "County": "King William County,VA", "State": "Virginia"}, "geometry": {"type": "Polygon", "coordinates": [[[-77.177664, 37.893004], [-76.794278, 37.515095], [-77.122895, 37.624634], [-77.347449, 37.788942], [-77.183141, 37.893004], [-77.177664, 37.893004]]]}}, {"type": "Feature", "properties": {"name": "York", "id": "31185", "FIPS": "31185", "FIPS State": 31, "ST": "NE", "County": "York County,NE", "State": "Nebraska"}, "geometry": {"type": "Polygon", "coordinates": [[[-97.365666, 41.047722], [-97.365666, 40.697198], [-97.798345, 40.697198], [-97.825729, 40.697198], [-97.825729, 40.697198], [-97.825729, 41.047722], [-97.365666, 41.047722]]]}}, {"type": "Feature", "properties": {"name": "Sitka", "id": "02220", "FIPS": "02220", "FIPS State": 2, "ST": "AK", "County": "Sitka County,AK", "State": "Alaska"}, "geometry": {"type": "MultiPolygon", "coordinates": [[[[-136.372436, 57.829067], [-135.589233, 57.89479], [-134.937477, 57.763344], [-134.822462, 57.500451], [-135.572802, 57.675713], [-135.890465, 57.407343], [-136.372436, 57.829067]]], [[[-134.66363, 56.28457], [-134.669107, 56.169554], [-135.413971, 56.810356], [-135.687818, 57.369004], [-135.419448, 57.566174], [-134.849846, 57.407343], [-134.636246, 56.28457], [-134.66363, 56.28457]]]]}}, {"type": "Feature", "properties": {"name": "Russell", "id": "20167", "FIPS": "20167", "FIPS State": 20, "ST": "KS", "County": "Russell County,KS", "State": "Kansas"}, "geometry": {"type": "Polygon", "coordinates": [[[-98.510347, 39.130793], [-98.488439, 39.130793], [-98.482962, 38.873376], [-98.488439, 38.698114], [-98.811579, 38.698114], [-99.030656, 38.698114], [-99.04161, 38.698114], [-99.036133, 39.130793], [-98.510347, 39.130793]]]}}, {"type": "Feature", "properties": {"name": "Page", "id": "51139", "FIPS": "51139", "FIPS State": 51, "ST": "VA", "County": "Page County,VA", "State": "Virginia"}, "geometry": {"type": "Polygon", "coordinates": [[[-78.388068, 38.829561], [-78.284006, 38.758361], [-78.338776, 38.626914], [-78.448314, 38.500944], [-78.453791, 38.47356], [-78.459268, 38.468083], [-78.486653, 38.41879], [-78.640007, 38.605006], [-78.388068, 38.829561]]]}}, {"type": "Feature", "properties": {"name": "Woodward", "id": "40153", "FIPS": "40153", "FIPS State": 40, "ST": "OK", "County": "Woodward County,OK", "State": "Oklahoma"}, "geometry": {"type": "Polygon", "coordinates": [[[-99.293549, 36.819524], [-98.959456, 36.507338], [-98.959456, 36.501861], [-98.953979, 36.162291], [-99.38118, 36.162291], [-99.605735, 36.594969], [-99.293549, 36.819524]]]}}, {"type": "Feature", "properties": {"name": "Washington", "id": "01129", "FIPS": "01129", "FIPS State": 1, "ST": "AL", "County": "Washington County,AL", "State": "Alabama"}, "geometry": {"type": "Polygon", "coordinates": [[[-88.186314, 31.698584], [-88.087729, 31.698584], [-87.945329, 31.194706], [-87.972714, 31.161844], [-88.432777, 31.112552], [-88.449208, 31.435691], [-88.465638, 31.698584], [-88.186314, 31.698584]]]}}, {"type": "Feature", "properties": {"name": "Lewis", "id": "54041", "FIPS": "54041", "FIPS State": 54, "ST": "WV", "County": "Lewis County,WV", "State": "West Virginia"}, "geometry": {"type": "Polygon", "coordinates": [[[-80.452875, 39.141746], [-80.29952, 39.103408], [-80.392628, 38.725499], [-80.458352, 38.74193], [-80.606229, 38.906238], [-80.726722, 39.097931], [-80.595275, 39.169131], [-80.452875, 39.141746]]]}}, {"type": "Feature", "properties": {"name": "Perry", "id": "17145", "FIPS": "17145", "FIPS State": 17, "ST": "IL", "County": "Perry County,IL", "State": "Illinois"}, "geometry": {"type": "Polygon", "coordinates": [[[-89.593888, 38.22162], [-89.144779, 38.210667], [-89.128348, 38.123036], [-89.177641, 37.947773], [-89.566503, 37.95325], [-89.593888, 37.95325], [-89.593888, 38.22162]]]}}, {"type": "Feature", "properties": {"name": "Butler", "id": "21031", "FIPS": "21031", "FIPS State": 21, "ST": "KY", "County": "Butler County,KY", "State": "Kentucky"}, "geometry": {"type": "Polygon", "coordinates": [[[-86.614433, 37.394602], [-86.466555, 37.323402], [-86.400832, 37.170048], [-86.674679, 37.000263], [-86.943049, 37.071463], [-86.899233, 37.213863], [-86.614433, 37.394602]]]}}, {"type": "Feature", "properties": {"name": "Surry", "id": "37171", "FIPS": "37171", "FIPS State": 37, "ST": "NC", "County": "Surry County,NC", "State": "North Carolina"}, "geometry": {"type": "Polygon", "coordinates": [[[-80.83626, 36.556631], [-80.611706, 36.556631], [-80.441921, 36.551154], [-80.452875, 36.260876], [-80.452875, 36.238968], [-80.874599, 36.238968], [-80.967707, 36.403276], [-80.901984, 36.562108], [-80.83626, 36.556631], [-80.83626, 36.556631]]]}}, {"type": "Feature", "properties": {"name": "Muhlenberg", "id": "21177", "FIPS": "21177", "FIPS State": 21, "ST": "KY", "County": "Muhlenberg County,KY", "State": "Kentucky"}, "geometry": {"type": "Polygon", "coordinates": [[[-87.10188, 37.41651], [-86.899233, 37.213863], [-86.943049, 37.071463], [-86.954003, 37.071463], [-87.052588, 37.060509], [-87.260711, 37.071463], [-87.331912, 37.159094], [-87.293573, 37.389126], [-87.10188, 37.41651]]]}}, {"type": "Feature", "properties": {"name": "Linn", "id": "20107", "FIPS": "20107", "FIPS State": 20, "ST": "KS", "County": "Linn County,KS", "State": "Kansas"}, "geometry": {"type": "Polygon", "coordinates": [[[-95.010582, 38.391406], [-94.610765, 38.391406], [-94.616242, 38.062789], [-94.616242, 38.035405], [-94.933905, 38.035405], [-95.076305, 38.035405], [-95.065351, 38.391406], [-95.010582, 38.391406]]]}}, {"type": "Feature", "properties": {"name": "Nemaha", "id": "20131", "FIPS": "20131", "FIPS State": 20, "ST": "KS", "County": "Nemaha County,KS", "State": "Kansas"}, "geometry": {"type": "Polygon", "coordinates": [[[-96.237417, 40.001626], [-96.012862, 40.001626], [-95.788308, 40.001626], [-95.788308, 39.651102], [-96.03477, 39.563471], [-96.237417, 39.568948], [-96.237417, 40.001626], [-96.237417, 40.001626]]]}}, {"type": "Feature", "properties": {"name": "Montgomery", "id": "29139", "FIPS": "29139", "FIPS State": 29, "ST": "MO", "County": "Montgomery County,MO", "State": "Missouri"}, "geometry": {"type": "Polygon", "coordinates": [[[-91.625833, 39.147223], [-91.406755, 39.141746], [-91.258878, 39.141746], [-91.264355, 38.993869], [-91.417709, 38.709068], [-91.642264, 38.703591], [-91.647741, 38.703591], [-91.63131, 39.059592], [-91.625833, 39.147223]]]}}, {"type": "Feature", "properties": {"name": "Johnson", "id": "21115", "FIPS": "21115", "FIPS State": 21, "ST": "KY", "County": "Johnson County,KY", "State": "Kentucky"}, "geometry": {"type": "Polygon", "coordinates": [[[-82.851774, 37.975158], [-82.610789, 37.876573], [-82.638174, 37.717742], [-82.786051, 37.745127], [-82.939406, 37.717742], [-83.005129, 37.860142], [-82.988698, 37.964204], [-82.851774, 37.975158]]]}}, {"type": "Feature", "properties": {"name": "Polk", "id": "29167", "FIPS": "29167", "FIPS State": 29, "ST": "MO", "County": "Polk County,MO", "State": "Missouri"}, "geometry": {"type": "Polygon", "coordinates": [[[-93.630393, 37.827281], [-93.575624, 37.827281], [-93.186761, 37.805373], [-93.181284, 37.41651], [-93.619439, 37.427464], [-93.613962, 37.575342], [-93.630393, 37.827281]]]}}, {"type": "Feature", "properties": {"name": "Park", "id": "56029", "FIPS": "56029", "FIPS State": 56, "ST": "WY", "County": "Park County,WY", "State": "Wyoming"}, "geometry": {"type": "Polygon", "coordinates": [[[-109.798321, 45.002073], [-108.620779, 45.002073], [-108.549579, 44.169578], [-108.549579, 44.081947], [-109.310873, 43.813577], [-110.055737, 44.010746], [-110.3734, 44.580348], [-111.058017, 44.667979], [-111.041587, 45.002073], [-109.798321, 45.002073]]]}}, {"type": "Feature", "properties": {"name": "Blaine", "id": "16013", "FIPS": "16013", "FIPS State": 16, "ST": "ID", "County": "Blaine County,ID", "State": "Idaho"}, "geometry": {"type": "Polygon", "coordinates": [[[-114.656367, 43.917638], [-113.796488, 43.567114], [-113.007808, 43.282313], [-113.007808, 43.112528], [-113.23784, 42.625081], [-113.473348, 42.668896], [-113.413102, 43.200159], [-113.714333, 43.200159], [-114.377043, 43.200159], [-114.716614, 43.813577], [-114.990461, 43.857392], [-114.968553, 43.939546], [-114.656367, 43.917638]]]}}, {"type": "Feature", "properties": {"name": "Cumberland", "id": "21057", "FIPS": "21057", "FIPS State": 21, "ST": "KY", "County": "Cumberland County,KY", "State": "Kentucky"}, "geometry": {"type": "Polygon", "coordinates": [[[-85.447844, 36.940016], [-85.234244, 36.923586], [-85.217813, 36.852385], [-85.29449, 36.627831], [-85.43689, 36.616877], [-85.595722, 36.819524], [-85.453321, 36.940016], [-85.447844, 36.940016]]]}}, {"type": "Feature", "properties": {"name": "Madison", "id": "30057", "FIPS": "30057", "FIPS State": 30, "ST": "MT", "County": "Madison County,MT", "State": "Montana"}, "geometry": {"type": "Polygon", "coordinates": [[[-111.967189, 45.850998], [-111.802881, 45.796229], [-111.353772, 45.642875], [-111.37568, 44.750133], [-111.479742, 44.711795], [-112.169836, 44.826811], [-112.684669, 45.626444], [-112.191744, 45.746937], [-111.967189, 45.850998]]]}}, {"type": "Feature", "properties": {"name": "Wyandot", "id": "39175", "FIPS": "39175", "FIPS State": 39, "ST": "OH", "County": "Wyandot County,OH", "State": "Ohio"}, "geometry": {"type": "Polygon", "coordinates": [[[-83.114668, 40.992952], [-83.109191, 40.702674], [-83.421376, 40.686244], [-83.514484, 40.81769], [-83.421376, 40.992952], [-83.114668, 40.992952]]]}}, {"type": "Feature", "properties": {"name": "Barry", "id": "29009", "FIPS": "29009", "FIPS State": 29, "ST": "MO", "County": "Barry County,MO", "State": "Missouri"}, "geometry": {"type": "Polygon", "coordinates": [[[-94.008302, 36.929063], [-93.608485, 36.923586], [-93.586578, 36.496384], [-93.728978, 36.496384], [-93.865902, 36.496384], [-94.079502, 36.496384], [-94.068548, 36.748324], [-94.063071, 36.929063], [-94.008302, 36.929063]]]}}, {"type": "Feature", "properties": {"name": "Humphreys", "id": "47085", "FIPS": "47085", "FIPS State": 47, "ST": "TN", "County": "Humphreys County,TN", "State": "Tennessee"}, "geometry": {"type": "Polygon", "coordinates": [[[-87.879606, 36.233491], [-87.56742, 36.178722], [-87.534558, 35.992506], [-87.715298, 35.839151], [-87.96176, 35.839151], [-87.950806, 36.244445], [-87.879606, 36.233491]]]}}, {"type": "Feature", "properties": {"name": "Audrain", "id": "29007", "FIPS": "29007", "FIPS State": 29, "ST": "MO", "County": "Audrain County,MO", "State": "Missouri"}, "geometry": {"type": "Polygon", "coordinates": [[[-92.31045, 39.34987], [-91.718941, 39.338916], [-91.439617, 39.317009], [-91.406755, 39.141746], [-91.625833, 39.147223], [-91.63131, 39.059592], [-92.107804, 39.065069], [-92.315927, 39.245808], [-92.31045, 39.34987]]]}}, {"type": "Feature", "properties": {"name": "Barnwell", "id": "45011", "FIPS": "45011", "FIPS State": 45, "ST": "SC", "County": "Barnwell County,SC", "State": "South Carolina"}, "geometry": {"type": "Polygon", "coordinates": [[[-81.373001, 33.489544], [-81.225123, 33.440252], [-81.192262, 33.117112], [-81.613986, 33.095204], [-81.756386, 33.199266], [-81.373001, 33.489544]]]}}, {"type": "Feature", "properties": {"name": "Putnam", "id": "18133", "FIPS": "18133", "FIPS State": 18, "ST": "IN", "County": "Putnam County,IN", "State": "Indiana"}, "geometry": {"type": "Polygon", "coordinates": [[[-87.008772, 39.864703], [-86.696587, 39.864703], [-86.658248, 39.601809], [-86.685633, 39.470363], [-86.937572, 39.47584], [-87.014249, 39.607286], [-87.008772, 39.864703]]]}}, {"type": "Feature", "properties": {"name": "Concordia", "id": "22029", "FIPS": "22029", "FIPS State": 22, "ST": "LA", "County": "Concordia County,LA", "State": "Louisiana"}, "geometry": {"type": "Polygon", "coordinates": [[[-91.428663, 31.753354], [-91.379371, 31.731446], [-91.587494, 31.189229], [-91.636787, 30.997536], [-91.664172, 30.970151], [-91.658695, 30.992059], [-91.724418, 31.046829], [-91.833957, 31.265906], [-91.543679, 31.753354], [-91.428663, 31.753354]]]}}, {"type": "Feature", "properties": {"name": "Phillips", "id": "05107", "FIPS": "05107", "FIPS State": 5, "ST": "AR", "County": "Phillips County,AR", "State": "Arkansas"}, "geometry": {"type": "Polygon", "coordinates": [[[-91.050754, 34.645178], [-90.585214, 34.639701], [-90.568783, 34.524686], [-90.957646, 34.119392], [-90.952169, 34.119392], [-91.116477, 34.119392], [-91.056231, 34.33847], [-91.050754, 34.645178]]]}}, {"type": "Feature", "properties": {"name": "Marshall", "id": "47117", "FIPS": "47117", "FIPS State": 47, "ST": "TN", "County": "Marshall County,TN", "State": "Tennessee"}, "geometry": {"type": "Polygon", "coordinates": [[[-86.784218, 35.707705], [-86.685633, 35.707705], [-86.641817, 35.685797], [-86.598002, 35.362658], [-86.828033, 35.264073], [-86.95948, 35.417427], [-86.784218, 35.707705]]]}}, {"type": "Feature", "properties": {"name": "Valley", "id": "30105", "FIPS": "30105", "FIPS State": 30, "ST": "MT", "County": "Valley County,MT", "State": "Montana"}, "geometry": {"type": "Polygon", "coordinates": [[[-106.11234, 49.000239], [-105.805632, 48.562084], [-105.84397, 48.008913], [-106.419049, 47.95962], [-106.490249, 47.95962], [-107.415852, 47.69125], [-107.180344, 49.000239], [-106.11234, 49.000239]]]}}, {"type": "Feature", "properties": {"name": "Knott", "id": "21119", "FIPS": "21119", "FIPS State": 21, "ST": "KY", "County": "Knott County,KY", "State": "Kentucky"}, "geometry": {"type": "Polygon", "coordinates": [[[-82.944882, 37.498664], [-82.922975, 37.48771], [-82.709374, 37.285064], [-82.731282, 37.27411], [-82.999652, 37.197433], [-83.125621, 37.405556], [-82.950359, 37.504141], [-82.944882, 37.498664]]]}}, {"type": "Feature", "properties": {"name": "Livingston", "id": "21139", "FIPS": "21139", "FIPS State": 21, "ST": "KY", "County": "Livingston County,KY", "State": "Kentucky"}, "geometry": {"type": "Polygon", "coordinates": [[[-88.361576, 37.405556], [-88.3561, 37.405556], [-88.191791, 37.14814], [-88.241084, 36.983832], [-88.432777, 37.049555], [-88.482069, 37.022171], [-88.564223, 37.082417], [-88.487546, 37.065986], [-88.416346, 37.421987], [-88.361576, 37.405556]]]}}, {"type": "Feature", "properties": {"name": "Vilas", "id": "55125", "FIPS": "55125", "FIPS State": 55, "ST": "WI", "County": "Vilas County,WI", "State": "Wisconsin"}, "geometry": {"type": "Polygon", "coordinates": [[[-89.927981, 46.300108], [-88.991425, 46.097461], [-88.931178, 46.075553], [-89.046194, 45.894814], [-89.298133, 45.872906], [-90.042997, 45.894814], [-90.042997, 45.982445], [-89.927981, 46.300108]]]}}, {"type": "Feature", "properties": {"name": "Childress", "id": "48075", "FIPS": "48075", "FIPS State": 48, "ST": "TX", "County": "Childress County,TX", "State": "Texas"}, "geometry": {"type": "Polygon", "coordinates": [[[-100.416322, 34.74924], [-100.000075, 34.743763], [-100.000075, 34.563024], [-100.000075, 34.311085], [-100.416322, 34.311085], [-100.416322, 34.74924]]]}}, {"type": "Feature", "properties": {"name": "Colfax", "id": "31037", "FIPS": "31037", "FIPS State": 31, "ST": "NE", "County": "Colfax County,NE", "State": "Nebraska"}, "geometry": {"type": "Polygon", "coordinates": [[[-97.250651, 41.743293], [-97.020619, 41.743293], [-96.905603, 41.743293], [-96.905603, 41.453015], [-97.256128, 41.376338], [-97.250651, 41.743293], [-97.250651, 41.743293]]]}}, {"type": "Feature", "properties": {"name": "Skamania", "id": "53059", "FIPS": "53059", "FIPS State": 53, "ST": "WA", "County": "Skamania County,WA", "State": "Washington"}, "geometry": {"type": "Polygon", "coordinates": [[[-121.52445, 46.387739], [-121.52445, 46.042691], [-121.52445, 45.725029], [-121.924267, 45.648352], [-122.247407, 45.549767], [-122.247407, 46.053645], [-122.24193, 46.387739], [-121.52445, 46.387739]]]}}, {"type": "Feature", "properties": {"name": "Clare", "id": "26035", "FIPS": "26035", "FIPS State": 26, "ST": "MI", "County": "Clare County,MI", "State": "Michigan"}, "geometry": {"type": "Polygon", "coordinates": [[[-85.086366, 44.164101], [-84.850858, 44.158624], [-84.609872, 44.158624], [-84.604395, 43.813577], [-84.752273, 43.813577], [-85.086366, 43.813577], [-85.086366, 44.164101]]]}}, {"type": "Feature", "properties": {"name": "Logan", "id": "40083", "FIPS": "40083", "FIPS State": 40, "ST": "OK", "County": "Logan County,OK", "State": "Oklahoma"}, "geometry": {"type": "Polygon", "coordinates": [[[-97.677852, 36.162291], [-97.458774, 36.162291], [-97.354713, 36.156814], [-97.141112, 35.943213], [-97.141112, 35.724136], [-97.672375, 35.724136], [-97.677852, 36.162291]]]}}, {"type": "Feature", "properties": {"name": "Benton", "id": "19011", "FIPS": "19011", "FIPS State": 19, "ST": "IA", "County": "Benton County,IA", "State": "Iowa"}, "geometry": {"type": "Polygon", "coordinates": [[[-91.888726, 42.296464], [-91.82848, 42.296464], [-91.833957, 41.863786], [-92.063988, 41.863786], [-92.299497, 41.863786], [-92.299497, 42.296464], [-92.063988, 42.296464], [-91.888726, 42.296464]]]}}, {"type": "Feature", "properties": {"name": "Washington", "id": "37187", "FIPS": "37187", "FIPS State": 37, "ST": "NC", "County": "Washington County,NC", "State": "North Carolina"}, "geometry": {"type": "Polygon", "coordinates": [[[-76.367077, 35.943213], [-76.394462, 35.696751], [-76.635447, 35.707705], [-76.640924, 35.707705], [-76.843571, 35.707705], [-76.761417, 35.866536], [-76.690217, 35.943213], [-76.367077, 35.943213]]]}}, {"type": "Feature", "properties": {"name": "Butler", "id": "19023", "FIPS": "19023", "FIPS State": 19, "ST": "IA", "County": "Butler County,IA", "State": "Iowa"}, "geometry": {"type": "Polygon", "coordinates": [[[-93.022453, 42.909881], [-92.556913, 42.904404], [-92.556913, 42.641511], [-92.551436, 42.55388], [-92.907437, 42.55388], [-93.02793, 42.55388], [-93.022453, 42.909881]]]}}, {"type": "Feature", "properties": {"name": "Grand", "id": "08049", "FIPS": "08049", "FIPS State": 8, "ST": "CO", "County": "Grand County,CO", "State": "Colorado"}, "geometry": {"type": "Polygon", "coordinates": [[[-105.854924, 40.483597], [-105.652277, 40.259042], [-105.674185, 39.930426], [-105.690616, 39.853749], [-105.926124, 39.700394], [-106.43548, 39.924949], [-106.627173, 39.924949], [-106.654557, 40.445258], [-105.854924, 40.483597]]]}}, {"type": "Feature", "properties": {"name": "Ballard", "id": "21007", "FIPS": "21007", "FIPS State": 21, "ST": "KY", "County": "Ballard County,KY", "State": "Kentucky"}, "geometry": {"type": "Polygon", "coordinates": [[[-88.936655, 37.230294], [-88.816163, 36.956447], [-89.100963, 36.945493], [-89.133825, 36.983832], [-89.172164, 37.065986], [-88.936655, 37.230294]]]}}, {"type": "Feature", "properties": {"name": "Pointe Coupee", "id": "22077", "FIPS": "22077", "FIPS State": 22, "ST": "LA", "County": "Pointe Coupee County,LA", "State": "Louisiana"}, "geometry": {"type": "Polygon", "coordinates": [[[-91.762756, 31.00849], [-91.751803, 31.019444], [-91.658695, 30.992059], [-91.664172, 30.970151], [-91.330078, 30.657966], [-91.483432, 30.499135], [-91.521771, 30.499135], [-91.70251, 30.499135], [-91.75728, 30.499135], [-91.817526, 30.849659], [-91.762756, 31.00849]]]}}, {"type": "Feature", "properties": {"name": "Lawrence", "id": "46081", "FIPS": "46081", "FIPS State": 46, "ST": "SD", "County": "Lawrence County,SD", "State": "South Dakota"}, "geometry": {"type": "Polygon", "coordinates": [[[-103.812025, 44.602256], [-103.565563, 44.602256], [-103.450547, 44.142193], [-104.053011, 44.142193], [-104.053011, 44.180532], [-104.058488, 44.569394], [-103.812025, 44.602256]]]}}, {"type": "Feature", "properties": {"name": "Jasper", "id": "45053", "FIPS": "45053", "FIPS State": 45, "ST": "SC", "County": "Jasper County,SC", "State": "South Carolina"}, "geometry": {"type": "Polygon", "coordinates": [[[-81.142969, 32.657049], [-80.869122, 32.662526], [-80.880076, 32.08197], [-80.885553, 32.032678], [-81.148446, 32.224371], [-81.279893, 32.558464], [-81.142969, 32.657049]]]}}, {"type": "Feature", "properties": {"name": "Big Horn", "id": "30003", "FIPS": "30003", "FIPS State": 30, "ST": "MT", "County": "Big Horn County,MT", "State": "Montana"}, "geometry": {"type": "Polygon", "coordinates": [[[-107.426806, 45.976968], [-106.939358, 45.867429], [-106.769573, 45.177335], [-106.282125, 45.177335], [-106.265695, 44.991119], [-107.914254, 45.002073], [-108.248347, 45.002073], [-108.642687, 45.462136], [-108.067608, 45.516905], [-108.0457, 45.900291], [-107.50896, 46.042691], [-107.426806, 45.976968]]]}}, {"type": "Feature", "properties": {"name": "Union", "id": "12125", "FIPS": "12125", "FIPS State": 12, "ST": "FL", "County": "Union County,FL", "State": "Florida"}, "geometry": {"type": "Polygon", "coordinates": [[[-82.298603, 30.143133], [-82.145249, 30.143133], [-82.419096, 29.924056], [-82.506727, 29.940487], [-82.528635, 29.940487], [-82.457435, 30.137656], [-82.298603, 30.143133]]]}}, {"type": "Feature", "properties": {"name": "Winston", "id": "28159", "FIPS": "28159", "FIPS State": 28, "ST": "MS", "County": "Winston County,MS", "State": "Mississippi"}, "geometry": {"type": "Polygon", "coordinates": [[[-89.09001, 33.286897], [-88.810686, 33.286897], [-88.810686, 32.925419], [-88.914747, 32.925419], [-89.155733, 32.930896], [-89.320041, 32.930896], [-89.320041, 33.106158], [-89.09001, 33.286897]]]}}, {"type": "Feature", "properties": {"name": "Reeves", "id": "48389", "FIPS": "48389", "FIPS State": 48, "ST": "TX", "County": "Reeves County,TX", "State": "Texas"}, "geometry": {"type": "Polygon", "coordinates": [[[-104.025626, 31.999816], [-103.98181, 31.999816], [-103.609378, 31.649292], [-103.012392, 31.369968], [-103.587471, 30.767505], [-104.102303, 31.107075], [-104.025626, 31.999816]]]}}, {"type": "Feature", "properties": {"name": "Pike", "id": "29163", "FIPS": "29163", "FIPS State": 29, "ST": "MO", "County": "Pike County,MO", "State": "Missouri"}, "geometry": {"type": "Polygon", "coordinates": [[[-91.198632, 39.596333], [-91.176724, 39.596333], [-90.935738, 39.399163], [-90.722138, 39.223901], [-91.149339, 39.229378], [-91.258878, 39.141746], [-91.406755, 39.141746], [-91.439617, 39.317009], [-91.198632, 39.596333]]]}}, {"type": "Feature", "properties": {"name": "Hawkins", "id": "47073", "FIPS": "47073", "FIPS State": 47, "ST": "TN", "County": "Hawkins County,TN", "State": "Tennessee"}, "geometry": {"type": "Polygon", "coordinates": [[[-82.654605, 36.594969], [-82.610789, 36.594969], [-82.681989, 36.430661], [-82.703897, 36.408753], [-83.081806, 36.244445], [-83.158483, 36.332076], [-83.257068, 36.288261], [-83.278976, 36.392322], [-82.829867, 36.594969], [-82.654605, 36.594969]]]}}, {"type": "Feature", "properties": {"name": "Jones", "id": "48253", "FIPS": "48253", "FIPS State": 48, "ST": "TX", "County": "Jones County,TX", "State": "Texas"}, "geometry": {"type": "Polygon", "coordinates": [[[-100.109614, 32.958281], [-99.989121, 32.958281], [-99.611212, 32.958281], [-99.611212, 32.514649], [-99.627643, 32.514649], [-100.136998, 32.520126], [-100.147952, 32.520126], [-100.142475, 32.958281], [-100.109614, 32.958281]]]}}, {"type": "Feature", "properties": {"name": "Lamar", "id": "48277", "FIPS": "48277", "FIPS State": 48, "ST": "TX", "County": "Lamar County,TX", "State": "Texas"}, "geometry": {"type": "Polygon", "coordinates": [[[-95.311814, 33.878407], [-95.306337, 33.380005], [-95.651384, 33.484067], [-95.859508, 33.462159], [-95.843077, 33.840068], [-95.760923, 33.87293], [-95.311814, 33.878407]]]}}, {"type": "Feature", "properties": {"name": "Moffat", "id": "08081", "FIPS": "08081", "FIPS State": 8, "ST": "CO", "County": "Moffat County,CO", "State": "Colorado"}, "geometry": {"type": "Polygon", "coordinates": [[[-107.919731, 41.003906], [-107.317267, 41.003906], [-107.43776, 40.220704], [-109.053457, 40.220704], [-109.04798, 40.653382], [-109.04798, 40.998429], [-107.919731, 41.003906]]]}}, {"type": "Feature", "properties": {"name": "Lawrence", "id": "21127", "FIPS": "21127", "FIPS State": 21, "ST": "KY", "County": "Lawrence County,KY", "State": "Kentucky"}, "geometry": {"type": "Polygon", "coordinates": [[[-82.791528, 38.243528], [-82.605312, 38.249005], [-82.495773, 37.947773], [-82.610789, 37.876573], [-82.851774, 37.975158], [-82.988698, 37.964204], [-83.02156, 38.00802], [-82.922975, 38.177805], [-82.791528, 38.243528]]]}}, {"type": "Feature", "properties": {"name": "Matagorda", "id": "48321", "FIPS": "48321", "FIPS State": 48, "ST": "TX", "County": "Matagorda County,TX", "State": "Texas"}, "geometry": {"type": "Polygon", "coordinates": [[[-95.864985, 29.223007], [-95.508984, 28.823191], [-96.379817, 28.385036], [-96.37434, 28.401466], [-96.325048, 28.642452], [-96.325048, 28.675313], [-96.308617, 28.965591], [-95.875939, 29.228484], [-95.864985, 29.223007]]]}}, {"type": "Feature", "properties": {"name": "Houston", "id": "47083", "FIPS": "47083", "FIPS State": 47, "ST": "TN", "County": "Houston County,TN", "State": "Tennessee"}, "geometry": {"type": "Polygon", "coordinates": [[[-87.753636, 36.34303], [-87.594805, 36.364938], [-87.512651, 36.332076], [-87.56742, 36.178722], [-87.879606, 36.233491], [-87.950806, 36.244445], [-87.983668, 36.353984], [-87.753636, 36.34303]]]}}, {"type": "Feature", "properties": {"name": "Polk", "id": "27119", "FIPS": "27119", "FIPS State": 27, "ST": "MN", "County": "Polk County,MN", "State": "Minnesota"}, "geometry": {"type": "Polygon", "coordinates": [[[-97.020619, 48.173221], [-96.50031, 48.173221], [-96.483879, 47.965097], [-96.352432, 47.762451], [-95.71163, 47.937713], [-95.580184, 47.932236], [-95.552799, 47.499557], [-96.067632, 47.499557], [-96.23194, 47.499557], [-96.850834, 47.499557], [-96.889173, 47.67482], [-97.146589, 48.173221], [-97.020619, 48.173221]]]}}, {"type": "Feature", "properties": {"name": "Grand", "id": "49019", "FIPS": "49019", "FIPS State": 49, "ST": "UT", "County": "Grand County,UT", "State": "Utah"}, "geometry": {"type": "Polygon", "coordinates": [[[-109.053457, 39.497748], [-109.053457, 39.366301], [-109.058934, 38.500944], [-110.022876, 38.500944], [-110.022876, 39.459409], [-109.053457, 39.497748]]]}}, {"type": "Feature", "properties": {"name": "Owsley", "id": "21189", "FIPS": "21189", "FIPS State": 21, "ST": "KY", "County": "Owsley County,KY", "State": "Kentucky"}, "geometry": {"type": "Polygon", "coordinates": [[[-83.651408, 37.537003], [-83.580208, 37.504141], [-83.547346, 37.334356], [-83.525438, 37.257679], [-83.574731, 37.279587], [-83.782854, 37.350787], [-83.886916, 37.520572], [-83.651408, 37.537003]]]}}, {"type": "Feature", "properties": {"name": "Carroll", "id": "47017", "FIPS": "47017", "FIPS State": 47, "ST": "TN", "County": "Carroll County,TN", "State": "Tennessee"}, "geometry": {"type": "Polygon", "coordinates": [[[-88.531362, 36.151337], [-88.213699, 36.118475], [-88.175361, 35.844628], [-88.180837, 35.817244], [-88.514931, 35.822721], [-88.608039, 35.789859], [-88.706624, 35.789859], [-88.690193, 36.063706], [-88.531362, 36.151337]]]}}, {"type": "Feature", "properties": {"name": "Jackson", "id": "01071", "FIPS": "01071", "FIPS State": 1, "ST": "AL", "County": "Jackson County,AL", "State": "Alabama"}, "geometry": {"type": "Polygon", "coordinates": [[[-85.864092, 34.990226], [-85.606675, 34.984749], [-85.584768, 34.858779], [-86.055785, 34.475393], [-86.329632, 34.601363], [-86.313201, 34.990226], [-85.864092, 34.990226]]]}}, {"type": "Feature", "properties": {"name": "Grant", "id": "35017", "FIPS": "35017", "FIPS State": 35, "ST": "NM", "County": "Grant County,NM", "State": "New Mexico"}, "geometry": {"type": "Polygon", "coordinates": [[[-108.182624, 33.199266], [-108.001885, 33.199266], [-107.607545, 32.607757], [-108.231916, 32.514649], [-108.215485, 31.862893], [-108.522194, 31.862893], [-108.538625, 32.514649], [-109.04798, 32.777542], [-109.04798, 33.21022], [-108.182624, 33.199266]]]}}, {"type": "Feature", "properties": {"name": "Cass", "id": "26027", "FIPS": "26027", "FIPS State": 26, "ST": "MI", "County": "Cass County,MI", "State": "Michigan"}, "geometry": {"type": "Polygon", "coordinates": [[[-86.22557, 42.07191], [-85.765507, 42.07191], [-85.792891, 41.759724], [-85.990061, 41.759724], [-86.061262, 41.759724], [-86.22557, 41.759724], [-86.22557, 42.07191]]]}}, {"type": "Feature", "properties": {"name": "Cheboygan", "id": "26031", "FIPS": "26031", "FIPS State": 26, "ST": "MI", "County": "Cheboygan County,MI", "State": "Michigan"}, "geometry": {"type": "Polygon", "coordinates": [[[-84.730365, 45.779798], [-84.730365, 45.785275], [-84.204579, 45.626444], [-84.248394, 45.199243], [-84.368887, 45.199243], [-84.735842, 45.204719], [-84.730365, 45.286874], [-84.730365, 45.779798]]]}}, {"type": "Feature", "properties": {"name": "Tallapoosa", "id": "01123", "FIPS": "01123", "FIPS State": 1, "ST": "AL", "County": "Tallapoosa County,AL", "State": "Alabama"}, "geometry": {"type": "Polygon", "coordinates": [[[-85.655968, 33.106158], [-85.595722, 33.106158], [-85.595722, 32.728249], [-85.694307, 32.596803], [-85.885999, 32.492741], [-86.006492, 32.755634], [-86.006492, 33.089727], [-85.655968, 33.106158]]]}}, {"type": "Feature", "properties": {"name": "Madison", "id": "13195", "FIPS": "13195", "FIPS State": 13, "ST": "GA", "County": "Madison County,GA", "State": "Georgia"}, "geometry": {"type": "Polygon", "coordinates": [[[-83.120145, 34.272746], [-83.114668, 34.272746], [-83.076329, 34.228931], [-82.977744, 34.042715], [-83.098237, 34.026284], [-83.257068, 33.998899], [-83.36113, 34.042715], [-83.404945, 34.196069], [-83.355653, 34.223454], [-83.120145, 34.272746]]]}}, {"type": "Feature", "properties": {"name": "Hampshire", "id": "54027", "FIPS": "54027", "FIPS State": 54, "ST": "WV", "County": "Hampshire County,WV", "State": "West Virginia"}, "geometry": {"type": "Polygon", "coordinates": [[[-78.656438, 39.536086], [-78.470222, 39.514178], [-78.349729, 39.464886], [-78.508561, 39.086977], [-78.979578, 39.240331], [-78.656438, 39.536086]]]}}, {"type": "Feature", "properties": {"name": "Marion", "id": "01093", "FIPS": "01093", "FIPS State": 1, "ST": "AL", "County": "Marion County,AL", "State": "Alabama"}, "geometry": {"type": "Polygon", "coordinates": [[[-88.175361, 34.322039], [-87.633143, 34.305608], [-87.63862, 34.004376], [-87.63862, 33.916745], [-87.950806, 33.922222], [-88.208222, 34.059146], [-88.202745, 34.08653], [-88.175361, 34.322039]]]}}, {"type": "Feature", "properties": {"name": "Huron", "id": "26063", "FIPS": "26063", "FIPS State": 26, "ST": "MI", "County": "Huron County,MI", "State": "Michigan"}, "geometry": {"type": "Polygon", "coordinates": [[[-82.605312, 43.693084], [-82.69842, 43.687607], [-83.120145, 43.676653], [-83.465192, 43.725946], [-83.465192, 43.731422], [-82.917498, 44.070993], [-82.605312, 43.693084]]]}}, {"type": "Feature", "properties": {"name": "Perry", "id": "01105", "FIPS": "01105", "FIPS State": 1, "ST": "AL", "County": "Perry County,AL", "State": "Alabama"}, "geometry": {"type": "Polygon", "coordinates": [[[-87.326435, 32.876127], [-87.019726, 32.837788], [-87.019726, 32.728249], [-87.025203, 32.717295], [-87.474312, 32.306525], [-87.523605, 32.481787], [-87.419543, 32.876127], [-87.326435, 32.876127]]]}}, {"type": "Feature", "properties": {"name": "Oscoda", "id": "26135", "FIPS": "26135", "FIPS State": 26, "ST": "MI", "County": "Oscoda County,MI", "State": "Michigan"}, "geometry": {"type": "Polygon", "coordinates": [[[-83.952639, 44.854195], [-83.886916, 44.854195], [-83.886916, 44.509148], [-83.925255, 44.509148], [-84.368887, 44.509148], [-84.374364, 44.854195], [-83.952639, 44.854195]]]}}, {"type": "Feature", "properties": {"name": "Fulton", "id": "39051", "FIPS": "39051", "FIPS State": 39, "ST": "OH", "County": "Fulton County,OH", "State": "Ohio"}, "geometry": {"type": "Polygon", "coordinates": [[[-83.89787, 41.721385], [-83.881439, 41.721385], [-83.881439, 41.485877], [-83.886916, 41.485877], [-84.341502, 41.485877], [-84.401749, 41.704955], [-84.357933, 41.704955], [-83.89787, 41.721385]]]}}, {"type": "Feature", "properties": {"name": "Clinton", "id": "18023", "FIPS": "18023", "FIPS State": 18, "ST": "IN", "County": "Clinton County,IN", "State": "Indiana"}, "geometry": {"type": "Polygon", "coordinates": [[[-86.357016, 40.434304], [-86.242001, 40.374058], [-86.242001, 40.215227], [-86.242001, 40.182365], [-86.696587, 40.176888], [-86.696587, 40.215227], [-86.696587, 40.434304], [-86.373447, 40.434304], [-86.357016, 40.434304]]]}}, {"type": "Feature", "properties": {"name": "Morehouse", "id": "22067", "FIPS": "22067", "FIPS State": 22, "ST": "LA", "County": "Morehouse County,LA", "State": "Louisiana"}, "geometry": {"type": "Polygon", "coordinates": [[[-92.069465, 33.007573], [-91.461525, 33.007573], [-91.43414, 33.007573], [-91.636787, 32.668003], [-91.910634, 32.503695], [-91.998265, 32.706342], [-92.063988, 32.722772], [-92.069465, 33.007573]]]}}, {"type": "Feature", "properties": {"name": "Bremer", "id": "19017", "FIPS": "19017", "FIPS State": 19, "ST": "IA", "County": "Bremer County,IA", "State": "Iowa"}, "geometry": {"type": "Polygon", "coordinates": [[[-92.387128, 42.909881], [-92.080419, 42.904404], [-92.080419, 42.641511], [-92.469282, 42.641511], [-92.556913, 42.641511], [-92.556913, 42.904404], [-92.387128, 42.909881]]]}}, {"type": "Feature", "properties": {"name": "Pontotoc", "id": "40123", "FIPS": "40123", "FIPS State": 40, "ST": "OK", "County": "Pontotoc County,OK", "State": "Oklahoma"}, "geometry": {"type": "Polygon", "coordinates": [[[-96.932988, 34.962841], [-96.774157, 34.902595], [-96.489356, 34.908072], [-96.407202, 34.765671], [-96.511264, 34.502778], [-96.828926, 34.508255], [-96.932988, 34.634225], [-96.932988, 34.853302], [-96.932988, 34.962841]]]}}, {"type": "Feature", "properties": {"name": "Henderson", "id": "47077", "FIPS": "47077", "FIPS State": 47, "ST": "TN", "County": "Henderson County,TN", "State": "Tennessee"}, "geometry": {"type": "Polygon", "coordinates": [[[-88.514931, 35.822721], [-88.180837, 35.817244], [-88.241084, 35.422904], [-88.361576, 35.417427], [-88.613516, 35.587212], [-88.608039, 35.789859], [-88.514931, 35.822721]]]}}, {"type": "Feature", "properties": {"name": "Gunnison", "id": "08051", "FIPS": "08051", "FIPS State": 8, "ST": "CO", "County": "Gunnison County,CO", "State": "Colorado"}, "geometry": {"type": "Polygon", "coordinates": [[[-107.503483, 39.218424], [-107.393944, 39.256762], [-106.599788, 38.999346], [-106.249264, 38.424267], [-106.999605, 38.424267], [-106.999605, 38.144943], [-107.569206, 38.144943], [-107.63493, 38.303775], [-107.498006, 38.67073], [-107.503483, 39.218424]]]}}, {"type": "Feature", "properties": {"name": "Pope", "id": "17151", "FIPS": "17151", "FIPS State": 17, "ST": "IL", "County": "Pope County,IL", "State": "Illinois"}, "geometry": {"type": "Polygon", "coordinates": [[[-88.410869, 37.597249], [-88.416346, 37.421987], [-88.487546, 37.065986], [-88.712101, 37.334356], [-88.706624, 37.597249], [-88.410869, 37.597249]]]}}, {"type": "Feature", "properties": {"name": "Miller", "id": "29131", "FIPS": "29131", "FIPS State": 29, "ST": "MO", "County": "Miller County,MO", "State": "Missouri"}, "geometry": {"type": "Polygon", "coordinates": [[[-92.611682, 38.429744], [-92.496666, 38.429744], [-92.195435, 38.336636], [-92.195435, 38.292821], [-92.184481, 38.018974], [-92.359743, 38.018974], [-92.403558, 38.018974], [-92.693836, 38.22162], [-92.622636, 38.429744], [-92.611682, 38.429744]]]}}, {"type": "Feature", "properties": {"name": "Irwin", "id": "13155", "FIPS": "13155", "FIPS State": 13, "ST": "GA", "County": "Irwin County,GA", "State": "Georgia"}, "geometry": {"type": "Polygon", "coordinates": [[[-83.454238, 31.758831], [-82.999652, 31.6712], [-83.147529, 31.47403], [-83.240637, 31.47403], [-83.339222, 31.47403], [-83.498053, 31.594523], [-83.454238, 31.758831]]]}}, {"type": "Feature", "properties": {"name": "Coffee", "id": "01031", "FIPS": "01031", "FIPS State": 1, "ST": "AL", "County": "Coffee County,AL", "State": "Alabama"}, "geometry": {"type": "Polygon", "coordinates": [[[-86.055785, 31.61643], [-85.787415, 31.61643], [-85.792891, 31.194706], [-86.192708, 31.194706], [-86.192708, 31.441168], [-86.143416, 31.61643], [-86.055785, 31.61643]]]}}, {"type": "Feature", "properties": {"name": "Gratiot", "id": "26057", "FIPS": "26057", "FIPS State": 26, "ST": "MI", "County": "Gratiot County,MI", "State": "Michigan"}, "geometry": {"type": "Polygon", "coordinates": [[[-84.774181, 43.468529], [-84.609872, 43.468529], [-84.368887, 43.468529], [-84.368887, 43.128959], [-84.368887, 43.118005], [-84.719411, 43.118005], [-84.834427, 43.118005], [-84.845381, 43.468529], [-84.774181, 43.468529]]]}}, {"type": "Feature", "properties": {"name": "Hardin", "id": "39065", "FIPS": "39065", "FIPS State": 39, "ST": "OH", "County": "Hardin County,OH", "State": "Ohio"}, "geometry": {"type": "Polygon", "coordinates": [[[-83.574731, 40.81769], [-83.514484, 40.81769], [-83.421376, 40.686244], [-83.415899, 40.505505], [-83.519961, 40.505505], [-83.881439, 40.538366], [-83.881439, 40.642428], [-83.881439, 40.81769], [-83.574731, 40.81769]]]}}, {"type": "Feature", "properties": {"name": "Ketchikan Gateway", "id": "02130", "FIPS": "02130", "FIPS State": 2, "ST": "AK", "County": "Ketchikan Gateway County,AK", "State": "Alaska"}, "geometry": {"type": "Polygon", "coordinates": [[[-131.706083, 55.89023], [-131.240543, 55.977861], [-131.032419, 55.28229], [-131.843006, 55.457552], [-131.706083, 55.89023]]]}}, {"type": "Feature", "properties": {"name": "Pontotoc", "id": "28115", "FIPS": "28115", "FIPS State": 28, "ST": "MS", "County": "Pontotoc County,MS", "State": "Mississippi"}, "geometry": {"type": "Polygon", "coordinates": [[[-89.09001, 34.382285], [-88.827116, 34.365854], [-88.827116, 34.075577], [-89.139302, 34.075577], [-89.243364, 34.163208], [-89.248841, 34.376808], [-89.09001, 34.382285]]]}}, {"type": "Feature", "properties": {"name": "Scott", "id": "28123", "FIPS": "28123", "FIPS State": 28, "ST": "MS", "County": "Scott County,MS", "State": "Mississippi"}, "geometry": {"type": "Polygon", "coordinates": [[[-89.730812, 32.635141], [-89.320041, 32.574895], [-89.320041, 32.224371], [-89.456965, 32.224371], [-89.730812, 32.224371], [-89.785581, 32.585849], [-89.730812, 32.635141]]]}}, {"type": "Feature", "properties": {"name": "Jackson", "id": "21109", "FIPS": "21109", "FIPS State": 21, "ST": "KY", "County": "Jackson County,KY", "State": "Kentucky"}, "geometry": {"type": "Polygon", "coordinates": [[[-83.963593, 37.580818], [-83.903347, 37.54248], [-83.886916, 37.520572], [-83.782854, 37.350787], [-83.941686, 37.252202], [-84.138855, 37.317925], [-84.199102, 37.520572], [-84.089563, 37.564388], [-83.963593, 37.580818]]]}}, {"type": "Feature", "properties": {"name": "Roosevelt", "id": "35041", "FIPS": "35041", "FIPS State": 35, "ST": "NM", "County": "Roosevelt County,NM", "State": "New Mexico"}, "geometry": {"type": "Polygon", "coordinates": [[[-103.740825, 34.60684], [-103.740825, 34.305608], [-103.045254, 34.300131], [-103.045254, 33.823637], [-103.050731, 33.571698], [-103.510794, 33.571698], [-103.877749, 34.081054], [-103.943472, 34.081054], [-103.948949, 34.60684], [-103.740825, 34.60684]]]}}, {"type": "Feature", "properties": {"name": "Beaufort", "id": "37013", "FIPS": "37013", "FIPS State": 37, "ST": "NC", "County": "Beaufort County,NC", "State": "North Carolina"}, "geometry": {"type": "Polygon", "coordinates": [[[-77.172187, 35.73509], [-76.843571, 35.707705], [-76.640924, 35.707705], [-76.547816, 35.390042], [-76.602586, 35.335273], [-76.624493, 35.253119], [-76.89834, 35.253119], [-77.188618, 35.417427], [-77.172187, 35.73509]]]}}, {"type": "Feature", "properties": {"name": "Allen", "id": "22003", "FIPS": "22003", "FIPS State": 22, "ST": "LA", "County": "Allen County,LA", "State": "Louisiana"}, "geometry": {"type": "Polygon", "coordinates": [[[-92.660975, 30.898951], [-92.595251, 30.893474], [-92.628113, 30.488181], [-92.770513, 30.488181], [-93.131992, 30.422457], [-92.978637, 30.877043], [-92.825283, 30.887997], [-92.660975, 30.898951]]]}}, {"type": "Feature", "properties": {"name": "Kossuth", "id": "19109", "FIPS": "19109", "FIPS State": 19, "ST": "IA", "County": "Kossuth County,IA", "State": "Iowa"}, "geometry": {"type": "Polygon", "coordinates": [[[-94.249287, 43.501391], [-93.969963, 43.501391], [-93.969963, 43.254929], [-93.969963, 42.909881], [-94.090456, 42.909881], [-94.44098, 42.909881], [-94.44098, 43.254929], [-94.44098, 43.501391], [-94.249287, 43.501391]]]}}]}