{"type": "FeatureCollection", "crs": {"type": "name", "properties": {"name": "urn:ogc:def:crs:OGC:1.3:CRS84"}}, "features": [{"type": "Feature", "properties": {"name": "Juab", "id": "49023", "FIPS": "49023", "FIPS State": 49, "ST": "UT", "County": "Juab County,UT", "State": "Utah"}, "geometry": {"type": "Polygon", "coordinates": [[[-112.18079, 40.01258], [-111.64405, 39.81541], [-112.016482, 39.317009], [-112.23556, 39.552517], [-114.048427, 39.541563], [-114.048427, 39.908518], [-112.339621, 39.903041], [-112.18079, 40.01258]]]}}, {"type": "Feature", "properties": {"name": "Taylor", "id": "21217", "FIPS": "21217", "FIPS State": 21, "ST": "KY", "County": "Taylor County,KY", "State": "Kentucky"}, "geometry": {"type": "Polygon", "coordinates": [[[-85.584768, 37.47128], [-85.464275, 37.465803], [-85.075412, 37.411033], [-85.163043, 37.312448], [-85.354736, 37.191956], [-85.584768, 37.47128]]]}}, {"type": "Feature", "properties": {"name": "Perry", "id": "28111", "FIPS": "28111", "FIPS State": 28, "ST": "MS", "County": "Perry County,MS", "State": "Mississippi"}, "geometry": {"type": "Polygon", "coordinates": [[[-89.144779, 31.435691], [-88.942132, 31.435691], [-88.843547, 31.435691], [-88.832593, 30.997536], [-88.887363, 30.909905], [-88.996902, 30.909905], [-89.139302, 30.909905], [-89.144779, 31.435691]]]}}, {"type": "Feature", "properties": {"name": "Sherman", "id": "31163", "FIPS": "31163", "FIPS State": 31, "ST": "NE", "County": "Sherman County,NE", "State": "Nebraska"}, "geometry": {"type": "Polygon", "coordinates": [[[-98.822533, 41.392769], [-98.751332, 41.392769], [-98.745855, 41.392769], [-98.745855, 41.047722], [-99.052564, 41.047722], [-99.205918, 41.047722], [-99.205918, 41.392769], [-98.822533, 41.392769]]]}}, {"type": "Feature", "properties": {"name": "Shelby", "id": "29205", "FIPS": "29205", "FIPS State": 29, "ST": "MO", "County": "Shelby County,MO", "State": "Missouri"}, "geometry": {"type": "Polygon", "coordinates": [[[-91.998265, 39.952334], [-91.954449, 39.946857], [-91.839434, 39.946857], [-91.844911, 39.656579], [-92.299497, 39.607286], [-92.288543, 39.952334], [-91.998265, 39.952334]]]}}, {"type": "Feature", "properties": {"name": "Roseau", "id": "27135", "FIPS": "27135", "FIPS State": 27, "ST": "MN", "County": "Roseau County,MN", "State": "Minnesota"}, "geometry": {"type": "Polygon", "coordinates": [[[-95.322768, 49.000239], [-95.344675, 48.540176], [-95.602092, 48.540176], [-96.259324, 48.545653], [-96.385294, 48.545653], [-96.407202, 49.000239], [-95.322768, 49.000239]]]}}, {"type": "Feature", "properties": {"name": "Buchanan", "id": "19019", "FIPS": "19019", "FIPS State": 19, "ST": "IA", "County": "Buchanan County,IA", "State": "Iowa"}, "geometry": {"type": "Polygon", "coordinates": [[[-91.905157, 42.641511], [-91.609402, 42.641511], [-91.598448, 42.296464], [-91.713464, 42.296464], [-91.82848, 42.296464], [-91.888726, 42.296464], [-92.063988, 42.296464], [-92.080419, 42.641511], [-91.905157, 42.641511]]]}}, {"type": "Feature", "properties": {"name": "Jasper", "id": "19099", "FIPS": "19099", "FIPS State": 19, "ST": "IA", "County": "Jasper County,IA", "State": "Iowa"}, "geometry": {"type": "Polygon", "coordinates": [[[-93.268915, 41.863786], [-93.230576, 41.863786], [-92.765037, 41.863786], [-92.754083, 41.507785], [-92.869098, 41.507785], [-93.329161, 41.507785], [-93.345592, 41.863786], [-93.268915, 41.863786]]]}}, {"type": "Feature", "properties": {"name": "Alexander", "id": "37003", "FIPS": "37003", "FIPS State": 37, "ST": "NC", "County": "Alexander County,NC", "State": "North Carolina"}, "geometry": {"type": "Polygon", "coordinates": [[[-81.027953, 36.047275], [-81.110107, 35.778905], [-81.192262, 35.822721], [-81.334662, 35.795336], [-81.329185, 35.997983], [-81.027953, 36.047275]]]}}, {"type": "Feature", "properties": {"name": "Warren", "id": "29219", "FIPS": "29219", "FIPS State": 29, "ST": "MO", "County": "Warren County,MO", "State": "Missouri"}, "geometry": {"type": "Polygon", "coordinates": [[[-91.111001, 38.895284], [-90.957646, 38.873376], [-90.963123, 38.550237], [-91.368417, 38.698114], [-91.417709, 38.709068], [-91.264355, 38.993869], [-91.111001, 38.895284]]]}}, {"type": "Feature", "properties": {"name": "Boone", "id": "19015", "FIPS": "19015", "FIPS State": 19, "ST": "IA", "County": "Boone County,IA", "State": "Iowa"}, "geometry": {"type": "Polygon", "coordinates": [[[-93.931625, 42.208833], [-93.696116, 42.208833], [-93.696116, 41.863786], [-93.772794, 41.863786], [-93.816609, 41.863786], [-94.161656, 41.863786], [-94.167133, 42.208833], [-93.931625, 42.208833]]]}}, {"type": "Feature", "properties": {"name": "Hall", "id": "48191", "FIPS": "48191", "FIPS State": 48, "ST": "TX", "County": "Hall County,TX", "State": "Texas"}, "geometry": {"type": "Polygon", "coordinates": [[[-100.947585, 34.74924], [-100.542292, 34.74924], [-100.416322, 34.74924], [-100.416322, 34.311085], [-100.514907, 34.316562], [-100.673738, 34.311085], [-100.947585, 34.311085], [-100.947585, 34.74924]]]}}, {"type": "Feature", "properties": {"name": "Pulaski", "id": "13235", "FIPS": "13235", "FIPS State": 13, "ST": "GA", "County": "Pulaski County,GA", "State": "Georgia"}, "geometry": {"type": "Polygon", "coordinates": [[[-83.613069, 32.290094], [-83.498053, 32.399633], [-83.344699, 32.273663], [-83.339222, 32.103878], [-83.607592, 32.120309], [-83.613069, 32.290094]]]}}, {"type": "Feature", "properties": {"name": "Socorro", "id": "35053", "FIPS": "35053", "FIPS State": 35, "ST": "NM", "County": "Socorro County,NM", "State": "New Mexico"}, "geometry": {"type": "Polygon", "coordinates": [[[-107.536345, 34.579455], [-107.202251, 34.579455], [-106.419049, 34.442532], [-105.926124, 34.261793], [-106.052094, 33.648375], [-106.375233, 33.47859], [-107.711607, 33.47859], [-107.722561, 34.579455], [-107.536345, 34.579455]]]}}, {"type": "Feature", "properties": {"name": "Frio", "id": "48163", "FIPS": "48163", "FIPS State": 48, "ST": "TX", "County": "Frio County,TX", "State": "Texas"}, "geometry": {"type": "Polygon", "coordinates": [[[-98.904687, 29.091561], [-98.806102, 29.091561], [-98.800625, 28.647929], [-99.397611, 28.642452], [-99.408565, 28.642452], [-99.414042, 29.091561], [-98.904687, 29.091561]]]}}, {"type": "Feature", "properties": {"name": "Greene", "id": "19073", "FIPS": "19073", "FIPS State": 19, "ST": "IA", "County": "Greene County,IA", "State": "Iowa"}, "geometry": {"type": "Polygon", "coordinates": [[[-94.167133, 42.208833], [-94.161656, 41.863786], [-94.282149, 41.863786], [-94.484796, 41.863786], [-94.627196, 41.863786], [-94.627196, 42.208833], [-94.397165, 42.208833], [-94.167133, 42.208833]]]}}, {"type": "Feature", "properties": {"name": "Ellsworth", "id": "20053", "FIPS": "20053", "FIPS State": 20, "ST": "KS", "County": "Ellsworth County,KS", "State": "Kansas"}, "geometry": {"type": "Polygon", "coordinates": [[[-97.929791, 38.873376], [-97.924314, 38.610483], [-97.924314, 38.522852], [-98.017422, 38.522852], [-98.482962, 38.522852], [-98.488439, 38.698114], [-98.482962, 38.873376], [-97.929791, 38.873376]]]}}, {"type": "Feature", "properties": {"name": "Elk", "id": "42047", "FIPS": "42047", "FIPS State": 42, "ST": "PA", "County": "Elk County,PA", "State": "Pennsylvania"}, "geometry": {"type": "Polygon", "coordinates": [[[-78.95767, 41.6228], [-78.42093, 41.600893], [-78.234714, 41.228461], [-78.711208, 41.201076], [-78.95767, 41.370861], [-79.094593, 41.343476], [-78.95767, 41.6228]]]}}, {"type": "Feature", "properties": {"name": "Southampton", "id": "51175", "FIPS": "51175", "FIPS State": 51, "ST": "VA", "County": "Southampton County,VA", "State": "Virginia"}, "geometry": {"type": "Polygon", "coordinates": [[[-76.860002, 36.961924], [-76.925725, 36.709985], [-76.909294, 36.649739], [-76.89834, 36.644262], [-76.914771, 36.551154], [-76.914771, 36.545677], [-77.16671, 36.545677], [-77.298157, 36.545677], [-77.429604, 36.709985], [-76.95311, 36.945493], [-76.849048, 36.994786], [-76.860002, 36.961924]]]}}, {"type": "Feature", "properties": {"name": "Marlboro", "id": "45069", "FIPS": "45069", "FIPS State": 45, "ST": "SC", "County": "Marlboro County,SC", "State": "South Carolina"}, "geometry": {"type": "Polygon", "coordinates": [[[-79.927088, 34.80401], [-79.686103, 34.80401], [-79.461548, 34.628748], [-79.450595, 34.623271], [-79.631334, 34.300131], [-79.658718, 34.305608], [-79.828503, 34.530163], [-79.927088, 34.80401]]]}}, {"type": "Feature", "properties": {"name": "Currituck", "id": "37053", "FIPS": "37053", "FIPS State": 37, "ST": "NC", "County": "Currituck County,NC", "State": "North Carolina"}, "geometry": {"type": "Polygon", "coordinates": [[[-75.901537, 36.551154], [-75.868676, 36.551154], [-75.775568, 36.233491], [-75.791998, 36.228014], [-75.885106, 36.162291], [-76.312308, 36.551154], [-76.120615, 36.551154], [-75.901537, 36.551154]]]}}, {"type": "Feature", "properties": {"name": "Tucker", "id": "54093", "FIPS": "54093", "FIPS State": 54, "ST": "WV", "County": "Tucker County,WV", "State": "West Virginia"}, "geometry": {"type": "Polygon", "coordinates": [[[-79.812073, 39.229378], [-79.488933, 39.196516], [-79.357487, 38.966484], [-79.757303, 39.032208], [-79.823026, 39.114362], [-79.812073, 39.229378]]]}}, {"type": "Feature", "properties": {"name": "Klickitat", "id": "53039", "FIPS": "53039", "FIPS State": 53, "ST": "WA", "County": "Klickitat County,WA", "State": "Washington"}, "geometry": {"type": "Polygon", "coordinates": [[[-119.990907, 46.042691], [-119.864937, 46.042691], [-119.870414, 45.834568], [-120.001861, 45.81266], [-120.653617, 45.735983], [-120.834356, 45.675736], [-120.91651, 45.642875], [-121.442296, 45.697644], [-121.52445, 45.725029], [-121.52445, 46.042691], [-119.990907, 46.042691]]]}}, {"type": "Feature", "properties": {"name": "Conway", "id": "05029", "FIPS": "05029", "FIPS State": 5, "ST": "AR", "County": "Conway County,AR", "State": "Arkansas"}, "geometry": {"type": "Polygon", "coordinates": [[[-92.852668, 35.461243], [-92.480236, 35.368135], [-92.556913, 35.110718], [-93.038884, 35.077857], [-92.896483, 35.170965], [-92.852668, 35.461243]]]}}, {"type": "Feature", "properties": {"name": "Navarro", "id": "48349", "FIPS": "48349", "FIPS State": 48, "ST": "TX", "County": "Navarro County,TX", "State": "Texas"}, "geometry": {"type": "Polygon", "coordinates": [[[-96.385294, 32.328433], [-96.056678, 32.01077], [-96.494833, 31.797169], [-96.719387, 31.8136], [-96.89465, 32.076493], [-96.385294, 32.328433]]]}}, {"type": "Feature", "properties": {"name": "Montmorency", "id": "26119", "FIPS": "26119", "FIPS State": 26, "ST": "MI", "County": "Montmorency County,MI", "State": "Michigan"}, "geometry": {"type": "Polygon", "coordinates": [[[-84.199102, 45.199243], [-83.881439, 45.204719], [-83.886916, 44.854195], [-83.952639, 44.854195], [-84.374364, 44.854195], [-84.368887, 45.199243], [-84.248394, 45.199243], [-84.199102, 45.199243]]]}}, {"type": "Feature", "properties": {"name": "Montgomery", "id": "21173", "FIPS": "21173", "FIPS State": 21, "ST": "KY", "County": "Montgomery County,KY", "State": "Kentucky"}, "geometry": {"type": "Polygon", "coordinates": [[[-84.040271, 38.144943], [-83.980024, 38.194236], [-83.760947, 37.997066], [-83.766424, 37.920389], [-83.96907, 37.931343], [-84.078609, 38.117559], [-84.040271, 38.144943]]]}}, {"type": "Feature", "properties": {"name": "Custer", "id": "08027", "FIPS": "08027", "FIPS State": 8, "ST": "CO", "County": "Custer County,CO", "State": "Colorado"}, "geometry": {"type": "Polygon", "coordinates": [[[-105.794678, 38.265436], [-105.049814, 38.259959], [-105.049814, 37.914912], [-105.186737, 38.00802], [-105.471538, 37.898481], [-105.794678, 38.265436]]]}}, {"type": "Feature", "properties": {"name": "Clark", "id": "17023", "FIPS": "17023", "FIPS State": 17, "ST": "IL", "County": "Clark County,IL", "State": "Illinois"}, "geometry": {"type": "Polygon", "coordinates": [[[-87.76459, 39.486794], [-87.529082, 39.47584], [-87.605759, 39.256762], [-87.644097, 39.158177], [-87.786498, 39.180085], [-87.950806, 39.174608], [-88.005575, 39.174608], [-88.011052, 39.377255], [-87.96176, 39.481317], [-87.76459, 39.486794]]]}}, {"type": "Feature", "properties": {"name": "Scott", "id": "18143", "FIPS": "18143", "FIPS State": 18, "ST": "IN", "County": "Scott County,IN", "State": "Indiana"}, "geometry": {"type": "Polygon", "coordinates": [[[-85.683353, 38.81313], [-85.568337, 38.605006], [-85.590245, 38.605006], [-85.847661, 38.561191], [-85.885999, 38.736453], [-85.792891, 38.807653], [-85.683353, 38.81313]]]}}, {"type": "Feature", "properties": {"name": "Franklin", "id": "16041", "FIPS": "16041", "FIPS State": 16, "ST": "ID", "County": "Franklin County,ID", "State": "Idaho"}, "geometry": {"type": "Polygon", "coordinates": [[[-111.835743, 42.416957], [-111.600234, 42.416957], [-111.507126, 42.000709], [-112.10959, 41.995232], [-112.126021, 42.28551], [-111.874081, 42.416957], [-111.835743, 42.416957]]]}}, {"type": "Feature", "properties": {"name": "Woodward", "id": "40153", "FIPS": "40153", "FIPS State": 40, "ST": "OK", "County": "Woodward County,OK", "State": "Oklahoma"}, "geometry": {"type": "Polygon", "coordinates": [[[-99.293549, 36.819524], [-98.959456, 36.507338], [-98.959456, 36.501861], [-98.953979, 36.162291], [-99.38118, 36.162291], [-99.605735, 36.594969], [-99.293549, 36.819524]]]}}, {"type": "Feature", "properties": {"name": "Osceola", "id": "26133", "FIPS": "26133", "FIPS State": 26, "ST": "MI", "County": "Osceola County,MI", "State": "Michigan"}, "geometry": {"type": "Polygon", "coordinates": [[[-85.486183, 44.164101], [-85.332828, 44.164101], [-85.086366, 44.164101], [-85.086366, 43.813577], [-85.540952, 43.813577], [-85.56286, 43.813577], [-85.56286, 44.164101], [-85.486183, 44.164101]]]}}, {"type": "Feature", "properties": {"name": "Henderson", "id": "47077", "FIPS": "47077", "FIPS State": 47, "ST": "TN", "County": "Henderson County,TN", "State": "Tennessee"}, "geometry": {"type": "Polygon", "coordinates": [[[-88.514931, 35.822721], [-88.180837, 35.817244], [-88.241084, 35.422904], [-88.361576, 35.417427], [-88.613516, 35.587212], [-88.608039, 35.789859], [-88.514931, 35.822721]]]}}, {"type": "Feature", "properties": {"name": "Stafford", "id": "20185", "FIPS": "20185", "FIPS State": 20, "ST": "KS", "County": "Stafford County,KS", "State": "Kansas"}, "geometry": {"type": "Polygon", "coordinates": [[[-98.800625, 38.259959], [-98.477485, 38.259959], [-98.472008, 38.172328], [-98.472008, 37.827281], [-98.904687, 37.827281], [-99.014225, 37.827281], [-99.019702, 38.002543], [-98.910164, 38.259959], [-98.800625, 38.259959]]]}}, {"type": "Feature", "properties": {"name": "Tattnall", "id": "13267", "FIPS": "13267", "FIPS State": 13, "ST": "GA", "County": "Tattnall County,GA", "State": "Georgia"}, "geometry": {"type": "Polygon", "coordinates": [[[-82.23288, 32.317479], [-82.024756, 32.27914], [-81.761863, 32.049109], [-81.82211, 32.016247], [-81.969987, 31.791692], [-82.046664, 31.824554], [-82.227403, 31.912185], [-82.23288, 32.317479]]]}}, {"type": "Feature", "properties": {"name": "Pend Oreille", "id": "53051", "FIPS": "53051", "FIPS State": 53, "ST": "WA", "County": "Pend Oreille County,WA", "State": "Washington"}, "geometry": {"type": "Polygon", "coordinates": [[[-117.033359, 49.000239], [-117.033359, 48.846885], [-117.044313, 48.047251], [-117.438653, 48.047251], [-117.427699, 49.000239], [-117.033359, 49.000239]]]}}, {"type": "Feature", "properties": {"name": "Hamilton", "id": "19079", "FIPS": "19079", "FIPS State": 19, "ST": "IA", "County": "Hamilton County,IA", "State": "Iowa"}, "geometry": {"type": "Polygon", "coordinates": [[[-93.893286, 42.559357], [-93.498947, 42.559357], [-93.460608, 42.208833], [-93.696116, 42.208833], [-93.931625, 42.208833], [-93.969963, 42.559357], [-93.893286, 42.559357]]]}}, {"type": "Feature", "properties": {"name": "Ripley", "id": "29181", "FIPS": "29181", "FIPS State": 29, "ST": "MO", "County": "Ripley County,MO", "State": "Missouri"}, "geometry": {"type": "Polygon", "coordinates": [[[-90.935738, 36.814047], [-90.661891, 36.814047], [-90.57426, 36.496384], [-90.782384, 36.496384], [-90.848107, 36.496384], [-91.127431, 36.496384], [-91.116477, 36.825001], [-90.935738, 36.814047]]]}}, {"type": "Feature", "properties": {"name": "Fillmore", "id": "27045", "FIPS": "27045", "FIPS State": 27, "ST": "MN", "County": "Fillmore County,MN", "State": "Minnesota"}, "geometry": {"type": "Polygon", "coordinates": [[[-92.381651, 43.846438], [-92.080419, 43.846438], [-91.729895, 43.846438], [-91.729895, 43.501391], [-91.850387, 43.501391], [-92.080419, 43.501391], [-92.447374, 43.501391], [-92.447374, 43.835484], [-92.381651, 43.846438]]]}}, {"type": "Feature", "properties": {"name": "Shelby", "id": "48419", "FIPS": "48419", "FIPS State": 48, "ST": "TX", "County": "Shelby County,TX", "State": "Texas"}, "geometry": {"type": "Polygon", "coordinates": [[[-94.134272, 31.977908], [-94.013779, 31.977908], [-93.882332, 31.846462], [-93.83304, 31.583569], [-93.843994, 31.589046], [-93.986394, 31.567138], [-94.002825, 31.578092], [-94.397165, 31.654769], [-94.451934, 31.846462], [-94.512181, 31.972432], [-94.134272, 31.977908]]]}}, {"type": "Feature", "properties": {"name": "Person", "id": "37145", "FIPS": "37145", "FIPS State": 37, "ST": "NC", "County": "Person County,NC", "State": "North Carolina"}, "geometry": {"type": "Polygon", "coordinates": [[[-79.138409, 36.5402], [-78.798839, 36.5402], [-78.804316, 36.233491], [-78.952193, 36.238968], [-79.15484, 36.244445], [-79.138409, 36.5402]]]}}, {"type": "Feature", "properties": {"name": "Russell", "id": "20167", "FIPS": "20167", "FIPS State": 20, "ST": "KS", "County": "Russell County,KS", "State": "Kansas"}, "geometry": {"type": "Polygon", "coordinates": [[[-98.510347, 39.130793], [-98.488439, 39.130793], [-98.482962, 38.873376], [-98.488439, 38.698114], [-98.811579, 38.698114], [-99.030656, 38.698114], [-99.04161, 38.698114], [-99.036133, 39.130793], [-98.510347, 39.130793]]]}}, {"type": "Feature", "properties": {"name": "North Slope", "id": "02185", "FIPS": "02185", "FIPS State": 2, "ST": "AK", "County": "North Slope County,AK", "State": "Alaska"}, "geometry": {"type": "Polygon", "coordinates": [[[-141.00045, 68.498147], [-146.000897, 68.487193], [-145.99542, 67.999745], [-146.970315, 67.999745], [-155.300742, 67.999745], [-157.157424, 68.207869], [-161.993563, 68.2243], [-162.683657, 68.300977], [-164.502001, 68.229777], [-164.496525, 68.021653], [-165.361881, 68.02713], [-166.681824, 68.339316], [-166.216284, 68.881533], [-164.255539, 68.930825], [-163.110859, 69.374457], [-163.034181, 69.724981], [-161.851162, 70.311014], [-161.396576, 70.239814], [-159.649432, 70.792985], [-158.033735, 70.831323], [-156.812377, 71.285909], [-155.585543, 71.170894], [-155.974405, 70.809416], [-155.032372, 71.148986], [-154.183446, 70.7656], [-153.235935, 70.924431], [-152.26104, 70.842277], [-152.419871, 70.606769], [-151.877654, 70.431507], [-149.462323, 70.519138], [-147.682318, 70.201475], [-145.858496, 70.168614], [-144.620708, 69.971444], [-143.914183, 70.130275], [-142.747594, 70.042644], [-141.378359, 69.63735], [-141.00045, 69.648304], [-141.00045, 68.498147]]]}}, {"type": "Feature", "properties": {"name": "Carroll", "id": "29033", "FIPS": "29033", "FIPS State": 29, "ST": "MO", "County": "Carroll County,MO", "State": "Missouri"}, "geometry": {"type": "Polygon", "coordinates": [[[-93.422269, 39.612763], [-93.279869, 39.61824], [-93.104607, 39.382732], [-93.274392, 39.317009], [-93.477039, 39.295101], [-93.597531, 39.240331], [-93.756363, 39.20747], [-93.76184, 39.525132], [-93.756363, 39.612763], [-93.422269, 39.612763]]]}}, {"type": "Feature", "properties": {"name": "Hardin", "id": "17069", "FIPS": "17069", "FIPS State": 17, "ST": "IL", "County": "Hardin County,IL", "State": "Illinois"}, "geometry": {"type": "Polygon", "coordinates": [[[-88.378007, 37.597249], [-88.131545, 37.575342], [-88.060345, 37.504141], [-88.3561, 37.405556], [-88.361576, 37.405556], [-88.416346, 37.421987], [-88.410869, 37.597249], [-88.378007, 37.597249]]]}}, {"type": "Feature", "properties": {"name": "Grainger", "id": "47057", "FIPS": "47057", "FIPS State": 47, "ST": "TN", "County": "Grainger County,TN", "State": "Tennessee"}, "geometry": {"type": "Polygon", "coordinates": [[[-83.278976, 36.392322], [-83.257068, 36.288261], [-83.465192, 36.173245], [-83.602115, 36.151337], [-83.667839, 36.080137], [-83.733562, 36.162291], [-83.667839, 36.34303], [-83.388515, 36.41423], [-83.278976, 36.392322]]]}}, {"type": "Feature", "properties": {"name": "Yuma", "id": "08125", "FIPS": "08125", "FIPS State": 8, "ST": "CO", "County": "Yuma County,CO", "State": "Colorado"}, "geometry": {"type": "Polygon", "coordinates": [[[-102.426359, 40.439781], [-102.053927, 40.439781], [-102.053927, 40.346673], [-102.053927, 40.001626], [-102.04845, 39.574425], [-102.426359, 39.568948], [-102.804268, 39.568948], [-102.78236, 40.439781], [-102.667345, 40.439781], [-102.426359, 40.439781]]]}}, {"type": "Feature", "properties": {"name": "Lanier", "id": "13173", "FIPS": "13173", "FIPS State": 13, "ST": "GA", "County": "Lanier County,GA", "State": "Georgia"}, "geometry": {"type": "Polygon", "coordinates": [[[-83.032514, 31.183752], [-82.972267, 31.183752], [-82.972267, 30.871567], [-83.02156, 30.849659], [-83.196822, 31.024921], [-83.048944, 31.183752], [-83.032514, 31.183752]]]}}, {"type": "Feature", "properties": {"name": "Wapello", "id": "19179", "FIPS": "19179", "FIPS State": 19, "ST": "IA", "County": "Wapello County,IA", "State": "Iowa"}, "geometry": {"type": "Polygon", "coordinates": [[[-92.261158, 41.162737], [-92.179004, 41.162737], [-92.179004, 40.899844], [-92.639067, 40.899844], [-92.639067, 41.162737], [-92.409035, 41.162737], [-92.261158, 41.162737]]]}}, {"type": "Feature", "properties": {"name": "Brewster", "id": "48043", "FIPS": "48043", "FIPS State": 48, "ST": "TX", "County": "Brewster County,TX", "State": "Texas"}, "geometry": {"type": "Polygon", "coordinates": [[[-103.346485, 30.603196], [-102.56876, 30.050025], [-102.322297, 29.88024], [-102.678299, 29.73784], [-102.919284, 29.190146], [-103.280762, 28.982022], [-103.790117, 29.261346], [-103.801071, 30.411504], [-103.439593, 30.663443], [-103.346485, 30.603196]]]}}, {"type": "Feature", "properties": {"name": "Middlesex", "id": "51119", "FIPS": "51119", "FIPS State": 51, "ST": "VA", "County": "Middlesex County,VA", "State": "Virginia"}, "geometry": {"type": "Polygon", "coordinates": [[[-76.356123, 37.526049], [-76.356123, 37.526049], [-76.438277, 37.515095], [-76.62997, 37.591772], [-76.651878, 37.602726], [-76.750463, 37.728696], [-76.68474, 37.772511], [-76.356123, 37.526049]]]}}, {"type": "Feature", "properties": {"name": "Dickinson", "id": "19059", "FIPS": "19059", "FIPS State": 19, "ST": "IA", "County": "Dickinson County,IA", "State": "Iowa"}, "geometry": {"type": "Polygon", "coordinates": [[[-95.092736, 43.501391], [-94.917474, 43.501391], [-94.911997, 43.254929], [-95.169413, 43.254929], [-95.388491, 43.254929], [-95.388491, 43.501391], [-95.092736, 43.501391]]]}}, {"type": "Feature", "properties": {"name": "Cherokee", "id": "19035", "FIPS": "19035", "FIPS State": 19, "ST": "IA", "County": "Cherokee County,IA", "State": "Iowa"}, "geometry": {"type": "Polygon", "coordinates": [[[-95.415876, 42.909881], [-95.388491, 42.909881], [-95.388491, 42.559357], [-95.465168, 42.559357], [-95.739015, 42.559357], [-95.859508, 42.559357], [-95.859508, 42.909881], [-95.415876, 42.909881]]]}}, {"type": "Feature", "properties": {"name": "Edgar", "id": "17045", "FIPS": "17045", "FIPS State": 17, "ST": "IL", "County": "Edgar County,IL", "State": "Illinois"}, "geometry": {"type": "Polygon", "coordinates": [[[-87.534558, 39.881133], [-87.534558, 39.607286], [-87.529082, 39.47584], [-87.76459, 39.486794], [-87.96176, 39.481317], [-87.967237, 39.683964], [-87.939852, 39.881133], [-87.534558, 39.881133]]]}}, {"type": "Feature", "properties": {"name": "Clay", "id": "19041", "FIPS": "19041", "FIPS State": 19, "ST": "IA", "County": "Clay County,IA", "State": "Iowa"}, "geometry": {"type": "Polygon", "coordinates": [[[-95.169413, 43.254929], [-94.911997, 43.254929], [-94.911997, 42.909881], [-95.251567, 42.909881], [-95.388491, 42.909881], [-95.388491, 43.254929], [-95.169413, 43.254929]]]}}, {"type": "Feature", "properties": {"name": "Atascosa", "id": "48013", "FIPS": "48013", "FIPS State": 48, "ST": "TX", "County": "Atascosa County,TX", "State": "Texas"}, "geometry": {"type": "Polygon", "coordinates": [[[-98.800625, 29.250392], [-98.406285, 29.113469], [-98.192684, 28.883437], [-98.099576, 28.784852], [-98.335085, 28.615067], [-98.581547, 28.642452], [-98.800625, 28.636975], [-98.800625, 28.647929], [-98.806102, 29.091561], [-98.806102, 29.250392], [-98.800625, 29.250392]]]}}, {"type": "Feature", "properties": {"name": "Rio Blanco", "id": "08103", "FIPS": "08103", "FIPS State": 8, "ST": "CO", "County": "Rio Blanco County,CO", "State": "Colorado"}, "geometry": {"type": "Polygon", "coordinates": [[[-107.109143, 40.226181], [-107.037943, 40.089257], [-107.936161, 39.694917], [-109.053457, 39.662056], [-109.053457, 40.220704], [-107.43776, 40.220704], [-107.109143, 40.226181]]]}}, {"type": "Feature", "properties": {"name": "Wadena", "id": "27159", "FIPS": "27159", "FIPS State": 27, "ST": "MN", "County": "Wadena County,MN", "State": "Minnesota"}, "geometry": {"type": "Polygon", "coordinates": [[[-95.037967, 46.803986], [-94.786028, 46.803986], [-94.731258, 46.371308], [-95.152983, 46.371308], [-95.163936, 46.716355], [-95.163936, 46.803986], [-95.037967, 46.803986]]]}}, {"type": "Feature", "properties": {"name": "Boone", "id": "05009", "FIPS": "05009", "FIPS State": 5, "ST": "AR", "County": "Boone County,AR", "State": "Arkansas"}, "geometry": {"type": "Polygon", "coordinates": [[[-93.066268, 36.496384], [-92.852668, 36.496384], [-92.891006, 36.112998], [-92.945776, 36.112998], [-93.301777, 36.123952], [-93.2963, 36.496384], [-93.066268, 36.496384]]]}}, {"type": "Feature", "properties": {"name": "Live Oak", "id": "48297", "FIPS": "48297", "FIPS State": 48, "ST": "TX", "County": "Live Oak County,TX", "State": "Texas"}, "geometry": {"type": "Polygon", "coordinates": [[[-98.099576, 28.784852], [-98.006468, 28.691744], [-97.820252, 28.176912], [-97.880499, 28.056419], [-98.2365, 28.056419], [-98.335085, 28.056419], [-98.335085, 28.615067], [-98.099576, 28.784852]]]}}, {"type": "Feature", "properties": {"name": "Clinton", "id": "18023", "FIPS": "18023", "FIPS State": 18, "ST": "IN", "County": "Clinton County,IN", "State": "Indiana"}, "geometry": {"type": "Polygon", "coordinates": [[[-86.357016, 40.434304], [-86.242001, 40.374058], [-86.242001, 40.215227], [-86.242001, 40.182365], [-86.696587, 40.176888], [-86.696587, 40.215227], [-86.696587, 40.434304], [-86.373447, 40.434304], [-86.357016, 40.434304]]]}}, {"type": "Feature", "properties": {"name": "Phillips", "id": "20147", "FIPS": "20147", "FIPS State": 20, "ST": "KS", "County": "Phillips County,KS", "State": "Kansas"}, "geometry": {"type": "Polygon", "coordinates": [[[-99.123764, 40.001626], [-99.068995, 40.001626], [-99.063518, 39.568948], [-99.600258, 39.568948], [-99.627643, 39.568948], [-99.627643, 40.001626], [-99.178534, 40.001626], [-99.123764, 40.001626]]]}}, {"type": "Feature", "properties": {"name": "Rappahannock", "id": "51157", "FIPS": "51157", "FIPS State": 51, "ST": "VA", "County": "Rappahannock County,VA", "State": "Virginia"}, "geometry": {"type": "Polygon", "coordinates": [[[-78.256622, 38.758361], [-78.130652, 38.862422], [-77.933482, 38.698114], [-78.229237, 38.533806], [-78.338776, 38.626914], [-78.284006, 38.758361], [-78.256622, 38.758361]]]}}, {"type": "Feature", "properties": {"name": "San Juan", "id": "49037", "FIPS": "49037", "FIPS State": 49, "ST": "UT", "County": "San Juan County,UT", "State": "Utah"}, "geometry": {"type": "Polygon", "coordinates": [[[-110.022876, 38.500944], [-109.058934, 38.500944], [-109.042503, 38.15042], [-109.042503, 37.88205], [-109.042503, 37.482234], [-109.042503, 37.000263], [-110.000968, 37.000263], [-110.751309, 37.00574], [-111.414018, 37.000263], [-110.647247, 37.54248], [-109.929768, 38.15042], [-110.022876, 38.500944]]]}}, {"type": "Feature", "properties": {"name": "Pontotoc", "id": "28115", "FIPS": "28115", "FIPS State": 28, "ST": "MS", "County": "Pontotoc County,MS", "State": "Mississippi"}, "geometry": {"type": "Polygon", "coordinates": [[[-89.09001, 34.382285], [-88.827116, 34.365854], [-88.827116, 34.075577], [-89.139302, 34.075577], [-89.243364, 34.163208], [-89.248841, 34.376808], [-89.09001, 34.382285]]]}}, {"type": "Feature", "properties": {"name": "Fayette", "id": "18041", "FIPS": "18041", "FIPS State": 18, "ST": "IN", "County": "Fayette County,IN", "State": "Indiana"}, "geometry": {"type": "Polygon", "coordinates": [[[-85.22329, 39.788025], [-85.037074, 39.716825], [-85.037074, 39.525132], [-85.23972, 39.525132], [-85.299967, 39.525132], [-85.299967, 39.788025], [-85.22329, 39.788025]]]}}, {"type": "Feature", "properties": {"name": "Hardin", "id": "39065", "FIPS": "39065", "FIPS State": 39, "ST": "OH", "County": "Hardin County,OH", "State": "Ohio"}, "geometry": {"type": "Polygon", "coordinates": [[[-83.574731, 40.81769], [-83.514484, 40.81769], [-83.421376, 40.686244], [-83.415899, 40.505505], [-83.519961, 40.505505], [-83.881439, 40.538366], [-83.881439, 40.642428], [-83.881439, 40.81769], [-83.574731, 40.81769]]]}}, {"type": "Feature", "properties": {"name": "Hutchinson", "id": "46067", "FIPS": "46067", "FIPS State": 46, "ST": "SD", "County": "Hutchinson County,SD", "State": "South Dakota"}, "geometry": {"type": "Polygon", "coordinates": [[[-97.606652, 43.501391], [-97.404005, 43.501391], [-97.398528, 43.167298], [-97.639513, 43.167298], [-97.754529, 43.167298], [-98.077669, 43.167298], [-98.11053, 43.194682], [-98.116007, 43.495914], [-97.962653, 43.501391], [-97.606652, 43.501391]]]}}, {"type": "Feature", "properties": {"name": "Caldwell", "id": "48055", "FIPS": "48055", "FIPS State": 48, "ST": "TX", "County": "Caldwell County,TX", "State": "Texas"}, "geometry": {"type": "Polygon", "coordinates": [[[-97.666898, 30.066456], [-97.650467, 30.071933], [-97.316374, 29.787132], [-97.316374, 29.787132], [-97.634037, 29.650209], [-97.798345, 29.754271], [-97.875022, 29.858333], [-97.710714, 30.022641], [-97.666898, 30.066456]]]}}, {"type": "Feature", "properties": {"name": "Dade", "id": "13083", "FIPS": "13083", "FIPS State": 13, "ST": "GA", "County": "Dade County,GA", "State": "Georgia"}, "geometry": {"type": "Polygon", "coordinates": [[[-85.475229, 34.984749], [-85.36569, 34.984749], [-85.535475, 34.623271], [-85.584768, 34.858779], [-85.606675, 34.984749], [-85.475229, 34.984749]]]}}, {"type": "Feature", "properties": {"name": "Lavaca", "id": "48285", "FIPS": "48285", "FIPS State": 48, "ST": "TX", "County": "Lavaca County,TX", "State": "Texas"}, "geometry": {"type": "Polygon", "coordinates": [[[-96.872742, 29.633778], [-96.659141, 29.261346], [-96.938465, 29.064176], [-96.976804, 29.102515], [-97.239697, 29.381839], [-97.141112, 29.628301], [-96.872742, 29.633778]]]}}, {"type": "Feature", "properties": {"name": "Attala", "id": "28007", "FIPS": "28007", "FIPS State": 28, "ST": "MS", "County": "Attala County,MS", "State": "Mississippi"}, "geometry": {"type": "Polygon", "coordinates": [[[-89.396718, 33.286897], [-89.320041, 33.106158], [-89.320041, 32.930896], [-89.473395, 32.930896], [-89.730812, 32.887081], [-89.96632, 32.881604], [-89.747242, 33.215697], [-89.643181, 33.286897], [-89.451488, 33.286897], [-89.396718, 33.286897]]]}}, {"type": "Feature", "properties": {"name": "Cavalier", "id": "38019", "FIPS": "38019", "FIPS State": 38, "ST": "ND", "County": "Cavalier County,ND", "State": "North Dakota"}, "geometry": {"type": "Polygon", "coordinates": [[[-97.951699, 49.000239], [-97.929791, 48.545653], [-98.017422, 48.545653], [-98.318654, 48.545653], [-98.838963, 48.545653], [-98.97041, 48.545653], [-98.997795, 49.000239], [-97.951699, 49.000239]]]}}, {"type": "Feature", "properties": {"name": "Tishomingo", "id": "28141", "FIPS": "28141", "FIPS State": 28, "ST": "MS", "County": "Tishomingo County,MS", "State": "Mississippi"}, "geometry": {"type": "Polygon", "coordinates": [[[-88.252038, 34.995703], [-88.202745, 34.995703], [-88.098683, 34.891641], [-88.142499, 34.579455], [-88.15893, 34.464439], [-88.328715, 34.464439], [-88.367053, 34.754717], [-88.361576, 34.995703], [-88.252038, 34.995703]]]}}, {"type": "Feature", "properties": {"name": "Taylor", "id": "55119", "FIPS": "55119", "FIPS State": 55, "ST": "WI", "County": "Taylor County,WI", "State": "Wisconsin"}, "geometry": {"type": "Polygon", "coordinates": [[[-90.168967, 45.379982], [-90.042997, 45.379982], [-90.042997, 45.122565], [-90.196352, 45.122565], [-90.316844, 45.034934], [-90.815246, 45.029457], [-90.924785, 45.029457], [-90.924785, 45.29235], [-90.678322, 45.379982], [-90.168967, 45.379982]]]}}, {"type": "Feature", "properties": {"name": "Brown", "id": "48049", "FIPS": "48049", "FIPS State": 48, "ST": "TX", "County": "Brown County,TX", "State": "Texas"}, "geometry": {"type": "Polygon", "coordinates": [[[-99.118287, 32.08197], [-98.926594, 32.076493], [-98.669178, 31.698584], [-98.992318, 31.484984], [-99.090903, 31.463076], [-99.200441, 31.468553], [-99.194965, 32.08197], [-99.118287, 32.08197]]]}}, {"type": "Feature", "properties": {"name": "Greene", "id": "13133", "FIPS": "13133", "FIPS State": 13, "ST": "GA", "County": "Greene County,GA", "State": "Georgia"}, "geometry": {"type": "Polygon", "coordinates": [[[-83.28993, 33.736006], [-83.278976, 33.763391], [-82.994175, 33.692191], [-83.010606, 33.467636], [-83.16396, 33.35262], [-83.278976, 33.484067], [-83.404945, 33.697668], [-83.28993, 33.736006]]]}}, {"type": "Feature", "properties": {"name": "Bell", "id": "21013", "FIPS": "21013", "FIPS State": 21, "ST": "KY", "County": "Bell County,KY", "State": "Kentucky"}, "geometry": {"type": "Polygon", "coordinates": [[[-83.509007, 36.940016], [-83.492576, 36.896201], [-83.459715, 36.666169], [-83.673316, 36.600446], [-83.930732, 36.589492], [-83.875962, 36.688077], [-83.591161, 36.956447], [-83.509007, 36.940016]]]}}, {"type": "Feature", "properties": {"name": "Rains", "id": "48379", "FIPS": "48379", "FIPS State": 48, "ST": "TX", "County": "Rains County,TX", "State": "Texas"}, "geometry": {"type": "Polygon", "coordinates": [[[-95.864985, 32.980189], [-95.667815, 32.958281], [-95.634953, 32.722772], [-95.936185, 32.837788], [-95.864985, 32.980189]]]}}, {"type": "Feature", "properties": {"name": "Cross", "id": "05037", "FIPS": "05037", "FIPS State": 5, "ST": "AR", "County": "Cross County,AR", "State": "Arkansas"}, "geometry": {"type": "Polygon", "coordinates": [[[-90.744046, 35.444812], [-90.50306, 35.439335], [-90.50306, 35.14358], [-90.831677, 35.149057], [-91.045277, 35.149057], [-91.0398, 35.351704], [-91.0398, 35.444812], [-90.744046, 35.444812]]]}}, {"type": "Feature", "properties": {"name": "Colfax", "id": "31037", "FIPS": "31037", "FIPS State": 31, "ST": "NE", "County": "Colfax County,NE", "State": "Nebraska"}, "geometry": {"type": "Polygon", "coordinates": [[[-97.250651, 41.743293], [-97.020619, 41.743293], [-96.905603, 41.743293], [-96.905603, 41.453015], [-97.256128, 41.376338], [-97.250651, 41.743293], [-97.250651, 41.743293]]]}}, {"type": "Feature", "properties": {"name": "Muhlenberg", "id": "21177", "FIPS": "21177", "FIPS State": 21, "ST": "KY", "County": "Muhlenberg County,KY", "State": "Kentucky"}, "geometry": {"type": "Polygon", "coordinates": [[[-87.10188, 37.41651], [-86.899233, 37.213863], [-86.943049, 37.071463], [-86.954003, 37.071463], [-87.052588, 37.060509], [-87.260711, 37.071463], [-87.331912, 37.159094], [-87.293573, 37.389126], [-87.10188, 37.41651]]]}}, {"type": "Feature", "properties": {"name": "Fall River", "id": "46047", "FIPS": "46047", "FIPS State": 46, "ST": "SD", "County": "Fall River County,SD", "State": "South Dakota"}, "geometry": {"type": "Polygon", "coordinates": [[[-103.937995, 43.479483], [-103.001438, 43.479483], [-103.001438, 43.002989], [-103.324578, 43.002989], [-103.505317, 43.002989], [-104.053011, 43.002989], [-104.053011, 43.479483], [-103.937995, 43.479483]]]}}, {"type": "Feature", "properties": {"name": "Smith", "id": "28129", "FIPS": "28129", "FIPS State": 28, "ST": "MS", "County": "Smith County,MS", "State": "Mississippi"}, "geometry": {"type": "Polygon", "coordinates": [[[-89.456965, 32.224371], [-89.320041, 32.224371], [-89.314564, 31.802646], [-89.402195, 31.797169], [-89.654134, 31.780739], [-89.730812, 32.049109], [-89.730812, 32.224371], [-89.456965, 32.224371]]]}}, {"type": "Feature", "properties": {"name": "Gibson", "id": "18051", "FIPS": "18051", "FIPS State": 18, "ST": "IN", "County": "Gibson County,IN", "State": "Indiana"}, "geometry": {"type": "Polygon", "coordinates": [[[-87.605759, 38.446175], [-87.463358, 38.533806], [-87.315481, 38.243528], [-87.468835, 38.166851], [-87.687913, 38.166851], [-87.972714, 38.232574], [-87.978191, 38.232574], [-87.972714, 38.232574], [-87.742682, 38.413313], [-87.605759, 38.446175]]]}}, {"type": "Feature", "properties": {"name": "Dakota", "id": "31043", "FIPS": "31043", "FIPS State": 31, "ST": "NE", "County": "Dakota County,NE", "State": "Nebraska"}, "geometry": {"type": "Polygon", "coordinates": [[[-96.724864, 42.395049], [-96.631756, 42.526496], [-96.44554, 42.488157], [-96.357909, 42.274556], [-96.724864, 42.280033], [-96.724864, 42.395049]]]}}, {"type": "Feature", "properties": {"name": "Grand", "id": "08049", "FIPS": "08049", "FIPS State": 8, "ST": "CO", "County": "Grand County,CO", "State": "Colorado"}, "geometry": {"type": "Polygon", "coordinates": [[[-105.854924, 40.483597], [-105.652277, 40.259042], [-105.674185, 39.930426], [-105.690616, 39.853749], [-105.926124, 39.700394], [-106.43548, 39.924949], [-106.627173, 39.924949], [-106.654557, 40.445258], [-105.854924, 40.483597]]]}}, {"type": "Feature", "properties": {"name": "Walton", "id": "13297", "FIPS": "13297", "FIPS State": 13, "ST": "GA", "County": "Walton County,GA", "State": "Georgia"}, "geometry": {"type": "Polygon", "coordinates": [[[-83.799285, 33.927699], [-83.645931, 33.905791], [-83.50353, 33.81816], [-83.509007, 33.812683], [-83.678792, 33.599083], [-83.914301, 33.74696], [-83.980024, 33.785299], [-83.799285, 33.927699]]]}}, {"type": "Feature", "properties": {"name": "Tama", "id": "19171", "FIPS": "19171", "FIPS State": 19, "ST": "IA", "County": "Tama County,IA", "State": "Iowa"}, "geometry": {"type": "Polygon", "coordinates": [[[-92.299497, 42.296464], [-92.299497, 41.863786], [-92.765037, 41.863786], [-92.765037, 42.208833], [-92.535005, 42.296464], [-92.299497, 42.296464]]]}}, {"type": "Feature", "properties": {"name": "Deuel", "id": "46039", "FIPS": "46039", "FIPS State": 46, "ST": "SD", "County": "Deuel County,SD", "State": "South Dakota"}, "geometry": {"type": "Polygon", "coordinates": [[[-96.451017, 44.980165], [-96.451017, 44.804903], [-96.451017, 44.629641], [-96.451017, 44.54201], [-96.883696, 44.54201], [-96.883696, 44.804903], [-96.883696, 44.974688], [-96.451017, 44.980165]]]}}, {"type": "Feature", "properties": {"name": "Rockbridge", "id": "51163", "FIPS": "51163", "FIPS State": 51, "ST": "VA", "County": "Rockbridge County,VA", "State": "Virginia"}, "geometry": {"type": "Polygon", "coordinates": [[[-79.483456, 38.084697], [-79.15484, 37.893004], [-79.171271, 37.805373], [-79.439641, 37.619157], [-79.499887, 37.531526], [-79.675149, 37.761557], [-79.653241, 37.871096], [-79.483456, 38.084697]]]}}, {"type": "Feature", "properties": {"name": "Lampasas", "id": "48281", "FIPS": "48281", "FIPS State": 48, "ST": "TX", "County": "Lampasas County,TX", "State": "Texas"}, "geometry": {"type": "Polygon", "coordinates": [[[-98.181731, 31.463076], [-97.907884, 31.068736], [-97.91336, 31.035875], [-98.017422, 31.035875], [-98.439147, 31.030398], [-98.565116, 31.233045], [-98.269362, 31.413784], [-98.181731, 31.463076]]]}}, {"type": "Feature", "properties": {"name": "Palo Pinto", "id": "48363", "FIPS": "48363", "FIPS State": 48, "ST": "TX", "County": "Palo Pinto County,TX", "State": "Texas"}, "geometry": {"type": "Polygon", "coordinates": [[[-98.428193, 33.007573], [-98.055761, 33.002096], [-98.066715, 32.558464], [-98.066715, 32.509172], [-98.477485, 32.514649], [-98.57607, 32.514649], [-98.57607, 32.952804], [-98.428193, 33.007573]]]}}, {"type": "Feature", "properties": {"name": "Carroll", "id": "19027", "FIPS": "19027", "FIPS State": 19, "ST": "IA", "County": "Carroll County,IA", "State": "Iowa"}, "geometry": {"type": "Polygon", "coordinates": [[[-95.092736, 42.208833], [-94.857228, 42.208833], [-94.627196, 42.208833], [-94.627196, 41.863786], [-94.742212, 41.863786], [-95.092736, 41.863786], [-95.092736, 42.208833]]]}}, {"type": "Feature", "properties": {"name": "Livingston", "id": "17105", "FIPS": "17105", "FIPS State": 17, "ST": "IL", "County": "Livingston County,IL", "State": "Illinois"}, "geometry": {"type": "Polygon", "coordinates": [[[-88.410869, 41.107968], [-88.252038, 41.113445], [-88.246561, 40.992952], [-88.460161, 40.615043], [-88.712101, 40.757444], [-88.931178, 40.751967], [-88.931178, 40.927229], [-88.586131, 41.107968], [-88.410869, 41.107968]]]}}, {"type": "Feature", "properties": {"name": "Antrim", "id": "26009", "FIPS": "26009", "FIPS State": 26, "ST": "MI", "County": "Antrim County,MI", "State": "Michigan"}, "geometry": {"type": "Polygon", "coordinates": [[[-85.321875, 45.204719], [-84.856335, 45.117088], [-84.845381, 44.859672], [-85.250674, 44.859672], [-85.332828, 44.81038], [-85.42046, 44.859672], [-85.442367, 44.859672], [-85.387598, 45.210196], [-85.321875, 45.204719]]]}}, {"type": "Feature", "properties": {"name": "Jefferson", "id": "12065", "FIPS": "12065", "FIPS State": 12, "ST": "FL", "County": "Jefferson County,FL", "State": "Florida"}, "geometry": {"type": "Polygon", "coordinates": [[[-83.744516, 30.657966], [-83.613069, 30.652489], [-83.821193, 30.301965], [-83.990978, 30.082887], [-84.078609, 30.093841], [-84.073132, 30.27458], [-84.007409, 30.674397], [-83.744516, 30.657966]]]}}, {"type": "Feature", "properties": {"name": "Somervell", "id": "48425", "FIPS": "48425", "FIPS State": 48, "ST": "TX", "County": "Somervell County,TX", "State": "Texas"}, "geometry": {"type": "Polygon", "coordinates": [[[-97.946222, 32.235325], [-97.617606, 32.317479], [-97.617606, 32.202463], [-97.62856, 32.20794], [-97.864068, 32.087447], [-97.946222, 32.235325]]]}}, {"type": "Feature", "properties": {"name": "Malheur", "id": "41045", "FIPS": "41045", "FIPS State": 41, "ST": "OR", "County": "Malheur County,OR", "State": "Oregon"}, "geometry": {"type": "Polygon", "coordinates": [[[-117.608438, 44.443425], [-117.219575, 44.301024], [-116.896436, 44.153147], [-116.97859, 43.8793], [-117.027882, 43.68213], [-117.027882, 42.000709], [-118.194471, 41.995232], [-118.227332, 44.038131], [-118.232809, 44.257209], [-117.608438, 44.443425]]]}}, {"type": "Feature", "properties": {"name": "Woodruff", "id": "05147", "FIPS": "05147", "FIPS State": 5, "ST": "AR", "County": "Woodruff County,AR", "State": "Arkansas"}, "geometry": {"type": "Polygon", "coordinates": [[[-91.346509, 35.439335], [-91.0398, 35.351704], [-91.045277, 35.149057], [-91.149339, 35.00118], [-91.275309, 34.984749], [-91.368417, 34.913548], [-91.467002, 35.088811], [-91.346509, 35.439335]]]}}, {"type": "Feature", "properties": {"name": "Perry", "id": "18123", "FIPS": "18123", "FIPS State": 18, "ST": "IN", "County": "Perry County,IN", "State": "Indiana"}, "geometry": {"type": "Polygon", "coordinates": [[[-86.570617, 38.265436], [-86.461078, 38.117559], [-86.488463, 38.046358], [-86.652771, 37.843712], [-86.811602, 37.997066], [-86.789695, 38.20519], [-86.680156, 38.265436], [-86.570617, 38.265436]]]}}, {"type": "Feature", "properties": {"name": "Jefferson", "id": "19101", "FIPS": "19101", "FIPS State": 19, "ST": "IA", "County": "Jefferson County,IA", "State": "Iowa"}, "geometry": {"type": "Polygon", "coordinates": [[[-91.943495, 41.162737], [-91.713464, 41.162737], [-91.718941, 40.899844], [-92.118758, 40.899844], [-92.179004, 40.899844], [-92.179004, 41.162737], [-91.943495, 41.162737]]]}}, {"type": "Feature", "properties": {"name": "White", "id": "18181", "FIPS": "18181", "FIPS State": 18, "ST": "IN", "County": "White County,IN", "State": "Indiana"}, "geometry": {"type": "Polygon", "coordinates": [[[-86.877326, 40.910798], [-86.581571, 40.910798], [-86.581571, 40.735536], [-86.773264, 40.560274], [-87.096403, 40.560274], [-87.096403, 40.735536], [-86.932095, 40.910798], [-86.877326, 40.910798]]]}}, {"type": "Feature", "properties": {"name": "Hardin", "id": "19083", "FIPS": "19083", "FIPS State": 19, "ST": "IA", "County": "Hardin County,IA", "State": "Iowa"}, "geometry": {"type": "Polygon", "coordinates": [[[-93.263438, 42.559357], [-93.02793, 42.55388], [-93.000545, 42.208833], [-93.230576, 42.208833], [-93.362023, 42.208833], [-93.460608, 42.208833], [-93.498947, 42.559357], [-93.263438, 42.559357]]]}}, {"type": "Feature", "properties": {"name": "Grayson", "id": "51077", "FIPS": "51077", "FIPS State": 51, "ST": "VA", "County": "Grayson County,VA", "State": "Virginia"}, "geometry": {"type": "Polygon", "coordinates": [[[-81.044384, 36.80857], [-80.934845, 36.671646], [-80.912938, 36.649739], [-80.83626, 36.556631], [-80.901984, 36.562108], [-80.978661, 36.562108], [-81.351093, 36.573061], [-81.679709, 36.589492], [-81.646848, 36.6114], [-81.608509, 36.638785], [-81.263462, 36.764754], [-81.044384, 36.80857]]]}}, {"type": "Feature", "properties": {"name": "Platte", "id": "31141", "FIPS": "31141", "FIPS State": 31, "ST": "NE", "County": "Platte County,NE", "State": "Nebraska"}, "geometry": {"type": "Polygon", "coordinates": [[[-97.425913, 41.743293], [-97.365666, 41.743293], [-97.250651, 41.743293], [-97.256128, 41.376338], [-97.365666, 41.392769], [-97.601175, 41.332523], [-97.705237, 41.392769], [-97.716191, 41.524216], [-97.831206, 41.524216], [-97.831206, 41.743293], [-97.425913, 41.743293]]]}}, {"type": "Feature", "properties": {"name": "Avoyelles", "id": "22009", "FIPS": "22009", "FIPS State": 22, "ST": "LA", "County": "Avoyelles County,LA", "State": "Louisiana"}, "geometry": {"type": "Polygon", "coordinates": [[[-92.085896, 31.337106], [-92.009219, 31.326153], [-91.833957, 31.265906], [-91.724418, 31.046829], [-91.751803, 31.019444], [-91.762756, 31.00849], [-91.817526, 30.849659], [-92.085896, 30.849659], [-92.211866, 30.849659], [-92.283066, 30.964674], [-92.085896, 31.337106]]]}}, {"type": "Feature", "properties": {"name": "Jefferson Davis", "id": "22053", "FIPS": "22053", "FIPS State": 22, "ST": "LA", "County": "Jefferson Davis County,LA", "State": "Louisiana"}, "geometry": {"type": "Polygon", "coordinates": [[[-92.770513, 30.488181], [-92.628113, 30.488181], [-92.63359, 30.482704], [-92.628113, 30.093841], [-92.737652, 30.039072], [-92.995068, 30.039072], [-93.131992, 30.40055], [-93.131992, 30.422457], [-92.770513, 30.488181]]]}}, {"type": "Feature", "properties": {"name": "Meigs", "id": "39105", "FIPS": "39105", "FIPS State": 39, "ST": "OH", "County": "Meigs County,OH", "State": "Ohio"}, "geometry": {"type": "Polygon", "coordinates": [[[-82.28765, 39.201993], [-82.271219, 39.201993], [-81.756386, 39.180085], [-81.745433, 39.097931], [-81.909741, 38.878853], [-82.101434, 38.95553], [-82.320511, 39.026731], [-82.28765, 39.201993]]]}}, {"type": "Feature", "properties": {"name": "Panola", "id": "28107", "FIPS": "28107", "FIPS State": 28, "ST": "MS", "County": "Panola County,MS", "State": "Mississippi"}, "geometry": {"type": "Polygon", "coordinates": [[[-90.097767, 34.55207], [-89.719858, 34.55207], [-89.719858, 34.190592], [-89.933458, 34.163208], [-90.136105, 34.157731], [-90.196352, 34.508255], [-90.196352, 34.55207], [-90.097767, 34.55207]]]}}, {"type": "Feature", "properties": {"name": "Colorado", "id": "48089", "FIPS": "48089", "FIPS State": 48, "ST": "TX", "County": "Colorado County,TX", "State": "Texas"}, "geometry": {"type": "Polygon", "coordinates": [[[-96.57151, 29.962394], [-96.17717, 29.633778], [-96.64271, 29.250392], [-96.659141, 29.261346], [-96.872742, 29.633778], [-96.57151, 29.962394]]]}}, {"type": "Feature", "properties": {"name": "Russell", "id": "51167", "FIPS": "51167", "FIPS State": 51, "ST": "VA", "County": "Russell County,VA", "State": "Virginia"}, "geometry": {"type": "Polygon", "coordinates": [[[-81.898787, 37.142663], [-81.778294, 36.956447], [-81.838541, 36.929063], [-82.331465, 36.709985], [-82.408142, 36.874293], [-82.325988, 36.972878], [-82.150726, 37.044078], [-81.898787, 37.142663]]]}}, {"type": "Feature", "properties": {"name": "Hardin", "id": "47071", "FIPS": "47071", "FIPS State": 47, "ST": "TN", "County": "Hardin County,TN", "State": "Tennessee"}, "geometry": {"type": "Polygon", "coordinates": [[[-88.361576, 35.417427], [-88.241084, 35.422904], [-88.022006, 35.390042], [-87.983668, 35.006656], [-88.202745, 34.995703], [-88.252038, 34.995703], [-88.361576, 34.995703], [-88.378007, 34.995703], [-88.361576, 35.379088], [-88.361576, 35.417427]]]}}, {"type": "Feature", "properties": {"name": "Dundy", "id": "31057", "FIPS": "31057", "FIPS State": 31, "ST": "NE", "County": "Dundy County,NE", "State": "Nebraska"}, "geometry": {"type": "Polygon", "coordinates": [[[-101.325494, 40.35215], [-101.325494, 40.35215], [-101.325494, 40.001626], [-101.413125, 40.001626], [-101.90605, 40.001626], [-102.053927, 40.001626], [-102.053927, 40.346673], [-101.341925, 40.35215], [-101.325494, 40.35215]]]}}, {"type": "Feature", "properties": {"name": "Pointe Coupee", "id": "22077", "FIPS": "22077", "FIPS State": 22, "ST": "LA", "County": "Pointe Coupee County,LA", "State": "Louisiana"}, "geometry": {"type": "Polygon", "coordinates": [[[-91.762756, 31.00849], [-91.751803, 31.019444], [-91.658695, 30.992059], [-91.664172, 30.970151], [-91.330078, 30.657966], [-91.483432, 30.499135], [-91.521771, 30.499135], [-91.70251, 30.499135], [-91.75728, 30.499135], [-91.817526, 30.849659], [-91.762756, 31.00849]]]}}, {"type": "Feature", "properties": {"name": "Upshur", "id": "48459", "FIPS": "48459", "FIPS State": 48, "ST": "TX", "County": "Upshur County,TX", "State": "Texas"}, "geometry": {"type": "Polygon", "coordinates": [[[-94.780551, 32.903511], [-94.720304, 32.903511], [-94.703873, 32.881604], [-94.703873, 32.793973], [-94.703873, 32.651572], [-94.988674, 32.536556], [-95.152983, 32.569418], [-95.152983, 32.903511], [-94.780551, 32.903511]]]}}, {"type": "Feature", "properties": {"name": "Val Verde", "id": "48465", "FIPS": "48465", "FIPS State": 48, "ST": "TX", "County": "Val Verde County,TX", "State": "Texas"}, "geometry": {"type": "Polygon", "coordinates": [[[-101.544572, 30.285534], [-100.958539, 30.285534], [-100.701123, 30.291011], [-100.701123, 29.622824], [-100.794231, 29.239438], [-101.413125, 29.754271], [-101.76365, 29.781655], [-101.758173, 30.285534], [-101.544572, 30.285534]]]}}, {"type": "Feature", "properties": {"name": "Columbia", "id": "41009", "FIPS": "41009", "FIPS State": 41, "ST": "OR", "County": "Columbia County,OR", "State": "Oregon"}, "geometry": {"type": "Polygon", "coordinates": [[[-122.784147, 45.850998], [-122.762239, 45.730506], [-122.926547, 45.725029], [-123.134671, 45.779798], [-123.359225, 45.779798], [-123.364702, 46.146753], [-123.211348, 46.174138], [-122.784147, 45.850998]]]}}, {"type": "Feature", "properties": {"name": "Grand", "id": "49019", "FIPS": "49019", "FIPS State": 49, "ST": "UT", "County": "Grand County,UT", "State": "Utah"}, "geometry": {"type": "Polygon", "coordinates": [[[-109.053457, 39.497748], [-109.053457, 39.366301], [-109.058934, 38.500944], [-110.022876, 38.500944], [-110.022876, 39.459409], [-109.053457, 39.497748]]]}}, {"type": "Feature", "properties": {"name": "Warren", "id": "37185", "FIPS": "37185", "FIPS State": 37, "ST": "NC", "County": "Warren County,NC", "State": "North Carolina"}, "geometry": {"type": "Polygon", "coordinates": [[[-78.322345, 36.545677], [-78.048498, 36.545677], [-77.90062, 36.545677], [-77.90062, 36.507338], [-78.004682, 36.200629], [-78.163514, 36.249922], [-78.305914, 36.266353], [-78.322345, 36.545677]]]}}, {"type": "Feature", "properties": {"name": "Pottawatomie", "id": "20149", "FIPS": "20149", "FIPS State": 20, "ST": "KS", "County": "Pottawatomie County,KS", "State": "Kansas"}, "geometry": {"type": "Polygon", "coordinates": [[[-96.582464, 39.568948], [-96.237417, 39.568948], [-96.03477, 39.563471], [-96.03477, 39.218424], [-96.040247, 39.125316], [-96.390771, 39.174608], [-96.582464, 39.568948], [-96.582464, 39.568948]]]}}, {"type": "Feature", "properties": {"name": "Jefferson", "id": "53031", "FIPS": "53031", "FIPS State": 53, "ST": "WA", "County": "Jefferson County,WA", "State": "Washington"}, "geometry": {"type": "Polygon", "coordinates": [[[-122.751285, 47.740543], [-122.948455, 47.603619], [-123.507103, 47.515988], [-124.323167, 47.532419], [-124.356029, 47.532419], [-124.613445, 47.882943], [-122.948455, 47.866512], [-122.926547, 48.063682], [-122.751285, 47.740543]]]}}, {"type": "Feature", "properties": {"name": "Lake", "id": "08065", "FIPS": "08065", "FIPS State": 8, "ST": "CO", "County": "Lake County,CO", "State": "Colorado"}, "geometry": {"type": "Polygon", "coordinates": [[[-106.134248, 39.377255], [-106.189017, 39.054115], [-106.375233, 39.054115], [-106.57788, 39.059592], [-106.424526, 39.360824], [-106.205448, 39.377255], [-106.134248, 39.377255]]]}}, {"type": "Feature", "properties": {"name": "Carlton", "id": "27017", "FIPS": "27017", "FIPS State": 27, "ST": "MN", "County": "Carlton County,MN", "State": "Minnesota"}, "geometry": {"type": "Polygon", "coordinates": [[[-92.49119, 46.765647], [-92.29402, 46.661586], [-92.29402, 46.415123], [-92.962206, 46.4206], [-93.055314, 46.4206], [-93.060791, 46.765647], [-92.49119, 46.765647]]]}}, {"type": "Feature", "properties": {"name": "Marion", "id": "01093", "FIPS": "01093", "FIPS State": 1, "ST": "AL", "County": "Marion County,AL", "State": "Alabama"}, "geometry": {"type": "Polygon", "coordinates": [[[-88.175361, 34.322039], [-87.633143, 34.305608], [-87.63862, 34.004376], [-87.63862, 33.916745], [-87.950806, 33.922222], [-88.208222, 34.059146], [-88.202745, 34.08653], [-88.175361, 34.322039]]]}}, {"type": "Feature", "properties": {"name": "Boyle", "id": "21021", "FIPS": "21021", "FIPS State": 21, "ST": "KY", "County": "Boyle County,KY", "State": "Kentucky"}, "geometry": {"type": "Polygon", "coordinates": [[[-84.856335, 37.695834], [-84.746796, 37.712265], [-84.659165, 37.635588], [-84.845381, 37.547957], [-85.037074, 37.54248], [-85.031597, 37.630111], [-85.02612, 37.679403], [-84.856335, 37.695834]]]}}, {"type": "Feature", "properties": {"name": "Titus", "id": "48449", "FIPS": "48449", "FIPS State": 48, "ST": "TX", "County": "Titus County,TX", "State": "Texas"}, "geometry": {"type": "Polygon", "coordinates": [[[-94.807935, 33.363574], [-94.818889, 32.980189], [-95.125598, 33.034958], [-95.125598, 33.390959], [-94.807935, 33.363574]]]}}, {"type": "Feature", "properties": {"name": "Lee", "id": "48287", "FIPS": "48287", "FIPS State": 48, "ST": "TX", "County": "Lee County,TX", "State": "Texas"}, "geometry": {"type": "Polygon", "coordinates": [[[-97.157543, 30.455319], [-96.96585, 30.559381], [-96.64271, 30.296488], [-96.796065, 30.159564], [-96.801542, 30.154087], [-97.026096, 30.050025], [-97.332805, 30.40055], [-97.157543, 30.455319]]]}}, {"type": "Feature", "properties": {"name": "Dorchester", "id": "24019", "FIPS": "24019", "FIPS State": 24, "ST": "MD", "County": "Dorchester County,MD", "State": "Maryland"}, "geometry": {"type": "Polygon", "coordinates": [[[-75.841291, 38.703591], [-75.709844, 38.637868], [-75.69889, 38.561191], [-75.813906, 38.489991], [-75.923445, 38.265436], [-76.153476, 38.632391], [-75.945353, 38.676207], [-75.841291, 38.703591]]]}}, {"type": "Feature", "properties": {"name": "Logan", "id": "38047", "FIPS": "38047", "FIPS State": 38, "ST": "ND", "County": "Logan County,ND", "State": "North Dakota"}, "geometry": {"type": "Polygon", "coordinates": [[[-99.917921, 46.634201], [-99.452381, 46.634201], [-99.036133, 46.628724], [-99.036133, 46.283677], [-99.348319, 46.283677], [-99.879582, 46.283677], [-99.917921, 46.634201]]]}}, {"type": "Feature", "properties": {"name": "Douglas", "id": "53017", "FIPS": "53017", "FIPS State": 53, "ST": "WA", "County": "Douglas County,WA", "State": "Washington"}, "geometry": {"type": "Polygon", "coordinates": [[[-119.021489, 48.069159], [-118.98315, 47.95962], [-119.213182, 47.861036], [-120.007338, 47.220233], [-120.094969, 47.264049], [-120.319524, 47.455742], [-119.870414, 47.95962], [-119.021489, 48.069159]]]}}, {"type": "Feature", "properties": {"name": "Codington", "id": "46029", "FIPS": "46029", "FIPS State": 46, "ST": "SD", "County": "Codington County,SD", "State": "South Dakota"}, "geometry": {"type": "Polygon", "coordinates": [[[-97.23422, 45.14995], [-97.228743, 45.14995], [-96.883696, 44.974688], [-96.883696, 44.804903], [-97.491636, 44.804903], [-97.491636, 45.14995], [-97.23422, 45.14995]]]}}, {"type": "Feature", "properties": {"name": "Posey", "id": "18129", "FIPS": "18129", "FIPS State": 18, "ST": "IN", "County": "Posey County,IN", "State": "Indiana"}, "geometry": {"type": "Polygon", "coordinates": [[[-87.972714, 38.232574], [-87.687913, 38.166851], [-87.698867, 37.898481], [-87.928898, 37.903958], [-88.027483, 37.799896], [-88.054868, 37.88205], [-87.978191, 38.232574], [-87.972714, 38.232574]]]}}, {"type": "Feature", "properties": {"name": "East Feliciana", "id": "22037", "FIPS": "22037", "FIPS State": 22, "ST": "LA", "County": "East Feliciana County,LA", "State": "Louisiana"}, "geometry": {"type": "Polygon", "coordinates": [[[-91.061708, 30.997536], [-90.8262, 30.997536], [-90.848107, 30.718212], [-90.864538, 30.718212], [-91.297217, 30.647012], [-91.302693, 30.652489], [-91.176724, 30.997536], [-91.061708, 30.997536]]]}}, {"type": "Feature", "properties": {"name": "Freestone", "id": "48161", "FIPS": "48161", "FIPS State": 48, "ST": "TX", "County": "Freestone County,TX", "State": "Texas"}, "geometry": {"type": "Polygon", "coordinates": [[[-96.051201, 32.005293], [-95.788308, 31.61643], [-96.237417, 31.413784], [-96.494833, 31.797169], [-96.056678, 32.01077], [-96.051201, 32.005293]]]}}, {"type": "Feature", "properties": {"name": "Charles Mix", "id": "46023", "FIPS": "46023", "FIPS State": 46, "ST": "SD", "County": "Charles Mix County,SD", "State": "South Dakota"}, "geometry": {"type": "Polygon", "coordinates": [[[-99.299026, 43.501391], [-98.795148, 43.501391], [-98.707517, 43.501391], [-98.11053, 43.194682], [-98.077669, 43.167298], [-98.154346, 42.838681], [-98.3077, 42.882497], [-98.499393, 42.997512], [-99.299026, 43.501391], [-99.299026, 43.501391]]]}}, {"type": "Feature", "properties": {"name": "Major", "id": "40093", "FIPS": "40093", "FIPS State": 40, "ST": "OK", "County": "Major County,OK", "State": "Oklahoma"}, "geometry": {"type": "Polygon", "coordinates": [[[-98.959456, 36.501861], [-98.959456, 36.507338], [-98.532255, 36.463523], [-98.105053, 36.463523], [-98.105053, 36.162291], [-98.209115, 36.162291], [-98.488439, 36.162291], [-98.636317, 36.162291], [-98.953979, 36.162291], [-98.959456, 36.501861]]]}}, {"type": "Feature", "properties": {"name": "Clark", "id": "20025", "FIPS": "20025", "FIPS State": 20, "ST": "KS", "County": "Clark County,KS", "State": "Kansas"}, "geometry": {"type": "Polygon", "coordinates": [[[-100.054844, 37.47128], [-99.556443, 37.465803], [-99.545489, 37.383649], [-99.540012, 37.000263], [-100.000075, 37.000263], [-100.087706, 37.000263], [-100.109614, 37.476757], [-100.054844, 37.47128]]]}}, {"type": "Feature", "properties": {"name": "Cherokee", "id": "20021", "FIPS": "20021", "FIPS State": 20, "ST": "KS", "County": "Cherokee County,KS", "State": "Kansas"}, "geometry": {"type": "Polygon", "coordinates": [[[-94.829843, 37.339833], [-94.616242, 37.339833], [-94.616242, 37.055032], [-94.616242, 37.055032], [-94.616242, 37.000263], [-94.994151, 37.000263], [-95.005105, 37.000263], [-95.070828, 37.000263], [-95.076305, 37.339833], [-94.829843, 37.339833]]]}}, {"type": "Feature", "properties": {"name": "Los Alamos", "id": "35028", "FIPS": "35028", "FIPS State": 35, "ST": "NM", "County": "Los Alamos County,NM", "State": "New Mexico"}, "geometry": {"type": "Polygon", "coordinates": [[[-106.249264, 35.965121], [-106.243787, 35.932259], [-106.249264, 35.855582], [-106.249264, 35.839151], [-106.249264, 35.756997], [-106.249264, 35.965121]]]}}, {"type": "Feature", "properties": {"name": "Bertie", "id": "37015", "FIPS": "37015", "FIPS State": 37, "ST": "NC", "County": "Bertie County,NC", "State": "North Carolina"}, "geometry": {"type": "Polygon", "coordinates": [[[-76.706647, 36.244445], [-76.668309, 36.01989], [-76.690217, 35.943213], [-76.761417, 35.866536], [-77.325542, 36.07466], [-77.29268, 36.167768], [-77.210526, 36.244445], [-76.706647, 36.244445]]]}}, {"type": "Feature", "properties": {"name": "Chester", "id": "45023", "FIPS": "45023", "FIPS State": 45, "ST": "SC", "County": "Chester County,SC", "State": "South Carolina"}, "geometry": {"type": "Polygon", "coordinates": [[[-81.28537, 34.820441], [-80.896507, 34.820441], [-80.880076, 34.541117], [-81.416816, 34.573978], [-81.422293, 34.573978], [-81.477062, 34.820441], [-81.28537, 34.820441]]]}}, {"type": "Feature", "properties": {"name": "Donley", "id": "48129", "FIPS": "48129", "FIPS State": 48, "ST": "TX", "County": "Donley County,TX", "State": "Texas"}, "geometry": {"type": "Polygon", "coordinates": [[[-100.969493, 35.181919], [-100.536815, 35.181919], [-100.542292, 34.74924], [-100.947585, 34.74924], [-101.089986, 34.74924], [-101.084509, 35.181919], [-100.969493, 35.181919]]]}}, {"type": "Feature", "properties": {"name": "Elmore", "id": "16039", "FIPS": "16039", "FIPS State": 16, "ST": "ID", "County": "Elmore County,ID", "State": "Idaho"}, "geometry": {"type": "Polygon", "coordinates": [[[-114.990461, 43.9505], [-114.968553, 43.939546], [-114.990461, 43.857392], [-115.089045, 43.200159], [-115.039753, 42.909881], [-115.039753, 42.767481], [-116.266588, 43.112528], [-115.97631, 43.589022], [-115.1712, 44.087424], [-114.990461, 43.9505]]]}}]}