{"type": "FeatureCollection", "crs": {"type": "name", "properties": {"name": "urn:ogc:def:crs:OGC:1.3:CRS84"}}, "features": [{"type": "Feature", "properties": {"name": "Elmore", "id": "16039", "FIPS": "16039", "FIPS State": 16, "ST": "ID", "County": "Elmore County,ID", "State": "Idaho"}, "geometry": {"type": "Polygon", "coordinates": [[[-114.990461, 43.9505], [-114.968553, 43.939546], [-114.990461, 43.857392], [-115.089045, 43.200159], [-115.039753, 42.909881], [-115.039753, 42.767481], [-116.266588, 43.112528], [-115.97631, 43.589022], [-115.1712, 44.087424], [-114.990461, 43.9505]]]}}, {"type": "Feature", "properties": {"name": "Willacy", "id": "48489", "FIPS": "48489", "FIPS State": 48, "ST": "TX", "County": "Willacy County,TX", "State": "Texas"}, "geometry": {"type": "MultiPolygon", "coordinates": [[[[-97.655944, 26.599553], [-97.442344, 26.599553], [-97.382097, 26.413337], [-97.864068, 26.347614], [-97.957176, 26.610507], [-97.655944, 26.599553]]], [[[-97.316374, 26.599553], [-97.288989, 26.599553], [-97.223266, 26.413337], [-97.239697, 26.413337], [-97.316374, 26.599553]]]]}}, {"type": "Feature", "properties": {"name": "Bear Lake", "id": "16007", "FIPS": "16007", "FIPS State": 16, "ST": "ID", "County": "Bear Lake County,ID", "State": "Idaho"}, "geometry": {"type": "Polygon", "coordinates": [[[-111.468788, 42.592219], [-111.047063, 42.515542], [-111.047063, 42.000709], [-111.507126, 42.000709], [-111.600234, 42.416957], [-111.468788, 42.592219]]]}}, {"type": "Feature", "properties": {"name": "Butler", "id": "31023", "FIPS": "31023", "FIPS State": 31, "ST": "NE", "County": "Butler County,NE", "State": "Nebraska"}, "geometry": {"type": "Polygon", "coordinates": [[[-96.905603, 41.453015], [-96.905603, 41.453015], [-96.91108, 41.047722], [-96.91108, 41.047722], [-97.349236, 41.047722], [-97.365666, 41.047722], [-97.365666, 41.392769], [-97.256128, 41.376338], [-96.905603, 41.453015]]]}}, {"type": "Feature", "properties": {"name": "Neshoba", "id": "28099", "FIPS": "28099", "FIPS State": 28, "ST": "MS", "County": "Neshoba County,MS", "State": "Mississippi"}, "geometry": {"type": "Polygon", "coordinates": [[[-89.155733, 32.930896], [-88.914747, 32.925419], [-88.914747, 32.574895], [-89.133825, 32.574895], [-89.320041, 32.574895], [-89.320041, 32.930896], [-89.155733, 32.930896]]]}}, {"type": "Feature", "properties": {"name": "Columbia", "id": "53013", "FIPS": "53013", "FIPS State": 53, "ST": "WA", "County": "Columbia County,WA", "State": "Washington"}, "geometry": {"type": "Polygon", "coordinates": [[[-118.227332, 46.595862], [-118.216378, 46.590385], [-117.849423, 46.623247], [-117.602961, 45.998876], [-117.975393, 45.998876], [-117.997301, 45.998876], [-118.227332, 46.595862]]]}}, {"type": "Feature", "properties": {"name": "Hendry", "id": "12051", "FIPS": "12051", "FIPS State": 12, "ST": "FL", "County": "Hendry County,FL", "State": "Florida"}, "geometry": {"type": "Polygon", "coordinates": [[[-80.96223, 26.769338], [-80.885553, 26.961031], [-80.880076, 26.331183], [-80.880076, 26.259983], [-81.564693, 26.511922], [-81.564693, 26.769338], [-80.96223, 26.769338]]]}}, {"type": "Feature", "properties": {"name": "Washington", "id": "18175", "FIPS": "18175", "FIPS State": 18, "ST": "IN", "County": "Washington County,IN", "State": "Indiana"}, "geometry": {"type": "Polygon", "coordinates": [[[-86.274862, 38.763838], [-85.885999, 38.736453], [-85.847661, 38.561191], [-85.995538, 38.41879], [-86.011969, 38.41879], [-86.033877, 38.41879], [-86.198185, 38.424267], [-86.252954, 38.424267], [-86.307724, 38.424267], [-86.307724, 38.68716], [-86.274862, 38.763838]]]}}, {"type": "Feature", "properties": {"name": "Halifax", "id": "37083", "FIPS": "37083", "FIPS State": 37, "ST": "NC", "County": "Halifax County,NC", "State": "North Carolina"}, "geometry": {"type": "Polygon", "coordinates": [[[-77.90062, 36.507338], [-77.29268, 36.167768], [-77.325542, 36.07466], [-77.402219, 36.00346], [-77.697974, 36.151337], [-78.004682, 36.200629], [-77.90062, 36.507338]]]}}, {"type": "Feature", "properties": {"name": "Fayette", "id": "19065", "FIPS": "19065", "FIPS State": 19, "ST": "IA", "County": "Fayette County,IA", "State": "Iowa"}, "geometry": {"type": "Polygon", "coordinates": [[[-92.080419, 43.085144], [-91.603925, 43.079667], [-91.609402, 42.641511], [-91.905157, 42.641511], [-92.080419, 42.641511], [-92.080419, 42.904404], [-92.080419, 43.085144]]]}}, {"type": "Feature", "properties": {"name": "Bennington", "id": "50003", "FIPS": "50003", "FIPS State": 50, "ST": "VT", "County": "Bennington County,VT", "State": "Vermont"}, "geometry": {"type": "Polygon", "coordinates": [[[-73.256175, 43.315175], [-72.867312, 43.298744], [-72.81802, 43.254929], [-72.927559, 42.740096], [-73.020667, 42.740096], [-73.267129, 42.745573], [-73.272606, 42.942743], [-73.256175, 43.315175]]]}}, {"type": "Feature", "properties": {"name": "Renville", "id": "27129", "FIPS": "27129", "FIPS State": 27, "ST": "MN", "County": "Renville County,MN", "State": "Minnesota"}, "geometry": {"type": "Polygon", "coordinates": [[[-94.49575, 44.892534], [-94.49575, 44.717272], [-94.621719, 44.454379], [-94.780551, 44.454379], [-94.851751, 44.498194], [-94.868182, 44.498194], [-95.295383, 44.662502], [-95.361106, 44.700841], [-95.481599, 44.75561], [-95.246091, 44.892534], [-94.758643, 44.892534], [-94.501227, 44.892534], [-94.49575, 44.892534]]]}}, {"type": "Feature", "properties": {"name": "Iron", "id": "26071", "FIPS": "26071", "FIPS State": 26, "ST": "MI", "County": "Iron County,MI", "State": "Michigan"}, "geometry": {"type": "Polygon", "coordinates": [[[-88.712101, 46.4206], [-88.679239, 46.4206], [-88.115114, 46.4206], [-88.115114, 46.245338], [-88.115114, 45.922199], [-88.493023, 45.993399], [-88.684716, 46.015307], [-88.931178, 46.075553], [-88.991425, 46.097461], [-88.991425, 46.332969], [-88.991425, 46.4206], [-88.712101, 46.4206]]]}}, {"type": "Feature", "properties": {"name": "Big Horn", "id": "30003", "FIPS": "30003", "FIPS State": 30, "ST": "MT", "County": "Big Horn County,MT", "State": "Montana"}, "geometry": {"type": "Polygon", "coordinates": [[[-107.426806, 45.976968], [-106.939358, 45.867429], [-106.769573, 45.177335], [-106.282125, 45.177335], [-106.265695, 44.991119], [-107.914254, 45.002073], [-108.248347, 45.002073], [-108.642687, 45.462136], [-108.067608, 45.516905], [-108.0457, 45.900291], [-107.50896, 46.042691], [-107.426806, 45.976968]]]}}, {"type": "Feature", "properties": {"name": "Giles", "id": "47055", "FIPS": "47055", "FIPS State": 47, "ST": "TN", "County": "Giles County,TN", "State": "Tennessee"}, "geometry": {"type": "Polygon", "coordinates": [[[-87.129265, 35.455766], [-86.95948, 35.417427], [-86.828033, 35.264073], [-86.838987, 34.990226], [-87.211419, 35.00118], [-87.222373, 35.00118], [-87.205942, 35.433858], [-87.129265, 35.455766]]]}}, {"type": "Feature", "properties": {"name": "King", "id": "48269", "FIPS": "48269", "FIPS State": 48, "ST": "TX", "County": "King County,TX", "State": "Texas"}, "geometry": {"type": "Polygon", "coordinates": [[[-99.994598, 33.834591], [-99.989121, 33.396436], [-100.197245, 33.396436], [-100.514907, 33.396436], [-100.520384, 33.834591], [-100.049367, 33.834591], [-99.994598, 33.834591]]]}}, {"type": "Feature", "properties": {"name": "Carroll", "id": "18015", "FIPS": "18015", "FIPS State": 18, "ST": "IN", "County": "Carroll County,IN", "State": "Indiana"}, "geometry": {"type": "Polygon", "coordinates": [[[-86.773264, 40.560274], [-86.581571, 40.735536], [-86.373447, 40.560274], [-86.373447, 40.434304], [-86.696587, 40.434304], [-86.773264, 40.560274]]]}}, {"type": "Feature", "properties": {"name": "Marion", "id": "20115", "FIPS": "20115", "FIPS State": 20, "ST": "KS", "County": "Marion County,KS", "State": "Kansas"}, "geometry": {"type": "Polygon", "coordinates": [[[-97.261605, 38.610483], [-96.932988, 38.610483], [-96.817972, 38.522852], [-96.83988, 38.084697], [-97.113727, 38.084697], [-97.152066, 38.090174], [-97.152066, 38.172328], [-97.371143, 38.172328], [-97.371143, 38.610483], [-97.261605, 38.610483]]]}}, {"type": "Feature", "properties": {"name": "Wayne", "id": "17191", "FIPS": "17191", "FIPS State": 17, "ST": "IL", "County": "Wayne County,IL", "State": "Illinois"}, "geometry": {"type": "Polygon", "coordinates": [[[-88.586131, 38.605006], [-88.252038, 38.599529], [-88.147976, 38.566668], [-88.153453, 38.254482], [-88.37253, 38.254482], [-88.591608, 38.254482], [-88.701147, 38.254482], [-88.701147, 38.47356], [-88.701147, 38.605006], [-88.586131, 38.605006]]]}}, {"type": "Feature", "properties": {"name": "Box Butte", "id": "31013", "FIPS": "31013", "FIPS State": 31, "ST": "NE", "County": "Box Butte County,NE", "State": "Nebraska"}, "geometry": {"type": "Polygon", "coordinates": [[[-102.771407, 42.438865], [-102.700206, 42.006186], [-103.362916, 42.000709], [-103.401255, 42.006186], [-103.44507, 42.438865], [-102.771407, 42.438865]]]}}, {"type": "Feature", "properties": {"name": "Door", "id": "55029", "FIPS": "55029", "FIPS State": 55, "ST": "WI", "County": "Door County,WI", "State": "Wisconsin"}, "geometry": {"type": "Polygon", "coordinates": [[[-87.375727, 44.673456], [-87.737205, 44.678933], [-86.981388, 45.297827], [-87.375727, 44.673456]]]}}, {"type": "Feature", "properties": {"name": "Blaine", "id": "16013", "FIPS": "16013", "FIPS State": 16, "ST": "ID", "County": "Blaine County,ID", "State": "Idaho"}, "geometry": {"type": "Polygon", "coordinates": [[[-114.656367, 43.917638], [-113.796488, 43.567114], [-113.007808, 43.282313], [-113.007808, 43.112528], [-113.23784, 42.625081], [-113.473348, 42.668896], [-113.413102, 43.200159], [-113.714333, 43.200159], [-114.377043, 43.200159], [-114.716614, 43.813577], [-114.990461, 43.857392], [-114.968553, 43.939546], [-114.656367, 43.917638]]]}}, {"type": "Feature", "properties": {"name": "Izard", "id": "05065", "FIPS": "05065", "FIPS State": 5, "ST": "AR", "County": "Izard County,AR", "State": "Arkansas"}, "geometry": {"type": "Polygon", "coordinates": [[[-92.124235, 36.260876], [-91.691556, 36.255399], [-91.707987, 35.943213], [-91.850387, 35.866536], [-92.195435, 36.134906], [-92.157096, 36.260876], [-92.124235, 36.260876]]]}}, {"type": "Feature", "properties": {"name": "Henderson", "id": "48213", "FIPS": "48213", "FIPS State": 48, "ST": "TX", "County": "Henderson County,TX", "State": "Texas"}, "geometry": {"type": "Polygon", "coordinates": [[[-96.215509, 32.361294], [-96.078585, 32.355817], [-95.448737, 32.355817], [-95.459691, 32.13674], [-95.42683, 32.08197], [-96.051201, 32.005293], [-96.056678, 32.01077], [-96.385294, 32.328433], [-96.451017, 32.361294], [-96.215509, 32.361294]]]}}, {"type": "Feature", "properties": {"name": "Oldham", "id": "21185", "FIPS": "21185", "FIPS State": 21, "ST": "KY", "County": "Oldham County,KY", "State": "Kentucky"}, "geometry": {"type": "Polygon", "coordinates": [[[-85.639537, 38.380452], [-85.431413, 38.522852], [-85.316398, 38.489991], [-85.283536, 38.358544], [-85.469752, 38.287344], [-85.639537, 38.380452]]]}}, {"type": "Feature", "properties": {"name": "Toombs", "id": "13279", "FIPS": "13279", "FIPS State": 13, "ST": "GA", "County": "Toombs County,GA", "State": "Georgia"}, "geometry": {"type": "Polygon", "coordinates": [[[-82.408142, 32.355817], [-82.23288, 32.317479], [-82.227403, 31.912185], [-82.43005, 31.966955], [-82.468389, 31.966955], [-82.479343, 31.972432], [-82.408142, 32.355817]]]}}, {"type": "Feature", "properties": {"name": "Spencer", "id": "21215", "FIPS": "21215", "FIPS State": 21, "ST": "KY", "County": "Spencer County,KY", "State": "Kentucky"}, "geometry": {"type": "Polygon", "coordinates": [[[-85.425936, 38.144943], [-85.102797, 38.035405], [-85.16852, 37.969681], [-85.49166, 37.991589], [-85.431413, 38.117559], [-85.425936, 38.144943]]]}}, {"type": "Feature", "properties": {"name": "Lamar", "id": "28073", "FIPS": "28073", "FIPS State": 28, "ST": "MS", "County": "Lamar County,MS", "State": "Mississippi"}, "geometry": {"type": "Polygon", "coordinates": [[[-89.451488, 31.435691], [-89.347426, 31.00849], [-89.599365, 31.003013], [-89.654134, 31.003013], [-89.654134, 31.435691], [-89.588411, 31.435691], [-89.451488, 31.435691]]]}}, {"type": "Feature", "properties": {"name": "Yell", "id": "05149", "FIPS": "05149", "FIPS State": 5, "ST": "AR", "County": "Yell County,AR", "State": "Arkansas"}, "geometry": {"type": "Polygon", "coordinates": [[[-93.279869, 35.318842], [-92.896483, 35.170965], [-93.038884, 35.077857], [-93.285346, 34.771148], [-93.394885, 34.743763], [-93.570147, 34.743763], [-93.712547, 34.743763], [-93.70707, 35.01761], [-93.279869, 35.318842]]]}}, {"type": "Feature", "properties": {"name": "Adams", "id": "39001", "FIPS": "39001", "FIPS State": 39, "ST": "OH", "County": "Adams County,OH", "State": "Ohio"}, "geometry": {"type": "Polygon", "coordinates": [[[-83.383038, 39.054115], [-83.273499, 39.015777], [-83.273499, 39.0103], [-83.268022, 38.61596], [-83.645931, 38.637868], [-83.706177, 38.637868], [-83.673316, 39.021254], [-83.383038, 39.054115]]]}}, {"type": "Feature", "properties": {"name": "Treutlen", "id": "13283", "FIPS": "13283", "FIPS State": 13, "ST": "GA", "County": "Treutlen County,GA", "State": "Georgia"}, "geometry": {"type": "Polygon", "coordinates": [[[-82.550543, 32.498218], [-82.408142, 32.355817], [-82.654605, 32.295571], [-82.720328, 32.312002], [-82.649128, 32.514649], [-82.550543, 32.498218]]]}}, {"type": "Feature", "properties": {"name": "Ray", "id": "29177", "FIPS": "29177", "FIPS State": 29, "ST": "MO", "County": "Ray County,MO", "State": "Missouri"}, "geometry": {"type": "Polygon", "coordinates": [[[-94.10141, 39.525132], [-93.76184, 39.525132], [-93.756363, 39.20747], [-94.106887, 39.141746], [-94.210949, 39.20747], [-94.210949, 39.453932], [-94.210949, 39.525132], [-94.10141, 39.525132]]]}}, {"type": "Feature", "properties": {"name": "Garvin", "id": "40049", "FIPS": "40049", "FIPS State": 40, "ST": "OK", "County": "Garvin County,OK", "State": "Oklahoma"}, "geometry": {"type": "Polygon", "coordinates": [[[-97.425913, 34.853302], [-96.932988, 34.853302], [-96.932988, 34.634225], [-97.091819, 34.639701], [-97.354713, 34.508255], [-97.562836, 34.508255], [-97.666898, 34.683517], [-97.666898, 34.853302], [-97.425913, 34.853302]]]}}, {"type": "Feature", "properties": {"name": "Wayne", "id": "28153", "FIPS": "28153", "FIPS State": 28, "ST": "MS", "County": "Wayne County,MS", "State": "Mississippi"}, "geometry": {"type": "Polygon", "coordinates": [[[-88.471115, 31.895754], [-88.465638, 31.698584], [-88.449208, 31.435691], [-88.460161, 31.435691], [-88.843547, 31.435691], [-88.942132, 31.435691], [-88.942132, 31.824554], [-88.909271, 31.824554], [-88.471115, 31.895754]]]}}, {"type": "Feature", "properties": {"name": "Guadalupe", "id": "35019", "FIPS": "35019", "FIPS State": 35, "ST": "NM", "County": "Guadalupe County,NM", "State": "New Mexico"}, "geometry": {"type": "Polygon", "coordinates": [[[-104.124211, 35.14358], [-104.129688, 34.776625], [-104.890983, 34.60684], [-104.890983, 34.349424], [-105.312707, 34.349424], [-105.290799, 35.039518], [-105.290799, 35.21478], [-104.124211, 35.14358]]]}}, {"type": "Feature", "properties": {"name": "Yamhill", "id": "41071", "FIPS": "41071", "FIPS State": 41, "ST": "OR", "County": "Yamhill County,OR", "State": "Oregon"}, "geometry": {"type": "Polygon", "coordinates": [[[-123.063471, 45.401889], [-122.866301, 45.319735], [-122.84987, 45.259489], [-122.964886, 45.286874], [-123.068948, 45.073273], [-123.622119, 45.07875], [-123.72618, 45.07875], [-123.463287, 45.434751], [-123.063471, 45.401889]]]}}, {"type": "Feature", "properties": {"name": "Charlevoix", "id": "26029", "FIPS": "26029", "FIPS State": 26, "ST": "MI", "County": "Charlevoix County,MI", "State": "Michigan"}, "geometry": {"type": "Polygon", "coordinates": [[[-85.09732, 45.363551], [-84.730365, 45.286874], [-84.735842, 45.204719], [-84.856335, 45.117088], [-85.321875, 45.204719], [-85.387598, 45.210196], [-85.09732, 45.369028], [-85.09732, 45.363551]]]}}, {"type": "Feature", "properties": {"name": "Leelanau", "id": "26089", "FIPS": "26089", "FIPS State": 26, "ST": "MI", "County": "Leelanau County,MI", "State": "Michigan"}, "geometry": {"type": "Polygon", "coordinates": [[[-85.639537, 44.777518], [-85.814799, 44.772041], [-86.039354, 44.777518], [-86.072215, 44.777518], [-85.617629, 45.188289], [-85.639537, 44.777518]]]}}, {"type": "Feature", "properties": {"name": "Haakon", "id": "46055", "FIPS": "46055", "FIPS State": 46, "ST": "SD", "County": "Haakon County,SD", "State": "South Dakota"}, "geometry": {"type": "Polygon", "coordinates": [[[-101.380264, 44.657025], [-101.139278, 44.744656], [-101.04617, 44.169578], [-101.062601, 43.994316], [-101.407648, 43.994316], [-102.004635, 43.994316], [-101.999158, 44.509148], [-101.999158, 44.509148], [-101.380264, 44.657025]]]}}, {"type": "Feature", "properties": {"name": "Sitka", "id": "02220", "FIPS": "02220", "FIPS State": 2, "ST": "AK", "County": "Sitka County,AK", "State": "Alaska"}, "geometry": {"type": "MultiPolygon", "coordinates": [[[[-136.372436, 57.829067], [-135.589233, 57.89479], [-134.937477, 57.763344], [-134.822462, 57.500451], [-135.572802, 57.675713], [-135.890465, 57.407343], [-136.372436, 57.829067]]], [[[-134.66363, 56.28457], [-134.669107, 56.169554], [-135.413971, 56.810356], [-135.687818, 57.369004], [-135.419448, 57.566174], [-134.849846, 57.407343], [-134.636246, 56.28457], [-134.66363, 56.28457]]]]}}, {"type": "Feature", "properties": {"name": "Vermillion", "id": "18165", "FIPS": "18165", "FIPS State": 18, "ST": "IN", "County": "Vermillion County,IN", "State": "Indiana"}, "geometry": {"type": "Polygon", "coordinates": [[[-87.408589, 40.127596], [-87.419543, 39.952334], [-87.381204, 39.607286], [-87.534558, 39.607286], [-87.534558, 39.881133], [-87.529082, 40.149503], [-87.408589, 40.127596]]]}}, {"type": "Feature", "properties": {"name": "Piute", "id": "49031", "FIPS": "49031", "FIPS State": 49, "ST": "UT", "County": "Piute County,UT", "State": "Utah"}, "geometry": {"type": "Polygon", "coordinates": [[[-111.857651, 38.500944], [-111.764543, 38.500944], [-111.84122, 38.15042], [-112.443683, 38.15042], [-112.52036, 38.511898], [-111.857651, 38.500944]]]}}, {"type": "Feature", "properties": {"name": "Sevier", "id": "49041", "FIPS": "49041", "FIPS State": 49, "ST": "UT", "County": "Sevier County,UT", "State": "Utah"}, "geometry": {"type": "Polygon", "coordinates": [[[-111.978143, 39.043162], [-111.299003, 39.032208], [-111.30448, 38.511898], [-111.764543, 38.500944], [-111.857651, 38.500944], [-112.52036, 38.511898], [-112.514883, 38.572145], [-112.016482, 39.043162], [-111.978143, 39.043162]]]}}, {"type": "Feature", "properties": {"name": "Cass", "id": "19029", "FIPS": "19029", "FIPS State": 19, "ST": "IA", "County": "Cass County,IA", "State": "Iowa"}, "geometry": {"type": "Polygon", "coordinates": [[[-95.152983, 41.507785], [-95.043444, 41.502308], [-94.698396, 41.502308], [-94.698396, 41.157261], [-94.813412, 41.157261], [-94.928428, 41.157261], [-95.158459, 41.157261], [-95.152983, 41.507785]]]}}, {"type": "Feature", "properties": {"name": "Delta", "id": "08029", "FIPS": "08029", "FIPS State": 8, "ST": "CO", "County": "Delta County,CO", "State": "Colorado"}, "geometry": {"type": "Polygon", "coordinates": [[[-107.514437, 39.212947], [-107.503483, 39.218424], [-107.498006, 38.67073], [-108.001885, 38.67073], [-108.379794, 38.67073], [-107.514437, 39.212947]]]}}, {"type": "Feature", "properties": {"name": "Upson", "id": "13293", "FIPS": "13293", "FIPS State": 13, "ST": "GA", "County": "Upson County,GA", "State": "Georgia"}, "geometry": {"type": "Polygon", "coordinates": [[[-84.36341, 32.991142], [-84.270302, 32.991142], [-84.122425, 32.930896], [-84.122425, 32.848742], [-84.204579, 32.689911], [-84.286733, 32.750157], [-84.50581, 32.881604], [-84.527718, 32.969235], [-84.36341, 32.991142]]]}}, {"type": "Feature", "properties": {"name": "Cooper", "id": "29053", "FIPS": "29053", "FIPS State": 29, "ST": "MO", "County": "Cooper County,MO", "State": "Missouri"}, "geometry": {"type": "Polygon", "coordinates": [[[-92.918391, 39.032208], [-92.556913, 38.971961], [-92.496666, 38.922669], [-92.841714, 38.681683], [-93.060791, 38.692637], [-93.049837, 38.928146], [-92.934822, 39.065069], [-92.918391, 39.032208]]]}}, {"type": "Feature", "properties": {"name": "Pierce", "id": "55093", "FIPS": "55093", "FIPS State": 55, "ST": "WI", "County": "Pierce County,WI", "State": "Wisconsin"}, "geometry": {"type": "Polygon", "coordinates": [[[-92.600728, 44.865149], [-92.135188, 44.859672], [-92.135188, 44.68441], [-92.315927, 44.54201], [-92.732175, 44.711795], [-92.803375, 44.744656], [-92.770513, 44.859672], [-92.600728, 44.865149]]]}}, {"type": "Feature", "properties": {"name": "Stone", "id": "05137", "FIPS": "05137", "FIPS State": 5, "ST": "AR", "County": "Stone County,AR", "State": "Arkansas"}, "geometry": {"type": "Polygon", "coordinates": [[[-92.195435, 36.134906], [-91.850387, 35.866536], [-91.839434, 35.702228], [-91.998265, 35.707705], [-92.23925, 35.713182], [-92.414512, 35.789859], [-92.414512, 35.976075], [-92.195435, 36.134906]]]}}, {"type": "Feature", "properties": {"name": "Sumner", "id": "20191", "FIPS": "20191", "FIPS State": 20, "ST": "KS", "County": "Sumner County,KS", "State": "Kansas"}, "geometry": {"type": "Polygon", "coordinates": [[[-97.349236, 37.476757], [-97.152066, 37.476757], [-97.146589, 37.000263], [-97.464251, 37.000263], [-97.650467, 37.000263], [-97.803822, 37.000263], [-97.803822, 37.389126], [-97.809299, 37.383649], [-97.809299, 37.476757], [-97.349236, 37.476757]]]}}, {"type": "Feature", "properties": {"name": "Cowley", "id": "20035", "FIPS": "20035", "FIPS State": 20, "ST": "KS", "County": "Cowley County,KS", "State": "Kansas"}, "geometry": {"type": "Polygon", "coordinates": [[[-97.080866, 37.476757], [-96.527695, 37.476757], [-96.522218, 37.301494], [-96.527695, 37.000263], [-96.730341, 37.000263], [-96.752249, 37.000263], [-96.867265, 37.000263], [-97.146589, 37.000263], [-97.152066, 37.476757], [-97.080866, 37.476757]]]}}, {"type": "Feature", "properties": {"name": "Calhoun", "id": "12013", "FIPS": "12013", "FIPS State": 12, "ST": "FL", "County": "Calhoun County,FL", "State": "Florida"}, "geometry": {"type": "Polygon", "coordinates": [[[-85.16852, 30.608673], [-84.933012, 30.608673], [-85.113751, 30.197903], [-85.22329, 30.20338], [-85.387598, 30.20338], [-85.382121, 30.564858], [-85.16852, 30.608673]]]}}, {"type": "Feature", "properties": {"name": "Macon", "id": "01087", "FIPS": "01087", "FIPS State": 1, "ST": "AL", "County": "Macon County,AL", "State": "Alabama"}, "geometry": {"type": "Polygon", "coordinates": [[[-85.694307, 32.580372], [-85.431413, 32.410587], [-85.431413, 32.235325], [-85.918861, 32.273663], [-86.022923, 32.421541], [-85.885999, 32.492741], [-85.694307, 32.596803], [-85.694307, 32.580372]]]}}, {"type": "Feature", "properties": {"name": "Drew", "id": "05043", "FIPS": "05043", "FIPS State": 5, "ST": "AR", "County": "Drew County,AR", "State": "Arkansas"}, "geometry": {"type": "Polygon", "coordinates": [[[-91.664172, 33.790776], [-91.56011, 33.785299], [-91.456048, 33.566221], [-91.456048, 33.390959], [-91.992788, 33.396436], [-91.976357, 33.703145], [-91.976357, 33.790776], [-91.664172, 33.790776]]]}}, {"type": "Feature", "properties": {"name": "Madison", "id": "05087", "FIPS": "05087", "FIPS State": 5, "ST": "AR", "County": "Madison County,AR", "State": "Arkansas"}, "geometry": {"type": "Polygon", "coordinates": [[[-93.816609, 36.304691], [-93.477039, 36.123952], [-93.520854, 35.762474], [-93.696116, 35.767951], [-93.909717, 35.762474], [-93.964486, 35.762474], [-93.887809, 36.233491], [-93.816609, 36.304691]]]}}, {"type": "Feature", "properties": {"name": "Carter", "id": "21043", "FIPS": "21043", "FIPS State": 21, "ST": "KY", "County": "Carter County,KY", "State": "Kentucky"}, "geometry": {"type": "Polygon", "coordinates": [[[-83.16396, 38.506421], [-82.818913, 38.374975], [-82.791528, 38.243528], [-82.922975, 38.177805], [-83.246114, 38.194236], [-83.339222, 38.320205], [-83.16396, 38.506421]]]}}, {"type": "Feature", "properties": {"name": "Gilchrist", "id": "12041", "FIPS": "12041", "FIPS State": 12, "ST": "FL", "County": "Gilchrist County,FL", "State": "Florida"}, "geometry": {"type": "Polygon", "coordinates": [[[-82.879159, 29.885717], [-82.802482, 29.93501], [-82.660082, 29.830948], [-82.654605, 29.562578], [-82.873682, 29.589962], [-82.939406, 29.589962], [-82.922975, 29.825471], [-82.917498, 29.825471], [-82.906544, 29.825471], [-82.879159, 29.885717]]]}}, {"type": "Feature", "properties": {"name": "Screven", "id": "13251", "FIPS": "13251", "FIPS State": 13, "ST": "GA", "County": "Screven County,GA", "State": "Georgia"}, "geometry": {"type": "Polygon", "coordinates": [[[-81.542786, 33.045912], [-81.411339, 32.74468], [-81.389431, 32.596803], [-81.548263, 32.487264], [-81.827587, 32.651572], [-81.838541, 32.651572], [-81.76734, 32.908988], [-81.542786, 33.045912]]]}}, {"type": "Feature", "properties": {"name": "Talbot", "id": "24041", "FIPS": "24041", "FIPS State": 24, "ST": "MD", "County": "Talbot County,MD", "State": "Maryland"}, "geometry": {"type": "Polygon", "coordinates": [[[-76.071322, 38.9391], [-75.95083, 38.917192], [-75.945353, 38.676207], [-76.153476, 38.632391], [-76.197292, 38.851469], [-76.071322, 38.9391]]]}}, {"type": "Feature", "properties": {"name": "Evangeline", "id": "22039", "FIPS": "22039", "FIPS State": 22, "ST": "LA", "County": "Evangeline County,LA", "State": "Louisiana"}, "geometry": {"type": "Polygon", "coordinates": [[[-92.387128, 31.003013], [-92.283066, 30.964674], [-92.211866, 30.849659], [-92.49119, 30.482704], [-92.63359, 30.482704], [-92.628113, 30.488181], [-92.595251, 30.893474], [-92.387128, 31.003013]]]}}, {"type": "Feature", "properties": {"name": "Pacific", "id": "53049", "FIPS": "53049", "FIPS State": 53, "ST": "WA", "County": "Pacific County,WA", "State": "Washington"}, "geometry": {"type": "Polygon", "coordinates": [[[-124.098612, 46.793032], [-123.370179, 46.793032], [-123.359225, 46.382262], [-123.72618, 46.289154], [-124.098612, 46.793032]]]}}, {"type": "Feature", "properties": {"name": "Calhoun", "id": "48057", "FIPS": "48057", "FIPS State": 48, "ST": "TX", "County": "Calhoun County,TX", "State": "Texas"}, "geometry": {"type": "MultiPolygon", "coordinates": [[[[-96.576987, 28.708175], [-96.325048, 28.675313], [-96.325048, 28.642452], [-96.576987, 28.702698], [-96.576987, 28.708175]]], [[[-96.763203, 28.41242], [-96.889173, 28.505528], [-96.653664, 28.702698], [-96.763203, 28.41242]]]]}}, {"type": "Feature", "properties": {"name": "Hampton", "id": "45049", "FIPS": "45049", "FIPS State": 45, "ST": "SC", "County": "Hampton County,SC", "State": "South Carolina"}, "geometry": {"type": "Polygon", "coordinates": [[[-81.055338, 33.002096], [-80.825307, 32.706342], [-80.869122, 32.662526], [-81.142969, 32.657049], [-81.279893, 32.558464], [-81.389431, 32.596803], [-81.411339, 32.74468], [-81.082723, 33.024004], [-81.055338, 33.002096]]]}}, {"type": "Feature", "properties": {"name": "Marshall", "id": "54051", "FIPS": "54051", "FIPS State": 54, "ST": "WV", "County": "Marshall County,WV", "State": "West Virginia"}, "geometry": {"type": "Polygon", "coordinates": [[[-80.726722, 40.034488], [-80.518598, 40.018057], [-80.518598, 39.963288], [-80.518598, 39.722302], [-80.830783, 39.722302], [-80.81983, 39.848272], [-80.732199, 40.034488], [-80.726722, 40.034488]]]}}, {"type": "Feature", "properties": {"name": "Wayne", "id": "21231", "FIPS": "21231", "FIPS State": 21, "ST": "KY", "County": "Wayne County,KY", "State": "Kentucky"}, "geometry": {"type": "Polygon", "coordinates": [[[-84.807042, 36.989309], [-84.577011, 36.868816], [-84.779657, 36.605923], [-84.785134, 36.605923], [-84.976827, 36.616877], [-85.064458, 36.857862], [-84.834427, 36.994786], [-84.807042, 36.989309]]]}}, {"type": "Feature", "properties": {"name": "Jersey", "id": "17083", "FIPS": "17083", "FIPS State": 17, "ST": "IL", "County": "Jersey County,IL", "State": "Illinois"}, "geometry": {"type": "Polygon", "coordinates": [[[-90.147059, 39.262239], [-90.147059, 38.999346], [-90.240167, 38.999346], [-90.278506, 38.922669], [-90.448291, 38.966484], [-90.601645, 39.119839], [-90.147059, 39.262239]]]}}, {"type": "Feature", "properties": {"name": "Bledsoe", "id": "47007", "FIPS": "47007", "FIPS State": 47, "ST": "TN", "County": "Bledsoe County,TN", "State": "Tennessee"}, "geometry": {"type": "Polygon", "coordinates": [[[-85.256151, 35.767951], [-85.256151, 35.767951], [-84.916581, 35.762474], [-85.135659, 35.455766], [-85.22329, 35.351704], [-85.425936, 35.565304], [-85.256151, 35.767951]]]}}, {"type": "Feature", "properties": {"name": "La Salle", "id": "22059", "FIPS": "22059", "FIPS State": 22, "ST": "LA", "County": "La Salle County,LA", "State": "Louisiana"}, "geometry": {"type": "Polygon", "coordinates": [[[-92.184481, 31.928616], [-92.003742, 31.928616], [-92.009219, 31.326153], [-92.085896, 31.337106], [-92.195435, 31.479507], [-92.36522, 31.797169], [-92.31045, 31.928616], [-92.184481, 31.928616]]]}}, {"type": "Feature", "properties": {"name": "Polk", "id": "41053", "FIPS": "41053", "FIPS State": 41, "ST": "OR", "County": "Polk County,OR", "State": "Oregon"}, "geometry": {"type": "Polygon", "coordinates": [[[-123.622119, 45.07875], [-123.068948, 45.073273], [-123.145625, 44.750133], [-123.151102, 44.722749], [-123.561872, 44.722749], [-123.600211, 44.722749], [-123.72618, 45.045888], [-123.72618, 45.07875], [-123.622119, 45.07875]]]}}, {"type": "Feature", "properties": {"name": "Dooly", "id": "13093", "FIPS": "13093", "FIPS State": 13, "ST": "GA", "County": "Dooly County,GA", "State": "Georgia"}, "geometry": {"type": "Polygon", "coordinates": [[[-83.848578, 32.290094], [-83.613069, 32.290094], [-83.607592, 32.120309], [-83.607592, 32.027201], [-83.963593, 32.032678], [-84.029317, 32.169601], [-83.848578, 32.290094]]]}}, {"type": "Feature", "properties": {"name": "Page", "id": "19145", "FIPS": "19145", "FIPS State": 19, "ST": "IA", "County": "Page County,IA", "State": "Iowa"}, "geometry": {"type": "Polygon", "coordinates": [[[-95.289906, 40.899844], [-94.928428, 40.899844], [-94.917474, 40.576705], [-95.163936, 40.576705], [-95.202275, 40.576705], [-95.37206, 40.582182], [-95.383014, 40.899844], [-95.289906, 40.899844]]]}}, {"type": "Feature", "properties": {"name": "Montgomery", "id": "20125", "FIPS": "20125", "FIPS State": 20, "ST": "KS", "County": "Montgomery County,KS", "State": "Kansas"}, "geometry": {"type": "Polygon", "coordinates": [[[-95.96357, 37.389126], [-95.525414, 37.383649], [-95.519938, 37.383649], [-95.519938, 37.000263], [-95.613046, 37.000263], [-95.788308, 37.000263], [-95.9088, 37.000263], [-95.96357, 37.000263], [-95.96357, 37.301494], [-95.96357, 37.389126]]]}}, {"type": "Feature", "properties": {"name": "Warren", "id": "51187", "FIPS": "51187", "FIPS State": 51, "ST": "VA", "County": "Warren County,VA", "State": "Virginia"}, "geometry": {"type": "Polygon", "coordinates": [[[-78.15256, 39.037685], [-78.004682, 38.977438], [-78.130652, 38.862422], [-78.256622, 38.758361], [-78.284006, 38.758361], [-78.388068, 38.829561], [-78.311391, 39.0103], [-78.15256, 39.037685]]]}}, {"type": "Feature", "properties": {"name": "Colfax", "id": "35007", "FIPS": "35007", "FIPS State": 35, "ST": "NM", "County": "Colfax County,NM", "State": "New Mexico"}, "geometry": {"type": "Polygon", "coordinates": [[[-104.009195, 36.994786], [-104.009195, 36.21706], [-104.436396, 36.21706], [-105.340092, 36.260876], [-105.219599, 36.994786], [-105.153876, 36.994786], [-104.009195, 36.994786]]]}}, {"type": "Feature", "properties": {"name": "Baca", "id": "08009", "FIPS": "08009", "FIPS State": 8, "ST": "CO", "County": "Baca County,CO", "State": "Colorado"}, "geometry": {"type": "Polygon", "coordinates": [[[-102.749499, 37.641065], [-102.042974, 37.646542], [-102.042974, 37.389126], [-102.042974, 36.994786], [-103.001438, 37.000263], [-103.083592, 37.000263], [-103.078115, 37.641065], [-102.749499, 37.641065]]]}}, {"type": "Feature", "properties": {"name": "Randolph", "id": "54083", "FIPS": "54083", "FIPS State": 54, "ST": "WV", "County": "Randolph County,WV", "State": "West Virginia"}, "geometry": {"type": "Polygon", "coordinates": [[[-79.757303, 39.032208], [-79.357487, 38.966484], [-79.35201, 38.95553], [-79.625857, 38.665253], [-80.244751, 38.385929], [-80.277612, 38.692637], [-80.08592, 38.944577], [-79.823026, 39.114362], [-79.757303, 39.032208]]]}}, {"type": "Feature", "properties": {"name": "Glades", "id": "12043", "FIPS": "12043", "FIPS State": 12, "ST": "FL", "County": "Glades County,FL", "State": "Florida"}, "geometry": {"type": "Polygon", "coordinates": [[[-80.945799, 27.21297], [-80.885553, 26.961031], [-80.96223, 26.769338], [-81.564693, 26.769338], [-81.564693, 27.032231], [-80.945799, 27.21297]]]}}, {"type": "Feature", "properties": {"name": "Wright", "id": "29229", "FIPS": "29229", "FIPS State": 29, "ST": "MO", "County": "Wright County,MO", "State": "Missouri"}, "geometry": {"type": "Polygon", "coordinates": [[[-92.688359, 37.482234], [-92.250204, 37.47128], [-92.250204, 37.060509], [-92.688359, 37.065986], [-92.688359, 37.482234]]]}}, {"type": "Feature", "properties": {"name": "Aransas", "id": "48007", "FIPS": "48007", "FIPS State": 48, "ST": "TX", "County": "Aransas County,TX", "State": "Texas"}, "geometry": {"type": "MultiPolygon", "coordinates": [[[[-96.801542, 28.275497], [-96.812495, 28.21525], [-97.135635, 27.903065], [-97.261605, 28.078327], [-96.790588, 28.319312], [-96.801542, 28.275497]]], [[[-96.828926, 28.111189], [-96.856311, 28.061896], [-97.048004, 27.837342], [-97.053481, 27.842818], [-96.828926, 28.111189]]]]}}, {"type": "Feature", "properties": {"name": "Schley", "id": "13249", "FIPS": "13249", "FIPS State": 13, "ST": "GA", "County": "Schley County,GA", "State": "Georgia"}, "geometry": {"type": "Polygon", "coordinates": [[[-84.36341, 32.399633], [-84.253871, 32.372248], [-84.182671, 32.229848], [-84.429133, 32.164124], [-84.390795, 32.416064], [-84.36341, 32.399633]]]}}, {"type": "Feature", "properties": {"name": "Carroll", "id": "51035", "FIPS": "51035", "FIPS State": 51, "ST": "VA", "County": "Carroll County,VA", "State": "Virginia"}, "geometry": {"type": "Polygon", "coordinates": [[[-80.633614, 36.929063], [-80.463828, 36.709985], [-80.611706, 36.556631], [-80.83626, 36.556631], [-80.83626, 36.556631], [-80.912938, 36.649739], [-80.934845, 36.671646], [-81.044384, 36.80857], [-80.743152, 36.87977], [-80.633614, 36.929063]]]}}, {"type": "Feature", "properties": {"name": "Calhoun", "id": "19025", "FIPS": "19025", "FIPS State": 19, "ST": "IA", "County": "Calhoun County,IA", "State": "Iowa"}, "geometry": {"type": "Polygon", "coordinates": [[[-94.616242, 42.559357], [-94.44098, 42.559357], [-94.397165, 42.208833], [-94.627196, 42.208833], [-94.857228, 42.208833], [-94.911997, 42.559357], [-94.616242, 42.559357]]]}}, {"type": "Feature", "properties": {"name": "Sherman", "id": "20181", "FIPS": "20181", "FIPS State": 20, "ST": "KS", "County": "Sherman County,KS", "State": "Kansas"}, "geometry": {"type": "Polygon", "coordinates": [[[-102.004635, 39.568948], [-101.413125, 39.568948], [-101.391218, 39.568948], [-101.391218, 39.13627], [-101.478849, 39.13627], [-102.04845, 39.130793], [-102.04845, 39.568948], [-102.004635, 39.568948]]]}}, {"type": "Feature", "properties": {"name": "Wasatch", "id": "49051", "FIPS": "49051", "FIPS State": 49, "ST": "UT", "County": "Wasatch County,UT", "State": "Utah"}, "geometry": {"type": "Polygon", "coordinates": [[[-111.430449, 40.686244], [-110.904663, 40.680767], [-110.893709, 39.897564], [-111.594758, 40.576705], [-111.550942, 40.609566], [-111.430449, 40.686244]]]}}, {"type": "Feature", "properties": {"name": "Lenoir", "id": "37107", "FIPS": "37107", "FIPS State": 37, "ST": "NC", "County": "Lenoir County,NC", "State": "North Carolina"}, "geometry": {"type": "Polygon", "coordinates": [[[-77.446034, 35.379088], [-77.391265, 35.34075], [-77.473419, 35.231211], [-77.730835, 35.006656], [-77.834897, 35.176442], [-77.807512, 35.368135], [-77.473419, 35.428381], [-77.446034, 35.379088]]]}}, {"type": "Feature", "properties": {"name": "Mecklenburg", "id": "51117", "FIPS": "51117", "FIPS State": 51, "ST": "VA", "County": "Mecklenburg County,VA", "State": "Virginia"}, "geometry": {"type": "Polygon", "coordinates": [[[-78.475699, 36.885247], [-78.02659, 36.775708], [-78.048498, 36.545677], [-78.322345, 36.545677], [-78.459268, 36.5402], [-78.470222, 36.5402], [-78.733115, 36.5402], [-78.650961, 36.699031], [-78.49213, 36.890724], [-78.475699, 36.885247]]]}}, {"type": "Feature", "properties": {"name": "Martin", "id": "27091", "FIPS": "27091", "FIPS State": 27, "ST": "MN", "County": "Martin County,MN", "State": "Minnesota"}, "geometry": {"type": "Polygon", "coordinates": [[[-94.616242, 43.846438], [-94.36978, 43.846438], [-94.249287, 43.846438], [-94.249287, 43.501391], [-94.44098, 43.501391], [-94.676489, 43.501391], [-94.851751, 43.501391], [-94.851751, 43.846438], [-94.616242, 43.846438]]]}}, {"type": "Feature", "properties": {"name": "Crawford", "id": "17033", "FIPS": "17033", "FIPS State": 17, "ST": "IL", "County": "Crawford County,IL", "State": "Illinois"}, "geometry": {"type": "Polygon", "coordinates": [[[-87.786498, 39.180085], [-87.644097, 39.158177], [-87.534558, 38.900761], [-87.534558, 38.851469], [-87.90699, 38.851469], [-87.945329, 38.851469], [-87.950806, 39.174608], [-87.786498, 39.180085]]]}}, {"type": "Feature", "properties": {"name": "Magoffin", "id": "21153", "FIPS": "21153", "FIPS State": 21, "ST": "KY", "County": "Magoffin County,KY", "State": "Kentucky"}, "geometry": {"type": "Polygon", "coordinates": [[[-83.005129, 37.860142], [-82.939406, 37.717742], [-82.922975, 37.48771], [-82.944882, 37.498664], [-82.950359, 37.504141], [-83.246114, 37.668449], [-83.262545, 37.712265], [-83.005129, 37.860142]]]}}, {"type": "Feature", "properties": {"name": "Bureau", "id": "17011", "FIPS": "17011", "FIPS State": 17, "ST": "IL", "County": "Bureau County,IL", "State": "Illinois"}, "geometry": {"type": "Polygon", "coordinates": [[[-89.254318, 41.584462], [-89.166687, 41.584462], [-89.16121, 41.310615], [-89.467918, 41.146307], [-89.522688, 41.146307], [-89.637704, 41.146307], [-89.856781, 41.233938], [-89.862258, 41.584462], [-89.632227, 41.584462], [-89.254318, 41.584462]]]}}, {"type": "Feature", "properties": {"name": "Harrison", "id": "21097", "FIPS": "21097", "FIPS State": 21, "ST": "KY", "County": "Harrison County,KY", "State": "Kentucky"}, "geometry": {"type": "Polygon", "coordinates": [[[-84.401749, 38.561191], [-84.204579, 38.583099], [-84.160763, 38.555714], [-84.100517, 38.457129], [-84.193625, 38.369498], [-84.264825, 38.325682], [-84.440087, 38.281867], [-84.555103, 38.495467], [-84.478426, 38.54476], [-84.401749, 38.561191]]]}}, {"type": "Feature", "properties": {"name": "Jackson", "id": "40065", "FIPS": "40065", "FIPS State": 40, "ST": "OK", "County": "Jackson County,OK", "State": "Oklahoma"}, "geometry": {"type": "Polygon", "coordinates": [[[-99.397611, 34.814964], [-99.244257, 34.820441], [-99.101857, 34.639701], [-99.211395, 34.33847], [-99.474288, 34.398716], [-99.84672, 34.508255], [-99.665981, 34.727333], [-99.397611, 34.814964]]]}}, {"type": "Feature", "properties": {"name": "Copiah", "id": "28029", "FIPS": "28029", "FIPS State": 28, "ST": "MS", "County": "Copiah County,MS", "State": "Mississippi"}, "geometry": {"type": "Polygon", "coordinates": [[[-90.716661, 32.049109], [-90.229213, 32.049109], [-90.125151, 31.753354], [-90.245644, 31.715015], [-90.311367, 31.698584], [-90.738569, 31.698584], [-90.738569, 31.786216], [-90.716661, 32.049109]]]}}, {"type": "Feature", "properties": {"name": "Brule", "id": "46015", "FIPS": "46015", "FIPS State": 46, "ST": "SD", "County": "Brule County,SD", "State": "South Dakota"}, "geometry": {"type": "Polygon", "coordinates": [[[-98.806102, 43.934069], [-98.795148, 43.501391], [-99.299026, 43.501391], [-99.353796, 43.934069], [-98.926594, 43.934069], [-98.806102, 43.934069]]]}}, {"type": "Feature", "properties": {"name": "Metcalfe", "id": "21169", "FIPS": "21169", "FIPS State": 21, "ST": "KY", "County": "Metcalfe County,KY", "State": "Kentucky"}, "geometry": {"type": "Polygon", "coordinates": [[[-85.68883, 37.181002], [-85.524521, 37.109802], [-85.453321, 36.940016], [-85.595722, 36.819524], [-85.738122, 36.841432], [-85.743599, 37.170048], [-85.68883, 37.181002]]]}}, {"type": "Feature", "properties": {"name": "Morris", "id": "48343", "FIPS": "48343", "FIPS State": 48, "ST": "TX", "County": "Morris County,TX", "State": "Texas"}, "geometry": {"type": "Polygon", "coordinates": [[[-94.807935, 33.363574], [-94.747689, 33.330713], [-94.654581, 33.270466], [-94.654581, 32.881604], [-94.703873, 32.881604], [-94.720304, 32.903511], [-94.818889, 32.980189], [-94.807935, 33.363574]]]}}, {"type": "Feature", "properties": {"name": "Perquimans", "id": "37143", "FIPS": "37143", "FIPS State": 37, "ST": "NC", "County": "Perquimans County,NC", "State": "North Carolina"}, "geometry": {"type": "Polygon", "coordinates": [[[-76.454708, 36.375892], [-76.191815, 36.118475], [-76.410893, 36.07466], [-76.55877, 36.353984], [-76.454708, 36.375892]]]}}, {"type": "Feature", "properties": {"name": "Dawson", "id": "48115", "FIPS": "48115", "FIPS State": 48, "ST": "TX", "County": "Dawson County,TX", "State": "Texas"}, "geometry": {"type": "Polygon", "coordinates": [[[-101.692449, 32.963758], [-101.686972, 32.525602], [-102.201805, 32.525602], [-102.207282, 32.958281], [-102.075835, 32.958281], [-101.692449, 32.963758]]]}}, {"type": "Feature", "properties": {"name": "Grant", "id": "31075", "FIPS": "31075", "FIPS State": 31, "ST": "NE", "County": "Grant County,NE", "State": "Nebraska"}, "geometry": {"type": "Polygon", "coordinates": [[[-102.004635, 42.093817], [-101.424079, 42.093817], [-101.424079, 41.743293], [-101.988204, 41.743293], [-102.064881, 42.011663], [-102.004635, 42.093817]]]}}, {"type": "Feature", "properties": {"name": "Madison", "id": "12079", "FIPS": "12079", "FIPS State": 12, "ST": "FL", "County": "Madison County,FL", "State": "Florida"}, "geometry": {"type": "Polygon", "coordinates": [[[-83.355653, 30.636058], [-83.311837, 30.636058], [-83.169437, 30.384119], [-83.246114, 30.258149], [-83.366607, 30.258149], [-83.509007, 30.301965], [-83.821193, 30.301965], [-83.613069, 30.652489], [-83.355653, 30.636058]]]}}, {"type": "Feature", "properties": {"name": "Gratiot", "id": "26057", "FIPS": "26057", "FIPS State": 26, "ST": "MI", "County": "Gratiot County,MI", "State": "Michigan"}, "geometry": {"type": "Polygon", "coordinates": [[[-84.774181, 43.468529], [-84.609872, 43.468529], [-84.368887, 43.468529], [-84.368887, 43.128959], [-84.368887, 43.118005], [-84.719411, 43.118005], [-84.834427, 43.118005], [-84.845381, 43.468529], [-84.774181, 43.468529]]]}}, {"type": "Feature", "properties": {"name": "Pittsburg", "id": "40121", "FIPS": "40121", "FIPS State": 40, "ST": "OK", "County": "Pittsburg County,OK", "State": "Oklahoma"}, "geometry": {"type": "Polygon", "coordinates": [[[-95.706154, 35.203826], [-95.448737, 35.296934], [-95.350152, 35.055949], [-95.514461, 34.683517], [-95.673292, 34.595886], [-96.089539, 34.67804], [-96.089539, 34.765671], [-95.985477, 35.149057], [-95.706154, 35.203826]]]}}, {"type": "Feature", "properties": {"name": "Ford", "id": "20057", "FIPS": "20057", "FIPS State": 20, "ST": "KS", "County": "Ford County,KS", "State": "Kansas"}, "geometry": {"type": "Polygon", "coordinates": [[[-99.874105, 37.914912], [-99.567396, 37.914912], [-99.56192, 37.734173], [-99.556443, 37.465803], [-100.054844, 37.47128], [-100.109614, 37.476757], [-100.213675, 37.476757], [-100.224629, 37.914912], [-99.874105, 37.914912]]]}}, {"type": "Feature", "properties": {"name": "Ogle", "id": "17141", "FIPS": "17141", "FIPS State": 17, "ST": "IL", "County": "Ogle County,IL", "State": "Illinois"}, "geometry": {"type": "Polygon", "coordinates": [[[-89.281702, 42.203356], [-88.942132, 42.154064], [-88.942132, 41.891171], [-89.544596, 41.902124], [-89.632227, 41.902124], [-89.686996, 41.929509], [-89.686996, 42.197879], [-89.396718, 42.203356], [-89.281702, 42.203356]]]}}, {"type": "Feature", "properties": {"name": "Lauderdale", "id": "47097", "FIPS": "47097", "FIPS State": 47, "ST": "TN", "County": "Lauderdale County,TN", "State": "Tennessee"}, "geometry": {"type": "Polygon", "coordinates": [[[-89.489826, 35.94869], [-89.341949, 35.882967], [-89.35838, 35.817244], [-89.50078, 35.581735], [-89.643181, 35.647459], [-89.911551, 35.53792], [-89.643181, 35.904875], [-89.489826, 35.94869]]]}}, {"type": "Feature", "properties": {"name": "Glenn", "id": "06021", "FIPS": "06021", "FIPS State": 6, "ST": "CA", "County": "Glenn County,CA", "State": "California"}, "geometry": {"type": "Polygon", "coordinates": [[[-122.937501, 39.798979], [-122.04476, 39.798979], [-121.891405, 39.382732], [-122.077621, 39.415593], [-122.740331, 39.382732], [-122.882732, 39.579902], [-122.937501, 39.798979]]]}}, {"type": "Feature", "properties": {"name": "Itasca", "id": "27061", "FIPS": "27061", "FIPS State": 27, "ST": "MN", "County": "Itasca County,MN", "State": "Minnesota"}, "geometry": {"type": "Polygon", "coordinates": [[[-93.597531, 47.899374], [-93.082699, 47.893897], [-93.055314, 47.028541], [-93.712547, 47.028541], [-93.772794, 47.028541], [-94.052118, 47.428357], [-94.413596, 47.444788], [-94.419073, 47.844605], [-93.597531, 47.899374]]]}}, {"type": "Feature", "properties": {"name": "Hutchinson", "id": "48233", "FIPS": "48233", "FIPS State": 48, "ST": "TX", "County": "Hutchinson County,TX", "State": "Texas"}, "geometry": {"type": "Polygon", "coordinates": [[[-101.621249, 36.052752], [-101.084509, 36.052752], [-101.084509, 35.625551], [-101.621249, 35.625551], [-101.621249, 36.052752]]]}}, {"type": "Feature", "properties": {"name": "Hamilton", "id": "12047", "FIPS": "12047", "FIPS State": 12, "ST": "FL", "County": "Hamilton County,FL", "State": "Florida"}, "geometry": {"type": "Polygon", "coordinates": [[[-83.311837, 30.636058], [-83.136575, 30.625104], [-82.687466, 30.597719], [-82.69842, 30.597719], [-82.797005, 30.334826], [-83.081806, 30.438888], [-83.169437, 30.384119], [-83.311837, 30.636058]]]}}, {"type": "Feature", "properties": {"name": "Gulf", "id": "12045", "FIPS": "12045", "FIPS State": 12, "ST": "FL", "County": "Gulf County,FL", "State": "Florida"}, "geometry": {"type": "Polygon", "coordinates": [[[-85.22329, 30.20338], [-85.113751, 30.197903], [-85.02612, 29.973348], [-85.217813, 29.694024], [-85.387598, 29.924056], [-85.387598, 30.20338], [-85.22329, 30.20338]]]}}, {"type": "Feature", "properties": {"name": "Dickson", "id": "47043", "FIPS": "47043", "FIPS State": 47, "ST": "TN", "County": "Dickson County,TN", "State": "Tennessee"}, "geometry": {"type": "Polygon", "coordinates": [[[-87.512651, 36.332076], [-87.288096, 36.321122], [-87.184034, 36.047275], [-87.205942, 35.959644], [-87.512651, 35.992506], [-87.534558, 35.992506], [-87.56742, 36.178722], [-87.512651, 36.332076]]]}}, {"type": "Feature", "properties": {"name": "Marion", "id": "19125", "FIPS": "19125", "FIPS State": 19, "ST": "IA", "County": "Marion County,IA", "State": "Iowa"}, "geometry": {"type": "Polygon", "coordinates": [[[-92.869098, 41.507785], [-92.869098, 41.162737], [-93.09913, 41.162737], [-93.329161, 41.162737], [-93.329161, 41.491354], [-93.329161, 41.507785], [-92.869098, 41.507785]]]}}, {"type": "Feature", "properties": {"name": "Rowan", "id": "21205", "FIPS": "21205", "FIPS State": 21, "ST": "KY", "County": "Rowan County,KY", "State": "Kentucky"}, "geometry": {"type": "Polygon", "coordinates": [[[-83.410422, 38.396883], [-83.339222, 38.320205], [-83.246114, 38.194236], [-83.262545, 38.117559], [-83.355653, 38.068266], [-83.43233, 38.035405], [-83.498053, 38.051835], [-83.634977, 38.188759], [-83.454238, 38.380452], [-83.410422, 38.396883]]]}}, {"type": "Feature", "properties": {"name": "Menominee", "id": "26109", "FIPS": "26109", "FIPS State": 26, "ST": "MI", "County": "Menominee County,MI", "State": "Michigan"}, "geometry": {"type": "Polygon", "coordinates": [[[-87.616713, 45.987922], [-87.37025, 45.987922], [-87.266188, 45.549767], [-87.589328, 45.095181], [-87.846744, 45.725029], [-87.616713, 45.987922]]]}}, {"type": "Feature", "properties": {"name": "Clinton", "id": "29049", "FIPS": "29049", "FIPS State": 29, "ST": "MO", "County": "Clinton County,MO", "State": "Missouri"}, "geometry": {"type": "Polygon", "coordinates": [[[-94.506704, 39.749687], [-94.205472, 39.74421], [-94.210949, 39.525132], [-94.210949, 39.453932], [-94.56695, 39.453932], [-94.599812, 39.453932], [-94.599812, 39.530609], [-94.599812, 39.749687], [-94.506704, 39.749687]]]}}, {"type": "Feature", "properties": {"name": "Cottonwood", "id": "27033", "FIPS": "27033", "FIPS State": 27, "ST": "MN", "County": "Cottonwood County,MN", "State": "Minnesota"}, "geometry": {"type": "Polygon", "coordinates": [[[-95.459691, 44.196962], [-95.109167, 44.196962], [-94.857228, 44.109331], [-94.857228, 43.846438], [-95.114644, 43.846438], [-95.454214, 43.846438], [-95.465168, 43.846438], [-95.459691, 44.196962]]]}}, {"type": "Feature", "properties": {"name": "Marshall", "id": "21157", "FIPS": "21157", "FIPS State": 21, "ST": "KY", "County": "Marshall County,KY", "State": "Kentucky"}, "geometry": {"type": "Polygon", "coordinates": [[[-88.432777, 37.049555], [-88.241084, 36.983832], [-88.15893, 36.868816], [-88.109637, 36.748324], [-88.487546, 36.748324], [-88.482069, 36.940016], [-88.482069, 37.022171], [-88.432777, 37.049555]]]}}, {"type": "Feature", "properties": {"name": "Simpson", "id": "28127", "FIPS": "28127", "FIPS State": 28, "ST": "MS", "County": "Simpson County,MS", "State": "Mississippi"}, "geometry": {"type": "Polygon", "coordinates": [[[-90.190875, 32.049109], [-89.730812, 32.049109], [-89.654134, 31.780739], [-89.752719, 31.775262], [-89.977274, 31.764308], [-90.125151, 31.753354], [-90.229213, 32.049109], [-90.190875, 32.049109]]]}}, {"type": "Feature", "properties": {"name": "Montezuma", "id": "08083", "FIPS": "08083", "FIPS State": 8, "ST": "CO", "County": "Montezuma County,CO", "State": "Colorado"}, "geometry": {"type": "Polygon", "coordinates": [[[-107.9745, 37.641065], [-108.379794, 37.000263], [-109.042503, 37.000263], [-109.042503, 37.482234], [-107.9745, 37.641065]]]}}, {"type": "Feature", "properties": {"name": "Ware", "id": "13299", "FIPS": "13299", "FIPS State": 13, "ST": "GA", "County": "Ware County,GA", "State": "Georgia"}, "geometry": {"type": "Polygon", "coordinates": [[[-82.473866, 31.419261], [-82.419096, 31.419261], [-82.282173, 31.227568], [-82.134295, 31.00849], [-82.216449, 30.570335], [-82.419096, 30.581289], [-82.671035, 31.183752], [-82.62722, 31.364491], [-82.599835, 31.468553], [-82.473866, 31.419261]]]}}, {"type": "Feature", "properties": {"name": "Scott", "id": "17171", "FIPS": "17171", "FIPS State": 17, "ST": "IL", "County": "Scott County,IL", "State": "Illinois"}, "geometry": {"type": "Polygon", "coordinates": [[[-90.371614, 39.667533], [-90.300413, 39.519655], [-90.579737, 39.519655], [-90.601645, 39.788025], [-90.371614, 39.667533]]]}}, {"type": "Feature", "properties": {"name": "Washington", "id": "22117", "FIPS": "22117", "FIPS State": 22, "ST": "LA", "County": "Washington County,LA", "State": "Louisiana"}, "geometry": {"type": "Polygon", "coordinates": [[[-89.834873, 31.003013], [-89.730812, 31.003013], [-89.84035, 30.663443], [-90.256598, 30.712735], [-90.349706, 31.003013], [-90.262075, 31.003013], [-89.834873, 31.003013]]]}}, {"type": "Feature", "properties": {"name": "Matagorda", "id": "48321", "FIPS": "48321", "FIPS State": 48, "ST": "TX", "County": "Matagorda County,TX", "State": "Texas"}, "geometry": {"type": "Polygon", "coordinates": [[[-95.864985, 29.223007], [-95.508984, 28.823191], [-96.379817, 28.385036], [-96.37434, 28.401466], [-96.325048, 28.642452], [-96.325048, 28.675313], [-96.308617, 28.965591], [-95.875939, 29.228484], [-95.864985, 29.223007]]]}}, {"type": "Feature", "properties": {"name": "Richland", "id": "38077", "FIPS": "38077", "FIPS State": 38, "ST": "ND", "County": "Richland County,ND", "State": "North Dakota"}, "geometry": {"type": "Polygon", "coordinates": [[[-96.790588, 46.628724], [-96.790588, 46.628724], [-96.576987, 46.020784], [-96.560556, 45.933153], [-96.735818, 45.933153], [-97.228743, 45.933153], [-97.278035, 46.283677], [-97.278035, 46.628724], [-96.790588, 46.628724]]]}}, {"type": "Feature", "properties": {"name": "Decatur", "id": "19053", "FIPS": "19053", "FIPS State": 19, "ST": "IA", "County": "Decatur County,IA", "State": "Iowa"}, "geometry": {"type": "Polygon", "coordinates": [[[-93.663255, 40.899844], [-93.559193, 40.899844], [-93.559193, 40.582182], [-93.772794, 40.576705], [-94.013779, 40.571228], [-94.013779, 40.894367], [-93.663255, 40.899844]]]}}, {"type": "Feature", "properties": {"name": "Pushmataha", "id": "40127", "FIPS": "40127", "FIPS State": 40, "ST": "OK", "County": "Pushmataha County,OK", "State": "Oklahoma"}, "geometry": {"type": "Polygon", "coordinates": [[[-95.311814, 34.683517], [-95.059875, 34.67804], [-94.939382, 34.508255], [-95.158459, 34.157731], [-95.383014, 34.157731], [-95.777354, 34.157731], [-95.673292, 34.595886], [-95.514461, 34.683517], [-95.311814, 34.683517]]]}}, {"type": "Feature", "properties": {"name": "Mifflin", "id": "42087", "FIPS": "42087", "FIPS State": 42, "ST": "PA", "County": "Mifflin County,PA", "State": "Pennsylvania"}, "geometry": {"type": "Polygon", "coordinates": [[[-77.36388, 40.845075], [-77.358403, 40.806736], [-77.287203, 40.691721], [-77.752743, 40.379535], [-77.681543, 40.730059], [-77.36388, 40.845075]]]}}, {"type": "Feature", "properties": {"name": "Conecuh", "id": "01035", "FIPS": "01035", "FIPS State": 1, "ST": "AL", "County": "Conecuh County,AL", "State": "Alabama"}, "geometry": {"type": "Polygon", "coordinates": [[[-86.910187, 31.753354], [-86.90471, 31.753354], [-86.702064, 31.523322], [-86.702064, 31.194706], [-86.948526, 31.260429], [-87.42502, 31.260429], [-86.910187, 31.753354]]]}}, {"type": "Feature", "properties": {"name": "Ritchie", "id": "54085", "FIPS": "54085", "FIPS State": 54, "ST": "WV", "County": "Ritchie County,WV", "State": "West Virginia"}, "geometry": {"type": "Polygon", "coordinates": [[[-81.016999, 39.34987], [-81.006046, 39.34987], [-80.89103, 39.295101], [-80.814353, 39.108885], [-81.03343, 39.0103], [-81.115584, 39.037685], [-81.164877, 39.032208], [-81.296323, 39.185562], [-81.241554, 39.267716], [-81.016999, 39.34987]]]}}, {"type": "Feature", "properties": {"name": "Lyon", "id": "19119", "FIPS": "19119", "FIPS State": 19, "ST": "IA", "County": "Lyon County,IA", "State": "Iowa"}, "geometry": {"type": "Polygon", "coordinates": [[[-96.451017, 43.501391], [-96.051201, 43.501391], [-95.859508, 43.501391], [-95.859508, 43.254929], [-96.555079, 43.260406], [-96.598895, 43.501391], [-96.451017, 43.501391]]]}}, {"type": "Feature", "properties": {"name": "Cook", "id": "13075", "FIPS": "13075", "FIPS State": 13, "ST": "GA", "County": "Cook County,GA", "State": "Georgia"}, "geometry": {"type": "Polygon", "coordinates": [[[-83.43233, 31.34806], [-83.295407, 31.024921], [-83.383038, 31.030398], [-83.476146, 31.030398], [-83.498053, 31.052306], [-83.574731, 31.07969], [-83.514484, 31.326153], [-83.43233, 31.34806]]]}}, {"type": "Feature", "properties": {"name": "Richmond", "id": "51159", "FIPS": "51159", "FIPS State": 51, "ST": "VA", "County": "Richmond County,VA", "State": "Virginia"}, "geometry": {"type": "Polygon", "coordinates": [[[-76.914771, 38.095651], [-76.635447, 37.964204], [-76.509478, 37.838235], [-76.640924, 37.794419], [-76.777848, 37.876573], [-76.936679, 38.07922], [-76.914771, 38.095651]]]}}, {"type": "Feature", "properties": {"name": "Madison", "id": "37115", "FIPS": "37115", "FIPS State": 37, "ST": "NC", "County": "Madison County,NC", "State": "North Carolina"}, "geometry": {"type": "Polygon", "coordinates": [[[-82.786051, 35.987029], [-82.605312, 36.041798], [-82.506727, 35.976075], [-82.408142, 35.817244], [-82.884636, 35.68032], [-82.961313, 35.789859], [-82.901067, 35.943213], [-82.786051, 35.987029]]]}}, {"type": "Feature", "properties": {"name": "Logan", "id": "08075", "FIPS": "08075", "FIPS State": 8, "ST": "CO", "County": "Logan County,CO", "State": "Colorado"}, "geometry": {"type": "Polygon", "coordinates": [[[-102.650914, 41.003906], [-102.650914, 40.751967], [-102.667345, 40.439781], [-102.78236, 40.439781], [-103.466978, 40.434304], [-103.581994, 40.521935], [-103.576517, 41.003906], [-103.384824, 41.003906], [-102.650914, 41.003906]]]}}, {"type": "Feature", "properties": {"name": "Lancaster", "id": "51103", "FIPS": "51103", "FIPS State": 51, "ST": "VA", "County": "Lancaster County,VA", "State": "Virginia"}, "geometry": {"type": "Polygon", "coordinates": [[[-76.48757, 37.838235], [-76.317785, 37.679403], [-76.640924, 37.794419], [-76.509478, 37.838235], [-76.48757, 37.838235]]]}}, {"type": "Feature", "properties": {"name": "Blaine", "id": "30005", "FIPS": "30005", "FIPS State": 30, "ST": "MT", "County": "Blaine County,MT", "State": "Montana"}, "geometry": {"type": "Polygon", "coordinates": [[[-108.237393, 49.000239], [-108.434563, 47.976051], [-108.889149, 47.735066], [-109.540905, 47.740543], [-109.535428, 48.134883], [-109.491612, 49.000239], [-108.237393, 49.000239]]]}}, {"type": "Feature", "properties": {"name": "Bates", "id": "29013", "FIPS": "29013", "FIPS State": 29, "ST": "MO", "County": "Bates County,MO", "State": "Missouri"}, "geometry": {"type": "Polygon", "coordinates": [[[-94.610765, 38.479037], [-94.063071, 38.446175], [-94.052118, 38.216144], [-94.057594, 38.035405], [-94.501227, 38.057312], [-94.616242, 38.062789], [-94.610765, 38.391406], [-94.610765, 38.479037], [-94.610765, 38.479037]]]}}, {"type": "Feature", "properties": {"name": "York", "id": "31185", "FIPS": "31185", "FIPS State": 31, "ST": "NE", "County": "York County,NE", "State": "Nebraska"}, "geometry": {"type": "Polygon", "coordinates": [[[-97.365666, 41.047722], [-97.365666, 40.697198], [-97.798345, 40.697198], [-97.825729, 40.697198], [-97.825729, 40.697198], [-97.825729, 41.047722], [-97.365666, 41.047722]]]}}, {"type": "Feature", "properties": {"name": "Washington", "id": "17189", "FIPS": "17189", "FIPS State": 17, "ST": "IL", "County": "Washington County,IL", "State": "Illinois"}, "geometry": {"type": "Polygon", "coordinates": [[[-89.320041, 38.511898], [-89.144779, 38.500944], [-89.144779, 38.47356], [-89.144779, 38.210667], [-89.593888, 38.22162], [-89.703427, 38.22162], [-89.703427, 38.41879], [-89.320041, 38.511898]]]}}, {"type": "Feature", "properties": {"name": "Lee", "id": "21129", "FIPS": "21129", "FIPS State": 21, "ST": "KY", "County": "Lee County,KY", "State": "Kentucky"}, "geometry": {"type": "Polygon", "coordinates": [[[-83.706177, 37.717742], [-83.519961, 37.641065], [-83.580208, 37.504141], [-83.651408, 37.537003], [-83.886916, 37.520572], [-83.903347, 37.54248], [-83.722608, 37.717742], [-83.706177, 37.717742]]]}}, {"type": "Feature", "properties": {"name": "Choctaw", "id": "28019", "FIPS": "28019", "FIPS State": 28, "ST": "MS", "County": "Choctaw County,MS", "State": "Mississippi"}, "geometry": {"type": "Polygon", "coordinates": [[[-89.139302, 33.53336], [-89.09001, 33.53336], [-89.09001, 33.286897], [-89.320041, 33.106158], [-89.396718, 33.286897], [-89.451488, 33.286897], [-89.380287, 33.462159], [-89.139302, 33.53336]]]}}, {"type": "Feature", "properties": {"name": "Orange", "id": "51137", "FIPS": "51137", "FIPS State": 51, "ST": "VA", "County": "Orange County,VA", "State": "Virginia"}, "geometry": {"type": "Polygon", "coordinates": [[[-77.895143, 38.391406], [-77.703451, 38.358544], [-77.95539, 38.117559], [-78.207329, 38.133989], [-78.371637, 38.183282], [-78.289483, 38.270913], [-78.092313, 38.309252], [-77.895143, 38.391406]]]}}, {"type": "Feature", "properties": {"name": "San Benito", "id": "06069", "FIPS": "06069", "FIPS State": 6, "ST": "CA", "County": "San Benito County,CA", "State": "California"}, "geometry": {"type": "Polygon", "coordinates": [[[-121.447773, 36.989309], [-121.217742, 36.961924], [-120.91651, 36.742847], [-120.681002, 36.266353], [-121.31085, 36.501861], [-121.644943, 36.896201], [-121.57922, 36.901678], [-121.447773, 36.989309]]]}}, {"type": "Feature", "properties": {"name": "Powell", "id": "21197", "FIPS": "21197", "FIPS State": 21, "ST": "KY", "County": "Powell County,KY", "State": "Kentucky"}, "geometry": {"type": "Polygon", "coordinates": [[[-83.990978, 37.914912], [-83.96907, 37.931343], [-83.766424, 37.920389], [-83.6295, 37.827281], [-83.706177, 37.717742], [-83.722608, 37.717742], [-84.001932, 37.838235], [-83.990978, 37.914912]]]}}, {"type": "Feature", "properties": {"name": "Nottoway", "id": "51135", "FIPS": "51135", "FIPS State": 51, "ST": "VA", "County": "Nottoway County,VA", "State": "Virginia"}, "geometry": {"type": "Polygon", "coordinates": [[[-78.229237, 37.296018], [-77.796559, 37.191956], [-77.889666, 36.989309], [-78.004682, 37.022171], [-78.240191, 37.120755], [-78.229237, 37.296018]]]}}, {"type": "Feature", "properties": {"name": "Mitchell", "id": "13205", "FIPS": "13205", "FIPS State": 13, "ST": "GA", "County": "Mitchell County,GA", "State": "Georgia"}, "geometry": {"type": "Polygon", "coordinates": [[[-84.062178, 31.441168], [-83.996455, 31.441168], [-84.001932, 31.337106], [-84.001932, 31.07969], [-84.100517, 31.07969], [-84.116948, 31.07969], [-84.270302, 31.07969], [-84.374364, 31.07969], [-84.50581, 31.07969], [-84.138855, 31.441168], [-84.062178, 31.441168]]]}}]}