{"type": "FeatureCollection", "crs": {"type": "name", "properties": {"name": "urn:ogc:def:crs:OGC:1.3:CRS84"}}, "features": [{"type": "Feature", "properties": {"name": "Hendricks", "id": "18063", "FIPS": "18063", "FIPS State": 18, "ST": "IN", "County": "Hendricks County,IN", "State": "Indiana"}, "geometry": {"type": "Polygon", "coordinates": [[[-86.433693, 39.924949], [-86.324155, 39.924949], [-86.324155, 39.629194], [-86.658248, 39.601809], [-86.696587, 39.864703], [-86.696587, 39.924949], [-86.433693, 39.924949]]]}}, {"type": "Feature", "properties": {"name": "Marion", "id": "12083", "FIPS": "12083", "FIPS State": 12, "ST": "FL", "County": "Marion County,FL", "State": "Florida"}, "geometry": {"type": "Polygon", "coordinates": [[[-81.844017, 29.518762], [-81.679709, 29.327069], [-81.641371, 29.277777], [-81.953556, 28.960114], [-82.013803, 28.960114], [-82.309557, 28.960114], [-82.523158, 29.042268], [-82.534112, 29.042268], [-82.408142, 29.485901], [-82.057618, 29.46947], [-81.844017, 29.518762]]]}}, {"type": "Feature", "properties": {"name": "Floyd", "id": "13115", "FIPS": "13115", "FIPS State": 13, "ST": "GA", "County": "Floyd County,GA", "State": "Georgia"}, "geometry": {"type": "Polygon", "coordinates": [[[-85.09732, 34.584932], [-85.069935, 34.584932], [-85.004212, 34.393239], [-85.048028, 34.097484], [-85.42046, 34.081054], [-85.464275, 34.2837], [-85.108274, 34.584932], [-85.09732, 34.584932]]]}}, {"type": "Feature", "properties": {"name": "Whitfield", "id": "13313", "FIPS": "13313", "FIPS State": 13, "ST": "GA", "County": "Whitfield County,GA", "State": "Georgia"}, "geometry": {"type": "Polygon", "coordinates": [[[-84.976827, 34.990226], [-84.812519, 34.990226], [-84.916581, 34.634225], [-85.048028, 34.623271], [-85.146612, 34.765671], [-84.982304, 34.990226], [-84.976827, 34.990226]]]}}, {"type": "Feature", "properties": {"name": "Monroe", "id": "12087", "FIPS": "12087", "FIPS State": 12, "ST": "FL", "County": "Monroe County,FL", "State": "Florida"}, "geometry": {"type": "Polygon", "coordinates": [[[-80.874599, 25.805397], [-80.858168, 25.175549], [-81.077246, 25.120779], [-81.345616, 25.805397], [-80.874599, 25.805397]]]}}, {"type": "Feature", "properties": {"name": "Jasper", "id": "18073", "FIPS": "18073", "FIPS State": 18, "ST": "IN", "County": "Jasper County,IN", "State": "Indiana"}, "geometry": {"type": "Polygon", "coordinates": [[[-87.036157, 41.255845], [-86.932095, 41.239415], [-86.932095, 41.173691], [-86.932095, 40.910798], [-87.096403, 40.735536], [-87.266188, 40.735536], [-87.277142, 41.21203], [-87.277142, 41.217507], [-87.216896, 41.239415], [-87.036157, 41.255845]]]}}, {"type": "Feature", "properties": {"name": "Juneau", "id": "02110", "FIPS": "02110", "FIPS State": 2, "ST": "AK", "County": "Juneau County,AK", "State": "Alaska"}, "geometry": {"type": "Polygon", "coordinates": [[[-135.178463, 58.973748], [-134.329537, 58.962794], [-133.382026, 58.426053], [-133.173903, 58.152206], [-133.529904, 57.911221], [-133.601104, 57.861929], [-135.074401, 58.502731], [-135.178463, 58.973748]]]}}, {"type": "Feature", "properties": {"name": "Madison", "id": "13195", "FIPS": "13195", "FIPS State": 13, "ST": "GA", "County": "Madison County,GA", "State": "Georgia"}, "geometry": {"type": "Polygon", "coordinates": [[[-83.120145, 34.272746], [-83.114668, 34.272746], [-83.076329, 34.228931], [-82.977744, 34.042715], [-83.098237, 34.026284], [-83.257068, 33.998899], [-83.36113, 34.042715], [-83.404945, 34.196069], [-83.355653, 34.223454], [-83.120145, 34.272746]]]}}, {"type": "Feature", "properties": {"name": "Yuba", "id": "06115", "FIPS": "06115", "FIPS State": 6, "ST": "CA", "County": "Yuba County,CA", "State": "California"}, "geometry": {"type": "Polygon", "coordinates": [[[-121.075341, 39.596333], [-121.009618, 39.640148], [-121.020572, 39.393686], [-121.277988, 39.032208], [-121.414912, 38.999346], [-121.623035, 39.295101], [-121.075341, 39.596333]]]}}, {"type": "Feature", "properties": {"name": "Madison", "id": "05087", "FIPS": "05087", "FIPS State": 5, "ST": "AR", "County": "Madison County,AR", "State": "Arkansas"}, "geometry": {"type": "Polygon", "coordinates": [[[-93.816609, 36.304691], [-93.477039, 36.123952], [-93.520854, 35.762474], [-93.696116, 35.767951], [-93.909717, 35.762474], [-93.964486, 35.762474], [-93.887809, 36.233491], [-93.816609, 36.304691]]]}}, {"type": "Feature", "properties": {"name": "Imperial", "id": "06025", "FIPS": "06025", "FIPS State": 6, "ST": "CA", "County": "Imperial County,CA", "State": "California"}, "geometry": {"type": "Polygon", "coordinates": [[[-114.733044, 33.434775], [-114.628982, 33.434775], [-114.513967, 33.029481], [-114.72209, 32.717295], [-116.107756, 32.61871], [-116.085849, 33.423821], [-114.733044, 33.434775]]]}}, {"type": "Feature", "properties": {"name": "Routt", "id": "08107", "FIPS": "08107", "FIPS State": 8, "ST": "CO", "County": "Routt County,CO", "State": "Colorado"}, "geometry": {"type": "Polygon", "coordinates": [[[-107.317267, 41.003906], [-106.857204, 41.003906], [-106.654557, 40.445258], [-106.627173, 39.924949], [-107.032466, 39.919472], [-107.037943, 40.089257], [-107.109143, 40.226181], [-107.43776, 40.220704], [-107.317267, 41.003906]]]}}, {"type": "Feature", "properties": {"name": "La Plata", "id": "08067", "FIPS": "08067", "FIPS State": 8, "ST": "CO", "County": "La Plata County,CO", "State": "Colorado"}, "geometry": {"type": "Polygon", "coordinates": [[[-107.804715, 37.641065], [-107.481575, 37.641065], [-107.481575, 37.421987], [-107.481575, 37.000263], [-108.379794, 37.000263], [-107.9745, 37.641065], [-107.804715, 37.641065]]]}}, {"type": "Feature", "properties": {"name": "Woodford", "id": "17203", "FIPS": "17203", "FIPS State": 17, "ST": "IL", "County": "Woodford County,IL", "State": "Illinois"}, "geometry": {"type": "Polygon", "coordinates": [[[-89.111917, 40.927229], [-89.046194, 40.927229], [-88.931178, 40.927229], [-88.931178, 40.751967], [-89.270749, 40.593136], [-89.50078, 40.74649], [-89.555549, 40.74649], [-89.473395, 40.921752], [-89.111917, 40.927229]]]}}, {"type": "Feature", "properties": {"name": "Amador", "id": "06005", "FIPS": "06005", "FIPS State": 6, "ST": "CA", "County": "Amador County,CA", "State": "California"}, "geometry": {"type": "Polygon", "coordinates": [[[-120.073061, 38.698114], [-120.073061, 38.511898], [-120.993187, 38.227097], [-121.026049, 38.298298], [-121.026049, 38.506421], [-120.073061, 38.703591], [-120.073061, 38.698114]]]}}, {"type": "Feature", "properties": {"name": "Adams", "id": "18001", "FIPS": "18001", "FIPS State": 18, "ST": "IN", "County": "Adams County,IN", "State": "Indiana"}, "geometry": {"type": "Polygon", "coordinates": [[[-84.878242, 40.921752], [-84.801565, 40.921752], [-84.801565, 40.730059], [-84.801565, 40.571228], [-85.069935, 40.565751], [-85.075412, 40.916275], [-84.878242, 40.921752]]]}}, {"type": "Feature", "properties": {"name": "Sussex", "id": "10005", "FIPS": "10005", "FIPS State": 10, "ST": "DE", "County": "Sussex County,DE", "State": "Delaware"}, "geometry": {"type": "Polygon", "coordinates": [[[-75.047134, 38.451652], [-75.342889, 38.451652], [-75.69889, 38.561191], [-75.709844, 38.637868], [-75.720798, 38.829561], [-75.310028, 38.944577], [-75.047134, 38.451652]]]}}, {"type": "Feature", "properties": {"name": "Boone", "id": "18011", "FIPS": "18011", "FIPS State": 18, "ST": "IN", "County": "Boone County,IN", "State": "Indiana"}, "geometry": {"type": "Polygon", "coordinates": [[[-86.242001, 40.182365], [-86.242001, 39.924949], [-86.324155, 39.924949], [-86.433693, 39.924949], [-86.696587, 39.924949], [-86.696587, 40.176888], [-86.242001, 40.182365]]]}}, {"type": "Feature", "properties": {"name": "Lowndes", "id": "13185", "FIPS": "13185", "FIPS State": 13, "ST": "GA", "County": "Lowndes County,GA", "State": "Georgia"}, "geometry": {"type": "Polygon", "coordinates": [[[-83.383038, 31.030398], [-83.295407, 31.024921], [-83.196822, 31.024921], [-83.02156, 30.849659], [-83.136575, 30.625104], [-83.311837, 30.636058], [-83.355653, 30.636058], [-83.476146, 31.030398], [-83.383038, 31.030398]]]}}, {"type": "Feature", "properties": {"name": "Decatur", "id": "18031", "FIPS": "18031", "FIPS State": 18, "ST": "IN", "County": "Decatur County,IN", "State": "Indiana"}, "geometry": {"type": "Polygon", "coordinates": [[[-85.299967, 39.453932], [-85.29449, 39.267716], [-85.442367, 39.196516], [-85.68883, 39.130793], [-85.683353, 39.34987], [-85.628583, 39.453932], [-85.299967, 39.453932]]]}}, {"type": "Feature", "properties": {"name": "Bradford", "id": "12007", "FIPS": "12007", "FIPS State": 12, "ST": "FL", "County": "Bradford County,FL", "State": "Florida"}, "geometry": {"type": "Polygon", "coordinates": [[[-82.145249, 30.143133], [-82.052141, 30.143133], [-82.046664, 29.715932], [-82.052141, 29.715932], [-82.419096, 29.924056], [-82.145249, 30.143133]]]}}, {"type": "Feature", "properties": {"name": "Lassen", "id": "06035", "FIPS": "06035", "FIPS State": 6, "ST": "CA", "County": "Lassen County,CA", "State": "California"}, "geometry": {"type": "Polygon", "coordinates": [[[-120.943895, 41.184645], [-120.001861, 41.184645], [-120.001861, 39.722302], [-120.149738, 39.705871], [-120.209985, 40.08378], [-121.119157, 40.445258], [-121.327281, 40.445258], [-121.332757, 41.184645], [-120.943895, 41.184645]]]}}, {"type": "Feature", "properties": {"name": "Peoria", "id": "17143", "FIPS": "17143", "FIPS State": 17, "ST": "IL", "County": "Peoria County,IL", "State": "Illinois"}, "geometry": {"type": "Polygon", "coordinates": [[[-89.96632, 40.976521], [-89.637704, 40.976521], [-89.473395, 40.921752], [-89.555549, 40.74649], [-89.873212, 40.510982], [-89.988228, 40.713628], [-89.988228, 40.976521], [-89.96632, 40.976521]]]}}, {"type": "Feature", "properties": {"name": "Macon", "id": "13193", "FIPS": "13193", "FIPS State": 13, "ST": "GA", "County": "Macon County,GA", "State": "Georgia"}, "geometry": {"type": "MultiPolygon", "coordinates": [[[[-84.001932, 32.531079], [-84.007409, 32.520126], [-84.051224, 32.520126], [-84.051224, 32.520126], [-84.001932, 32.531079]]], [[[-84.018363, 32.503695], [-83.848578, 32.465356], [-83.848578, 32.290094], [-84.029317, 32.169601], [-84.182671, 32.229848], [-84.253871, 32.372248], [-84.051224, 32.520126], [-84.018363, 32.503695]]]]}}, {"type": "Feature", "properties": {"name": "Alamosa", "id": "08003", "FIPS": "08003", "FIPS State": 8, "ST": "CO", "County": "Alamosa County,CO", "State": "Colorado"}, "geometry": {"type": "Polygon", "coordinates": [[[-105.707047, 37.750604], [-105.455107, 37.750604], [-105.487969, 37.575342], [-105.745385, 37.356264], [-106.04114, 37.400079], [-106.04114, 37.750604], [-105.707047, 37.750604]]]}}, {"type": "Feature", "properties": {"name": "Menard", "id": "17129", "FIPS": "17129", "FIPS State": 17, "ST": "IL", "County": "Menard County,IL", "State": "Illinois"}, "geometry": {"type": "Polygon", "coordinates": [[[-89.670565, 40.160457], [-89.599365, 40.122119], [-89.577457, 39.974241], [-89.993705, 39.903041], [-89.993705, 40.105688], [-89.670565, 40.160457]]]}}, {"type": "Feature", "properties": {"name": "Charlotte", "id": "12015", "FIPS": "12015", "FIPS State": 12, "ST": "FL", "County": "Charlotte County,FL", "State": "Florida"}, "geometry": {"type": "Polygon", "coordinates": [[[-82.041187, 27.032231], [-81.564693, 27.032231], [-81.564693, 26.769338], [-82.063095, 26.769338], [-82.210972, 26.774815], [-82.23288, 26.780292], [-82.23288, 26.785769], [-82.271219, 26.791246], [-82.375281, 26.9446], [-82.057618, 27.032231], [-82.041187, 27.032231]]]}}, {"type": "Feature", "properties": {"name": "Jefferson", "id": "18077", "FIPS": "18077", "FIPS State": 18, "ST": "IN", "County": "Jefferson County,IN", "State": "Indiana"}, "geometry": {"type": "Polygon", "coordinates": [[[-85.299967, 38.911715], [-85.201382, 38.911715], [-85.201382, 38.692637], [-85.332828, 38.736453], [-85.425936, 38.588575], [-85.568337, 38.605006], [-85.683353, 38.81313], [-85.442367, 38.911715], [-85.299967, 38.911715]]]}}, {"type": "Feature", "properties": {"name": "Shelby", "id": "01117", "FIPS": "01117", "FIPS State": 1, "ST": "AL", "County": "Shelby County,AL", "State": "Alabama"}, "geometry": {"type": "Polygon", "coordinates": [[[-86.515848, 33.544313], [-86.378924, 33.390959], [-86.488463, 33.100681], [-86.515848, 33.018527], [-86.882803, 33.051389], [-87.025203, 33.248559], [-86.515848, 33.544313]]]}}, {"type": "Feature", "properties": {"name": "Montezuma", "id": "08083", "FIPS": "08083", "FIPS State": 8, "ST": "CO", "County": "Montezuma County,CO", "State": "Colorado"}, "geometry": {"type": "Polygon", "coordinates": [[[-107.9745, 37.641065], [-108.379794, 37.000263], [-109.042503, 37.000263], [-109.042503, 37.482234], [-107.9745, 37.641065]]]}}, {"type": "Feature", "properties": {"name": "Jennings", "id": "18079", "FIPS": "18079", "FIPS State": 18, "ST": "IN", "County": "Jennings County,IN", "State": "Indiana"}, "geometry": {"type": "Polygon", "coordinates": [[[-85.442367, 39.196516], [-85.442367, 38.911715], [-85.683353, 38.81313], [-85.792891, 38.807653], [-85.798368, 39.070546], [-85.68883, 39.130793], [-85.442367, 39.196516]]]}}, {"type": "Feature", "properties": {"name": "Ford", "id": "17053", "FIPS": "17053", "FIPS State": 17, "ST": "IL", "County": "Ford County,IL", "State": "Illinois"}, "geometry": {"type": "Polygon", "coordinates": [[[-88.131545, 40.998429], [-87.934375, 40.483597], [-87.934375, 40.401443], [-88.109637, 40.401443], [-88.460161, 40.401443], [-88.460161, 40.615043], [-88.246561, 40.992952], [-88.131545, 40.998429], [-88.131545, 40.998429]]]}}, {"type": "Feature", "properties": {"name": "Emanuel", "id": "13107", "FIPS": "13107", "FIPS State": 13, "ST": "GA", "County": "Emanuel County,GA", "State": "Georgia"}, "geometry": {"type": "Polygon", "coordinates": [[[-82.315034, 32.837788], [-82.145249, 32.810403], [-82.002849, 32.607757], [-82.030233, 32.536556], [-82.23288, 32.317479], [-82.408142, 32.355817], [-82.550543, 32.498218], [-82.649128, 32.514649], [-82.435527, 32.761111], [-82.315034, 32.837788]]]}}, {"type": "Feature", "properties": {"name": "Whitley", "id": "18183", "FIPS": "18183", "FIPS State": 18, "ST": "IN", "County": "Whitley County,IN", "State": "Indiana"}, "geometry": {"type": "Polygon", "coordinates": [[[-85.650491, 41.294184], [-85.305444, 41.266799], [-85.332828, 41.003906], [-85.376644, 41.003906], [-85.645014, 41.003906], [-85.683353, 41.047722], [-85.650491, 41.294184]]]}}, {"type": "Feature", "properties": {"name": "Allamakee", "id": "19005", "FIPS": "19005", "FIPS State": 19, "ST": "IA", "County": "Allamakee County,IA", "State": "Iowa"}, "geometry": {"type": "Polygon", "coordinates": [[[-91.368417, 43.501391], [-91.215062, 43.501391], [-91.204109, 43.424714], [-91.176724, 43.079667], [-91.565587, 43.079667], [-91.603925, 43.079667], [-91.609402, 43.501391], [-91.368417, 43.501391]]]}}, {"type": "Feature", "properties": {"name": "Buena Vista", "id": "19021", "FIPS": "19021", "FIPS State": 19, "ST": "IA", "County": "Buena Vista County,IA", "State": "Iowa"}, "geometry": {"type": "Polygon", "coordinates": [[[-95.251567, 42.909881], [-94.911997, 42.909881], [-94.911997, 42.559357], [-95.388491, 42.559357], [-95.388491, 42.909881], [-95.251567, 42.909881]]]}}, {"type": "Feature", "properties": {"name": "Bibb", "id": "13021", "FIPS": "13021", "FIPS State": 13, "ST": "GA", "County": "Bibb County,GA", "State": "Georgia"}, "geometry": {"type": "Polygon", "coordinates": [[[-83.722608, 32.952804], [-83.711654, 32.952804], [-83.514484, 32.843265], [-83.596638, 32.662526], [-83.7007, 32.689911], [-83.892393, 32.848742], [-83.722608, 32.952804]]]}}, {"type": "Feature", "properties": {"name": "Carroll", "id": "19027", "FIPS": "19027", "FIPS State": 19, "ST": "IA", "County": "Carroll County,IA", "State": "Iowa"}, "geometry": {"type": "Polygon", "coordinates": [[[-95.092736, 42.208833], [-94.857228, 42.208833], [-94.627196, 42.208833], [-94.627196, 41.863786], [-94.742212, 41.863786], [-95.092736, 41.863786], [-95.092736, 42.208833]]]}}, {"type": "Feature", "properties": {"name": "Kootenai", "id": "16055", "FIPS": "16055", "FIPS State": 16, "ST": "ID", "County": "Kootenai County,ID", "State": "Idaho"}, "geometry": {"type": "Polygon", "coordinates": [[[-116.567819, 47.992482], [-116.321357, 47.88842], [-116.326834, 47.411926], [-117.038836, 47.368111], [-117.044313, 47.976051], [-116.567819, 47.992482]]]}}, {"type": "Feature", "properties": {"name": "Dallas", "id": "19049", "FIPS": "19049", "FIPS State": 19, "ST": "IA", "County": "Dallas County,IA", "State": "Iowa"}, "geometry": {"type": "Polygon", "coordinates": [[[-93.816609, 41.863786], [-93.789224, 41.513262], [-93.822086, 41.507785], [-94.24381, 41.502308], [-94.282149, 41.863786], [-94.161656, 41.863786], [-93.816609, 41.863786]]]}}, {"type": "Feature", "properties": {"name": "Etowah", "id": "01055", "FIPS": "01055", "FIPS State": 1, "ST": "AL", "County": "Etowah County,AL", "State": "Alabama"}, "geometry": {"type": "Polygon", "coordinates": [[[-86.105077, 34.201546], [-85.842184, 34.201546], [-85.738122, 33.966038], [-86.066738, 33.840068], [-86.291293, 33.982469], [-86.324155, 33.938653], [-86.302247, 34.097484], [-86.105077, 34.201546]]]}}, {"type": "Feature", "properties": {"name": "Dubuque", "id": "19061", "FIPS": "19061", "FIPS State": 19, "ST": "IA", "County": "Dubuque County,IA", "State": "Iowa"}, "geometry": {"type": "Polygon", "coordinates": [[[-90.8974, 42.657942], [-90.8974, 42.674373], [-90.639984, 42.510065], [-90.475675, 42.384095], [-90.8974, 42.296464], [-91.127431, 42.296464], [-91.132908, 42.646988], [-90.8974, 42.657942]]]}}, {"type": "Feature", "properties": {"name": "Baldwin", "id": "13009", "FIPS": "13009", "FIPS State": 13, "ST": "GA", "County": "Baldwin County,GA", "State": "Georgia"}, "geometry": {"type": "Polygon", "coordinates": [[[-83.273499, 33.188312], [-83.054421, 33.078773], [-83.076329, 32.947327], [-83.355653, 32.925419], [-83.426853, 33.182835], [-83.273499, 33.188312]]]}}, {"type": "Feature", "properties": {"name": "Coles", "id": "17029", "FIPS": "17029", "FIPS State": 17, "ST": "IL", "County": "Coles County,IL", "State": "Illinois"}, "geometry": {"type": "Polygon", "coordinates": [[[-88.065822, 39.651102], [-87.967237, 39.683964], [-87.96176, 39.481317], [-88.011052, 39.377255], [-88.142499, 39.377255], [-88.471115, 39.371778], [-88.471115, 39.448455], [-88.471115, 39.651102], [-88.065822, 39.651102]]]}}, {"type": "Feature", "properties": {"name": "Muscatine", "id": "19139", "FIPS": "19139", "FIPS State": 19, "ST": "IA", "County": "Muscatine County,IA", "State": "Iowa"}, "geometry": {"type": "Polygon", "coordinates": [[[-91.30817, 41.595416], [-90.8974, 41.595416], [-90.787861, 41.453015], [-91.072662, 41.332523], [-91.368417, 41.425631], [-91.368417, 41.600893], [-91.30817, 41.595416]]]}}]}