{"type": "FeatureCollection", "crs": {"type": "name", "properties": {"name": "urn:ogc:def:crs:OGC:1.3:CRS84"}}, "features": [{"type": "Feature", "properties": {"name": "Baker", "id": "41001", "FIPS": "41001", "FIPS State": 41, "ST": "OR", "County": "Baker County,OR", "State": "Oregon"}, "geometry": {"type": "Polygon", "coordinates": [[[-117.778223, 44.991119], [-117.268868, 45.07875], [-116.78142, 45.07875], [-116.901913, 44.843241], [-117.219575, 44.301024], [-117.608438, 44.443425], [-118.232809, 44.257209], [-118.495702, 44.257209], [-118.243763, 44.958257], [-117.778223, 44.991119]]]}}, {"type": "Feature", "properties": {"name": "Nicollet", "id": "27103", "FIPS": "27103", "FIPS State": 27, "ST": "MN", "County": "Nicollet County,MN", "State": "Minnesota"}, "geometry": {"type": "Polygon", "coordinates": [[[-94.112364, 44.454379], [-93.931625, 44.454379], [-94.013779, 44.240778], [-94.331441, 44.251732], [-94.36978, 44.262686], [-94.780551, 44.454379], [-94.621719, 44.454379], [-94.112364, 44.454379]]]}}, {"type": "Feature", "properties": {"name": "Lauderdale", "id": "28075", "FIPS": "28075", "FIPS State": 28, "ST": "MS", "County": "Lauderdale County,MS", "State": "Mississippi"}, "geometry": {"type": "Polygon", "coordinates": [[[-88.651854, 32.574895], [-88.388961, 32.580372], [-88.421823, 32.306525], [-88.432777, 32.229848], [-88.914747, 32.224371], [-88.914747, 32.574895], [-88.651854, 32.574895]]]}}, {"type": "Feature", "properties": {"name": "Kane", "id": "49025", "FIPS": "49025", "FIPS State": 49, "ST": "UT", "County": "Kane County,UT", "State": "Utah"}, "geometry": {"type": "Polygon", "coordinates": [[[-112.903746, 37.498664], [-112.684669, 37.54248], [-110.647247, 37.54248], [-111.414018, 37.000263], [-112.542268, 37.000263], [-112.898269, 37.000263], [-112.898269, 37.498664], [-112.903746, 37.498664]]]}}, {"type": "Feature", "properties": {"name": "Elmore", "id": "16039", "FIPS": "16039", "FIPS State": 16, "ST": "ID", "County": "Elmore County,ID", "State": "Idaho"}, "geometry": {"type": "Polygon", "coordinates": [[[-114.990461, 43.9505], [-114.968553, 43.939546], [-114.990461, 43.857392], [-115.089045, 43.200159], [-115.039753, 42.909881], [-115.039753, 42.767481], [-116.266588, 43.112528], [-115.97631, 43.589022], [-115.1712, 44.087424], [-114.990461, 43.9505]]]}}, {"type": "Feature", "properties": {"name": "Windham", "id": "50025", "FIPS": "50025", "FIPS State": 50, "ST": "VT", "County": "Windham County,VT", "State": "Vermont"}, "geometry": {"type": "Polygon", "coordinates": [[[-72.81802, 43.254929], [-72.434634, 43.233021], [-72.451065, 43.161821], [-72.456542, 42.729142], [-72.927559, 42.740096], [-72.81802, 43.254929]]]}}, {"type": "Feature", "properties": {"name": "Pierce", "id": "55093", "FIPS": "55093", "FIPS State": 55, "ST": "WI", "County": "Pierce County,WI", "State": "Wisconsin"}, "geometry": {"type": "Polygon", "coordinates": [[[-92.600728, 44.865149], [-92.135188, 44.859672], [-92.135188, 44.68441], [-92.315927, 44.54201], [-92.732175, 44.711795], [-92.803375, 44.744656], [-92.770513, 44.859672], [-92.600728, 44.865149]]]}}, {"type": "Feature", "properties": {"name": "Hampton", "id": "45049", "FIPS": "45049", "FIPS State": 45, "ST": "SC", "County": "Hampton County,SC", "State": "South Carolina"}, "geometry": {"type": "Polygon", "coordinates": [[[-81.055338, 33.002096], [-80.825307, 32.706342], [-80.869122, 32.662526], [-81.142969, 32.657049], [-81.279893, 32.558464], [-81.389431, 32.596803], [-81.411339, 32.74468], [-81.082723, 33.024004], [-81.055338, 33.002096]]]}}, {"type": "Feature", "properties": {"name": "Mariposa", "id": "06043", "FIPS": "06043", "FIPS State": 6, "ST": "CA", "County": "Mariposa County,CA", "State": "California"}, "geometry": {"type": "Polygon", "coordinates": [[[-120.084015, 37.827281], [-119.30629, 37.777988], [-120.051153, 37.181002], [-120.385247, 37.635588], [-120.385247, 37.635588], [-120.084015, 37.827281]]]}}, {"type": "Feature", "properties": {"name": "Colquitt", "id": "13071", "FIPS": "13071", "FIPS State": 13, "ST": "GA", "County": "Colquitt County,GA", "State": "Georgia"}, "geometry": {"type": "Polygon", "coordinates": [[[-83.974547, 31.337106], [-83.651408, 31.331629], [-83.514484, 31.326153], [-83.574731, 31.07969], [-83.739039, 31.035875], [-84.001932, 31.07969], [-84.001932, 31.337106], [-83.974547, 31.337106]]]}}, {"type": "Feature", "properties": {"name": "Fayette", "id": "01057", "FIPS": "01057", "FIPS State": 1, "ST": "AL", "County": "Fayette County,AL", "State": "Alabama"}, "geometry": {"type": "Polygon", "coordinates": [[[-87.950806, 33.922222], [-87.63862, 33.916745], [-87.42502, 33.60456], [-87.841267, 33.522406], [-87.945329, 33.522406], [-87.950806, 33.922222]]]}}, {"type": "Feature", "properties": {"name": "Butler", "id": "31023", "FIPS": "31023", "FIPS State": 31, "ST": "NE", "County": "Butler County,NE", "State": "Nebraska"}, "geometry": {"type": "Polygon", "coordinates": [[[-96.905603, 41.453015], [-96.905603, 41.453015], [-96.91108, 41.047722], [-96.91108, 41.047722], [-97.349236, 41.047722], [-97.365666, 41.047722], [-97.365666, 41.392769], [-97.256128, 41.376338], [-96.905603, 41.453015]]]}}, {"type": "Feature", "properties": {"name": "Walker", "id": "48471", "FIPS": "48471", "FIPS State": 48, "ST": "TX", "County": "Walker County,TX", "State": "Texas"}, "geometry": {"type": "Polygon", "coordinates": [[[-95.432306, 31.057782], [-95.328245, 30.860613], [-95.361106, 30.504611], [-95.832123, 30.630581], [-95.864985, 30.86609], [-95.618522, 30.931813], [-95.432306, 31.057782]]]}}, {"type": "Feature", "properties": {"name": "Ford", "id": "20057", "FIPS": "20057", "FIPS State": 20, "ST": "KS", "County": "Ford County,KS", "State": "Kansas"}, "geometry": {"type": "Polygon", "coordinates": [[[-99.874105, 37.914912], [-99.567396, 37.914912], [-99.56192, 37.734173], [-99.556443, 37.465803], [-100.054844, 37.47128], [-100.109614, 37.476757], [-100.213675, 37.476757], [-100.224629, 37.914912], [-99.874105, 37.914912]]]}}, {"type": "Feature", "properties": {"name": "Cass", "id": "18017", "FIPS": "18017", "FIPS State": 18, "ST": "IN", "County": "Cass County,IN", "State": "Indiana"}, "geometry": {"type": "Polygon", "coordinates": [[[-86.581571, 40.910798], [-86.466555, 40.910798], [-86.1708, 40.910798], [-86.165323, 40.560274], [-86.373447, 40.560274], [-86.581571, 40.735536], [-86.581571, 40.910798]]]}}, {"type": "Feature", "properties": {"name": "Cortland", "id": "36023", "FIPS": "36023", "FIPS State": 36, "ST": "NY", "County": "Cortland County,NY", "State": "New York"}, "geometry": {"type": "Polygon", "coordinates": [[[-75.917968, 42.789389], [-75.89606, 42.789389], [-75.890583, 42.723665], [-75.863199, 42.416957], [-76.131569, 42.41148], [-76.252061, 42.406003], [-76.263015, 42.625081], [-76.273969, 42.772958], [-75.917968, 42.789389]]]}}, {"type": "Feature", "properties": {"name": "Highland", "id": "39071", "FIPS": "39071", "FIPS State": 39, "ST": "OH", "County": "Highland County,OH", "State": "Ohio"}, "geometry": {"type": "Polygon", "coordinates": [[[-83.591161, 39.377255], [-83.372084, 39.377255], [-83.355653, 39.196516], [-83.383038, 39.054115], [-83.673316, 39.021254], [-83.865008, 39.245808], [-83.591161, 39.377255]]]}}, {"type": "Feature", "properties": {"name": "Finney", "id": "20055", "FIPS": "20055", "FIPS State": 20, "ST": "KS", "County": "Finney County,KS", "State": "Kansas"}, "geometry": {"type": "Polygon", "coordinates": [[[-100.881862, 38.265436], [-100.684692, 38.265436], [-100.246537, 38.259959], [-100.224629, 38.259959], [-100.224629, 38.002543], [-100.651831, 37.734173], [-101.089986, 37.734173], [-101.10094, 38.265436], [-100.881862, 38.265436]]]}}, {"type": "Feature", "properties": {"name": "Dubois", "id": "18037", "FIPS": "18037", "FIPS State": 18, "ST": "IN", "County": "Dubois County,IN", "State": "Indiana"}, "geometry": {"type": "Polygon", "coordinates": [[[-86.680156, 38.528329], [-86.680156, 38.396883], [-86.680156, 38.265436], [-86.789695, 38.20519], [-86.866372, 38.20519], [-87.019726, 38.20519], [-87.074495, 38.232574], [-87.074495, 38.517375], [-86.926618, 38.506421], [-86.680156, 38.528329]]]}}, {"type": "Feature", "properties": {"name": "Fannin", "id": "13111", "FIPS": "13111", "FIPS State": 13, "ST": "GA", "County": "Fannin County,GA", "State": "Georgia"}, "geometry": {"type": "Polygon", "coordinates": [[[-84.319594, 34.990226], [-84.127902, 34.990226], [-84.155286, 34.650655], [-84.188148, 34.601363], [-84.199102, 34.617794], [-84.620826, 34.853302], [-84.620826, 34.990226], [-84.319594, 34.990226]]]}}, {"type": "Feature", "properties": {"name": "Oldham", "id": "21185", "FIPS": "21185", "FIPS State": 21, "ST": "KY", "County": "Oldham County,KY", "State": "Kentucky"}, "geometry": {"type": "Polygon", "coordinates": [[[-85.639537, 38.380452], [-85.431413, 38.522852], [-85.316398, 38.489991], [-85.283536, 38.358544], [-85.469752, 38.287344], [-85.639537, 38.380452]]]}}, {"type": "Feature", "properties": {"name": "Floyd", "id": "19067", "FIPS": "19067", "FIPS State": 19, "ST": "IA", "County": "Floyd County,IA", "State": "Iowa"}, "geometry": {"type": "Polygon", "coordinates": [[[-92.797898, 43.211113], [-92.556913, 43.211113], [-92.556913, 42.904404], [-93.022453, 42.909881], [-93.022453, 43.211113], [-92.797898, 43.211113]]]}}, {"type": "Feature", "properties": {"name": "Franklin", "id": "51067", "FIPS": "51067", "FIPS State": 51, "ST": "VA", "County": "Franklin County,VA", "State": "Virginia"}, "geometry": {"type": "Polygon", "coordinates": [[[-79.784688, 37.230294], [-79.592995, 37.044078], [-79.642287, 36.857862], [-79.647764, 36.852385], [-80.042104, 36.792139], [-80.233797, 36.874293], [-80.129735, 37.120755], [-79.844934, 37.224817], [-79.784688, 37.230294]]]}}, {"type": "Feature", "properties": {"name": "Laurens", "id": "45059", "FIPS": "45059", "FIPS State": 45, "ST": "SC", "County": "Laurens County,SC", "State": "South Carolina"}, "geometry": {"type": "Polygon", "coordinates": [[[-82.145249, 34.787579], [-81.854971, 34.595886], [-81.641371, 34.53564], [-81.646848, 34.519209], [-81.942602, 34.201546], [-82.243834, 34.40967], [-82.315034, 34.486347], [-82.145249, 34.787579]]]}}, {"type": "Feature", "properties": {"name": "Nicholas", "id": "54067", "FIPS": "54067", "FIPS State": 54, "ST": "WV", "County": "Nicholas County,WV", "State": "West Virginia"}, "geometry": {"type": "Polygon", "coordinates": [[[-80.677429, 38.533806], [-80.650044, 38.528329], [-80.436444, 38.265436], [-80.880076, 38.101128], [-81.192262, 38.232574], [-81.2306, 38.265436], [-81.2306, 38.265436], [-80.880076, 38.506421], [-80.677429, 38.533806]]]}}, {"type": "Feature", "properties": {"name": "Meade", "id": "21163", "FIPS": "21163", "FIPS State": 21, "ST": "KY", "County": "Meade County,KY", "State": "Kentucky"}, "geometry": {"type": "Polygon", "coordinates": [[[-86.307724, 38.166851], [-86.001015, 37.997066], [-86.148893, 37.799896], [-86.488463, 38.046358], [-86.461078, 38.117559], [-86.307724, 38.166851]]]}}, {"type": "Feature", "properties": {"name": "Brewster", "id": "48043", "FIPS": "48043", "FIPS State": 48, "ST": "TX", "County": "Brewster County,TX", "State": "Texas"}, "geometry": {"type": "Polygon", "coordinates": [[[-103.346485, 30.603196], [-102.56876, 30.050025], [-102.322297, 29.88024], [-102.678299, 29.73784], [-102.919284, 29.190146], [-103.280762, 28.982022], [-103.790117, 29.261346], [-103.801071, 30.411504], [-103.439593, 30.663443], [-103.346485, 30.603196]]]}}, {"type": "Feature", "properties": {"name": "Roanoke", "id": "51161", "FIPS": "51161", "FIPS State": 51, "ST": "VA", "County": "Roanoke County,VA", "State": "Virginia"}, "geometry": {"type": "Polygon", "coordinates": [[[-80.173551, 37.378172], [-80.074966, 37.421987], [-79.844934, 37.306971], [-79.844934, 37.224817], [-80.129735, 37.120755], [-80.179028, 37.115279], [-80.261182, 37.339833], [-80.173551, 37.378172]], [[-79.981858, 37.328879], [-80.020196, 37.306971], [-80.03115, 37.263156], [-79.981858, 37.328879]]]}}, {"type": "Feature", "properties": {"name": "Hall", "id": "31079", "FIPS": "31079", "FIPS State": 31, "ST": "NE", "County": "Hall County,NE", "State": "Nebraska"}, "geometry": {"type": "Polygon", "coordinates": [[[-98.70204, 41.047722], [-98.285792, 41.047722], [-98.280315, 40.87246], [-98.280315, 40.697198], [-98.723948, 40.697198], [-98.723948, 41.047722], [-98.70204, 41.047722]]]}}, {"type": "Feature", "properties": {"name": "Umatilla", "id": "41059", "FIPS": "41059", "FIPS State": 41, "ST": "OR", "County": "Umatilla County,OR", "State": "Oregon"}, "geometry": {"type": "Polygon", "coordinates": [[[-118.58881, 45.998876], [-117.997301, 45.998876], [-117.975393, 45.998876], [-117.975393, 45.861952], [-118.117793, 45.47309], [-118.698349, 45.34712], [-118.51761, 44.996596], [-118.676441, 44.996596], [-119.163889, 44.996596], [-119.147458, 45.516905], [-119.432259, 45.916722], [-118.988627, 45.998876], [-118.58881, 45.998876]]]}}, {"type": "Feature", "properties": {"name": "Goochland", "id": "51075", "FIPS": "51075", "FIPS State": 51, "ST": "VA", "County": "Goochland County,VA", "State": "Virginia"}, "geometry": {"type": "Polygon", "coordinates": [[[-78.064929, 37.903958], [-77.796559, 37.728696], [-77.63225, 37.706788], [-77.654158, 37.564388], [-78.015636, 37.641065], [-78.070406, 37.657496], [-78.158037, 37.750604], [-78.064929, 37.903958]]]}}, {"type": "Feature", "properties": {"name": "Clay", "id": "27027", "FIPS": "27027", "FIPS State": 27, "ST": "MN", "County": "Clay County,MN", "State": "Minnesota"}, "geometry": {"type": "Polygon", "coordinates": [[[-96.582464, 47.149033], [-96.193601, 47.149033], [-96.17717, 46.716355], [-96.281232, 46.628724], [-96.790588, 46.628724], [-96.790588, 46.628724], [-96.828926, 47.149033], [-96.582464, 47.149033]]]}}, {"type": "Feature", "properties": {"name": "Campbell", "id": "21037", "FIPS": "21037", "FIPS State": 21, "ST": "KY", "County": "Campbell County,KY", "State": "Kentucky"}, "geometry": {"type": "Polygon", "coordinates": [[[-84.319594, 39.021254], [-84.231963, 38.873376], [-84.418179, 38.807653], [-84.50581, 39.092454], [-84.319594, 39.021254]]]}}, {"type": "Feature", "properties": {"name": "Nelson", "id": "51125", "FIPS": "51125", "FIPS State": 51, "ST": "VA", "County": "Nelson County,VA", "State": "Virginia"}, "geometry": {"type": "Polygon", "coordinates": [[[-78.859085, 38.029928], [-78.837177, 38.046358], [-78.645484, 37.734173], [-78.826223, 37.553434], [-78.870039, 37.54248], [-79.171271, 37.805373], [-79.15484, 37.893004], [-78.859085, 38.029928]]]}}, {"type": "Feature", "properties": {"name": "Pickaway", "id": "39129", "FIPS": "39129", "FIPS State": 39, "ST": "OH", "County": "Pickaway County,OH", "State": "Ohio"}, "geometry": {"type": "Polygon", "coordinates": [[[-83.246114, 39.809933], [-83.246114, 39.81541], [-82.82439, 39.793502], [-82.731282, 39.552517], [-82.742236, 39.470363], [-83.268022, 39.514178], [-83.251591, 39.694917], [-83.246114, 39.809933]]]}}, {"type": "Feature", "properties": {"name": "Inyo", "id": "06027", "FIPS": "06027", "FIPS State": 6, "ST": "CA", "County": "Inyo County,CA", "State": "California"}, "geometry": {"type": "Polygon", "coordinates": [[[-117.937054, 37.465803], [-117.832993, 37.465803], [-117.164806, 36.972878], [-115.899633, 36.00346], [-115.647693, 35.80629], [-117.630346, 35.795336], [-118.008255, 35.789859], [-118.358779, 36.742847], [-118.775026, 37.460326], [-117.937054, 37.465803]]]}}, {"type": "Feature", "properties": {"name": "Marion", "id": "45067", "FIPS": "45067", "FIPS State": 45, "ST": "SC", "County": "Marion County,SC", "State": "South Carolina"}, "geometry": {"type": "Polygon", "coordinates": [[[-79.36844, 34.300131], [-79.127455, 34.256316], [-79.187701, 33.703145], [-79.319148, 33.779822], [-79.324625, 33.80173], [-79.549179, 34.228931], [-79.36844, 34.300131]]]}}, {"type": "Feature", "properties": {"name": "Le Flore", "id": "40079", "FIPS": "40079", "FIPS State": 40, "ST": "OK", "County": "Le Flore County,OK", "State": "Oklahoma"}, "geometry": {"type": "Polygon", "coordinates": [[[-94.430026, 35.379088], [-94.446457, 34.935456], [-94.451934, 34.727333], [-94.462888, 34.508255], [-94.616242, 34.508255], [-94.939382, 34.508255], [-95.059875, 34.67804], [-94.928428, 35.055949], [-94.813412, 35.324319], [-94.430026, 35.379088]]]}}, {"type": "Feature", "properties": {"name": "Jefferson", "id": "17081", "FIPS": "17081", "FIPS State": 17, "ST": "IL", "County": "Jefferson County,IL", "State": "Illinois"}, "geometry": {"type": "Polygon", "coordinates": [[[-88.914747, 38.479037], [-88.701147, 38.47356], [-88.701147, 38.254482], [-88.706624, 38.123036], [-88.816163, 38.128512], [-89.128348, 38.123036], [-89.144779, 38.210667], [-89.144779, 38.47356], [-88.914747, 38.479037]]]}}, {"type": "Feature", "properties": {"name": "Cascade", "id": "30013", "FIPS": "30013", "FIPS State": 30, "ST": "MT", "County": "Cascade County,MT", "State": "Montana"}, "geometry": {"type": "Polygon", "coordinates": [[[-111.419495, 47.696727], [-111.408542, 47.696727], [-110.64177, 47.417403], [-110.652724, 46.825894], [-111.079925, 47.088787], [-111.660481, 46.913525], [-112.049344, 47.515988], [-111.419495, 47.696727]]]}}, {"type": "Feature", "properties": {"name": "Sebastian", "id": "05131", "FIPS": "05131", "FIPS State": 5, "ST": "AR", "County": "Sebastian County,AR", "State": "Arkansas"}, "geometry": {"type": "Polygon", "coordinates": [[[-94.380734, 35.444812], [-94.074025, 35.444812], [-94.03021, 35.21478], [-94.139749, 35.099764], [-94.183564, 35.083334], [-94.446457, 34.935456], [-94.430026, 35.379088], [-94.430026, 35.395519], [-94.380734, 35.444812]]]}}, {"type": "Feature", "properties": {"name": "Routt", "id": "08107", "FIPS": "08107", "FIPS State": 8, "ST": "CO", "County": "Routt County,CO", "State": "Colorado"}, "geometry": {"type": "Polygon", "coordinates": [[[-107.317267, 41.003906], [-106.857204, 41.003906], [-106.654557, 40.445258], [-106.627173, 39.924949], [-107.032466, 39.919472], [-107.037943, 40.089257], [-107.109143, 40.226181], [-107.43776, 40.220704], [-107.317267, 41.003906]]]}}, {"type": "Feature", "properties": {"name": "Douglas", "id": "41019", "FIPS": "41019", "FIPS State": 41, "ST": "OR", "County": "Douglas County,OR", "State": "Oregon"}, "geometry": {"type": "Polygon", "coordinates": [[[-123.824765, 43.945023], [-123.140148, 43.780715], [-123.107286, 43.53973], [-122.132391, 43.441145], [-122.280268, 42.997512], [-123.227779, 42.701758], [-123.715227, 42.783912], [-123.813811, 42.789389], [-123.874058, 43.61093], [-124.147905, 43.61093], [-124.219105, 43.61093], [-124.158859, 43.862869], [-123.824765, 43.945023]]]}}, {"type": "Feature", "properties": {"name": "Johnson", "id": "56019", "FIPS": "56019", "FIPS State": 56, "ST": "WY", "County": "Johnson County,WY", "State": "Wyoming"}, "geometry": {"type": "Polygon", "coordinates": [[[-106.008278, 44.563917], [-106.019232, 43.495914], [-106.079479, 43.495914], [-107.109143, 43.501391], [-107.147482, 44.164101], [-107.372036, 44.55844], [-106.008278, 44.563917]]]}}, {"type": "Feature", "properties": {"name": "Uvalde", "id": "48463", "FIPS": "48463", "FIPS State": 48, "ST": "TX", "County": "Uvalde County,TX", "State": "Texas"}, "geometry": {"type": "Polygon", "coordinates": [[[-99.605735, 29.628301], [-99.414042, 29.628301], [-99.414042, 29.091561], [-100.109614, 29.086084], [-100.109614, 29.622824], [-100.016506, 29.622824], [-99.605735, 29.628301]]]}}, {"type": "Feature", "properties": {"name": "Kewaunee", "id": "55061", "FIPS": "55061", "FIPS State": 55, "ST": "WI", "County": "Kewaunee County,WI", "State": "Wisconsin"}, "geometry": {"type": "Polygon", "coordinates": [[[-87.737205, 44.678933], [-87.375727, 44.673456], [-87.545512, 44.328409], [-87.76459, 44.328409], [-87.76459, 44.646072], [-87.737205, 44.678933]]]}}, {"type": "Feature", "properties": {"name": "Leavenworth", "id": "20103", "FIPS": "20103", "FIPS State": 20, "ST": "KS", "County": "Leavenworth County,KS", "State": "Kansas"}, "geometry": {"type": "Polygon", "coordinates": [[[-95.065351, 39.42107], [-94.966767, 39.42107], [-94.775074, 39.201993], [-94.862705, 39.201993], [-94.90652, 38.988392], [-95.054398, 38.982915], [-95.185844, 39.043162], [-95.180367, 39.42107], [-95.065351, 39.42107]]]}}, {"type": "Feature", "properties": {"name": "San Jacinto", "id": "48407", "FIPS": "48407", "FIPS State": 48, "ST": "TX", "County": "San Jacinto County,TX", "State": "Texas"}, "geometry": {"type": "Polygon", "coordinates": [[[-95.311814, 30.88252], [-95.202275, 30.822274], [-94.851751, 30.493658], [-95.163936, 30.34578], [-95.361106, 30.504611], [-95.328245, 30.860613], [-95.311814, 30.88252]]]}}, {"type": "Feature", "properties": {"name": "Bowie", "id": "48037", "FIPS": "48037", "FIPS State": 48, "ST": "TX", "County": "Bowie County,TX", "State": "Texas"}, "geometry": {"type": "Polygon", "coordinates": [[[-94.736735, 33.703145], [-94.484796, 33.637421], [-94.041164, 33.54979], [-94.041164, 33.270466], [-94.194518, 33.297851], [-94.654581, 33.270466], [-94.747689, 33.330713], [-94.736735, 33.703145]]]}}, {"type": "Feature", "properties": {"name": "Ohio", "id": "54069", "FIPS": "54069", "FIPS State": 54, "ST": "WV", "County": "Ohio County,WV", "State": "West Virginia"}, "geometry": {"type": "Polygon", "coordinates": [[[-80.682906, 40.187842], [-80.518598, 40.160457], [-80.518598, 40.018057], [-80.726722, 40.034488], [-80.732199, 40.034488], [-80.704814, 40.15498], [-80.682906, 40.187842]]]}}, {"type": "Feature", "properties": {"name": "Campbell", "id": "56005", "FIPS": "56005", "FIPS State": 56, "ST": "WY", "County": "Campbell County,WY", "State": "Wyoming"}, "geometry": {"type": "Polygon", "coordinates": [[[-106.024709, 44.991119], [-105.088152, 45.002073], [-105.077198, 44.175055], [-105.077198, 43.495914], [-106.019232, 43.495914], [-106.008278, 44.563917], [-106.024709, 44.991119]]]}}, {"type": "Feature", "properties": {"name": "Pulaski", "id": "29169", "FIPS": "29169", "FIPS State": 29, "ST": "MO", "County": "Pulaski County,MO", "State": "Missouri"}, "geometry": {"type": "Polygon", "coordinates": [[[-92.359743, 38.018974], [-92.184481, 38.018974], [-92.020173, 38.00802], [-92.031127, 37.602726], [-92.250204, 37.602726], [-92.409035, 37.860142], [-92.403558, 38.018974], [-92.359743, 38.018974]]]}}, {"type": "Feature", "properties": {"name": "Emmet", "id": "26047", "FIPS": "26047", "FIPS State": 26, "ST": "MI", "County": "Emmet County,MI", "State": "Michigan"}, "geometry": {"type": "Polygon", "coordinates": [[[-84.730365, 45.785275], [-84.730365, 45.779798], [-84.730365, 45.286874], [-85.09732, 45.363551], [-85.09732, 45.369028], [-84.730365, 45.785275]]]}}, {"type": "Feature", "properties": {"name": "Latah", "id": "16057", "FIPS": "16057", "FIPS State": 16, "ST": "ID", "County": "Latah County,ID", "State": "Idaho"}, "geometry": {"type": "Polygon", "coordinates": [[[-117.000498, 47.132602], [-116.332311, 47.023064], [-116.332311, 46.935433], [-116.458281, 46.628724], [-116.644497, 46.61777], [-117.038836, 46.541093], [-117.038836, 47.127126], [-117.000498, 47.132602]]]}}, {"type": "Feature", "properties": {"name": "Rusk", "id": "48401", "FIPS": "48401", "FIPS State": 48, "ST": "TX", "County": "Rusk County,TX", "State": "Texas"}, "geometry": {"type": "Polygon", "coordinates": [[[-94.577904, 32.394156], [-94.490273, 32.394156], [-94.512181, 31.972432], [-94.451934, 31.846462], [-94.512181, 31.846462], [-94.939382, 31.846462], [-94.983197, 32.13674], [-94.988674, 32.366771], [-94.577904, 32.394156]]]}}, {"type": "Feature", "properties": {"name": "Rockwall", "id": "48397", "FIPS": "48397", "FIPS State": 48, "ST": "TX", "County": "Rockwall County,TX", "State": "Texas"}, "geometry": {"type": "Polygon", "coordinates": [[[-96.440064, 32.980189], [-96.297663, 32.980189], [-96.297663, 32.843265], [-96.516741, 32.81588], [-96.516741, 32.980189], [-96.440064, 32.980189]]]}}, {"type": "Feature", "properties": {"name": "Cottonwood", "id": "27033", "FIPS": "27033", "FIPS State": 27, "ST": "MN", "County": "Cottonwood County,MN", "State": "Minnesota"}, "geometry": {"type": "Polygon", "coordinates": [[[-95.459691, 44.196962], [-95.109167, 44.196962], [-94.857228, 44.109331], [-94.857228, 43.846438], [-95.114644, 43.846438], [-95.454214, 43.846438], [-95.465168, 43.846438], [-95.459691, 44.196962]]]}}, {"type": "Feature", "properties": {"name": "Fairbanks North Star", "id": "02090", "FIPS": "02090", "FIPS State": 2, "ST": "AK", "County": "Fairbanks North Star County,AK", "State": "Alaska"}, "geometry": {"type": "Polygon", "coordinates": [[[-146.696468, 65.321521], [-146.19259, 65.452968], [-145.644896, 65.031244], [-143.886798, 65.09149], [-144.06206, 64.680719], [-146.236405, 64.308287], [-147.003177, 64.258995], [-147.99998, 64.341149], [-148.646259, 64.604042], [-148.66269, 65.211983], [-146.696468, 65.321521]]]}}, {"type": "Feature", "properties": {"name": "Lyman", "id": "46085", "FIPS": "46085", "FIPS State": 46, "ST": "SD", "County": "Lyman County,SD", "State": "South Dakota"}, "geometry": {"type": "Polygon", "coordinates": [[[-100.224629, 44.196962], [-99.939828, 44.196962], [-99.665981, 44.21887], [-99.57835, 44.191485], [-99.353796, 43.934069], [-99.299026, 43.501391], [-99.299026, 43.501391], [-99.534535, 43.501391], [-99.665981, 43.75333], [-100.230106, 43.714992], [-100.339645, 43.714992], [-100.36703, 44.169578], [-100.224629, 44.196962]]]}}, {"type": "Feature", "properties": {"name": "Chippewa", "id": "55017", "FIPS": "55017", "FIPS State": 55, "ST": "WI", "County": "Chippewa County,WI", "State": "Wisconsin"}, "geometry": {"type": "Polygon", "coordinates": [[[-91.089093, 45.29235], [-90.924785, 45.29235], [-90.924785, 45.029457], [-90.924785, 44.859672], [-91.499863, 44.859672], [-91.653218, 44.854195], [-91.664172, 45.210196], [-91.543679, 45.29235], [-91.089093, 45.29235]]]}}, {"type": "Feature", "properties": {"name": "Bedford", "id": "51019", "FIPS": "51019", "FIPS State": 51, "ST": "VA", "County": "Bedford County,VA", "State": "Virginia"}, "geometry": {"type": "Polygon", "coordinates": [[[-79.439641, 37.619157], [-79.187701, 37.465803], [-79.187701, 37.465803], [-79.258902, 37.356264], [-79.445118, 37.055032], [-79.592995, 37.044078], [-79.784688, 37.230294], [-79.844934, 37.224817], [-79.844934, 37.306971], [-79.499887, 37.531526], [-79.439641, 37.619157]]]}}, {"type": "Feature", "properties": {"name": "Kodiak Island", "id": "02150", "FIPS": "02150", "FIPS State": 2, "ST": "AK", "County": "Kodiak Island County,AK", "State": "Alaska"}, "geometry": {"type": "MultiPolygon", "coordinates": [[[[-153.329043, 58.853255], [-153.312612, 58.847778], [-154.062953, 58.4863], [-154.210831, 58.135776], [-155.120003, 57.955037], [-156.357791, 57.16088], [-156.752131, 57.16088], [-155.328126, 57.878359], [-155.333603, 58.190545], [-154.468247, 58.36033], [-154.303938, 58.645131], [-153.329043, 58.853255]]], [[[-152.94018, 58.026237], [-152.666333, 58.562977], [-152.080301, 58.152206], [-152.94018, 58.026237]]], [[[-153.958891, 57.538789], [-153.936983, 57.812636], [-153.301658, 57.993375], [-152.151501, 57.620943], [-153.695998, 56.859649], [-154.303938, 56.848695], [-154.742094, 57.314235], [-154.227261, 57.659282], [-153.958891, 57.538789]]]]}}, {"type": "Feature", "properties": {"name": "Callaway", "id": "29027", "FIPS": "29027", "FIPS State": 29, "ST": "MO", "County": "Callaway County,MO", "State": "Missouri"}, "geometry": {"type": "Polygon", "coordinates": [[[-92.107804, 39.065069], [-91.63131, 39.059592], [-91.647741, 38.703591], [-92.009219, 38.572145], [-92.222819, 38.643345], [-92.107804, 39.065069]]]}}, {"type": "Feature", "properties": {"name": "Clinton", "id": "42035", "FIPS": "42035", "FIPS State": 42, "ST": "PA", "County": "Clinton County,PA", "State": "Pennsylvania"}, "geometry": {"type": "Polygon", "coordinates": [[[-77.747266, 41.474923], [-77.599389, 41.4804], [-77.144803, 41.069629], [-77.144803, 41.042245], [-77.708927, 41.113445], [-78.037544, 41.151784], [-78.092313, 41.217507], [-77.988251, 41.474923], [-77.747266, 41.474923]]]}}, {"type": "Feature", "properties": {"name": "Adams", "id": "17001", "FIPS": "17001", "FIPS State": 17, "ST": "IL", "County": "Adams County,IL", "State": "Illinois"}, "geometry": {"type": "Polygon", "coordinates": [[[-91.204109, 40.198796], [-90.913831, 40.193319], [-90.913831, 40.105688], [-90.919308, 39.842795], [-91.36294, 39.760641], [-91.43414, 39.946857], [-91.50534, 40.198796], [-91.204109, 40.198796]]]}}, {"type": "Feature", "properties": {"name": "Houghton", "id": "26061", "FIPS": "26061", "FIPS State": 26, "ST": "MI", "County": "Houghton County,MI", "State": "Michigan"}, "geometry": {"type": "Polygon", "coordinates": [[[-88.383484, 47.285957], [-88.23013, 47.198326], [-88.449208, 46.94091], [-88.679239, 46.4206], [-88.712101, 46.4206], [-88.991425, 46.4206], [-88.931178, 47.034018], [-88.514931, 47.285957], [-88.383484, 47.285957]]]}}, {"type": "Feature", "properties": {"name": "Lewis", "id": "36049", "FIPS": "36049", "FIPS State": 36, "ST": "NY", "County": "Lewis County,NY", "State": "New York"}, "geometry": {"type": "Polygon", "coordinates": [[[-75.446951, 44.21887], [-75.167627, 44.098377], [-75.112858, 43.616407], [-75.75366, 43.468529], [-75.775568, 43.687607], [-75.446951, 44.21887]]]}}, {"type": "Feature", "properties": {"name": "Cheyenne", "id": "31033", "FIPS": "31033", "FIPS State": 31, "ST": "NE", "County": "Cheyenne County,NE", "State": "Nebraska"}, "geometry": {"type": "Polygon", "coordinates": [[[-102.754976, 41.436584], [-102.634483, 41.436584], [-102.612575, 41.222984], [-102.623529, 41.003906], [-102.650914, 41.003906], [-103.384824, 41.003906], [-103.379347, 41.392769], [-103.368393, 41.436584], [-102.754976, 41.436584]]]}}, {"type": "Feature", "properties": {"name": "Kendall", "id": "48259", "FIPS": "48259", "FIPS State": 48, "ST": "TX", "County": "Kendall County,TX", "State": "Texas"}, "geometry": {"type": "Polygon", "coordinates": [[[-98.921118, 30.137656], [-98.587024, 30.137656], [-98.411762, 29.93501], [-98.64727, 29.743317], [-98.778717, 29.721409], [-98.915641, 29.781655], [-98.921118, 30.137656]]]}}, {"type": "Feature", "properties": {"name": "Warrick", "id": "18173", "FIPS": "18173", "FIPS State": 18, "ST": "IN", "County": "Warrick County,IN", "State": "Indiana"}, "geometry": {"type": "Polygon", "coordinates": [[[-87.310004, 38.243528], [-87.074495, 38.232574], [-87.019726, 38.20519], [-87.266188, 37.876573], [-87.304527, 37.898481], [-87.452404, 37.942297], [-87.468835, 38.166851], [-87.315481, 38.243528], [-87.310004, 38.243528]]]}}, {"type": "Feature", "properties": {"name": "Henry", "id": "17073", "FIPS": "17073", "FIPS State": 17, "ST": "IL", "County": "Henry County,IL", "State": "Illinois"}, "geometry": {"type": "Polygon", "coordinates": [[[-90.179921, 41.584462], [-89.862258, 41.584462], [-89.856781, 41.233938], [-89.982751, 41.151784], [-90.207305, 41.151784], [-90.437337, 41.151784], [-90.43186, 41.327046], [-90.185398, 41.584462], [-90.179921, 41.584462]]]}}, {"type": "Feature", "properties": {"name": "Livingston", "id": "17105", "FIPS": "17105", "FIPS State": 17, "ST": "IL", "County": "Livingston County,IL", "State": "Illinois"}, "geometry": {"type": "Polygon", "coordinates": [[[-88.410869, 41.107968], [-88.252038, 41.113445], [-88.246561, 40.992952], [-88.460161, 40.615043], [-88.712101, 40.757444], [-88.931178, 40.751967], [-88.931178, 40.927229], [-88.586131, 41.107968], [-88.410869, 41.107968]]]}}, {"type": "Feature", "properties": {"name": "Anderson", "id": "48001", "FIPS": "48001", "FIPS State": 48, "ST": "TX", "County": "Anderson County,TX", "State": "Texas"}, "geometry": {"type": "Polygon", "coordinates": [[[-95.42683, 32.08197], [-95.273475, 31.594523], [-95.623999, 31.54523], [-95.739015, 31.501415], [-95.728061, 31.643815], [-95.788308, 31.61643], [-96.051201, 32.005293], [-95.42683, 32.08197]]]}}, {"type": "Feature", "properties": {"name": "Clearwater", "id": "27029", "FIPS": "27029", "FIPS State": 27, "ST": "MN", "County": "Clearwater County,MN", "State": "Minnesota"}, "geometry": {"type": "Polygon", "coordinates": [[[-95.580184, 48.019867], [-95.22966, 48.019867], [-95.185844, 47.411926], [-95.169413, 47.15451], [-95.552799, 47.149033], [-95.552799, 47.499557], [-95.580184, 47.932236], [-95.580184, 48.019867]]]}}, {"type": "Feature", "properties": {"name": "Douglas", "id": "46043", "FIPS": "46043", "FIPS State": 46, "ST": "SD", "County": "Douglas County,SD", "State": "South Dakota"}, "geometry": {"type": "Polygon", "coordinates": [[[-98.685609, 43.501391], [-98.318654, 43.501391], [-98.116007, 43.495914], [-98.11053, 43.194682], [-98.707517, 43.501391], [-98.685609, 43.501391]]]}}, {"type": "Feature", "properties": {"name": "Boone", "id": "05009", "FIPS": "05009", "FIPS State": 5, "ST": "AR", "County": "Boone County,AR", "State": "Arkansas"}, "geometry": {"type": "Polygon", "coordinates": [[[-93.066268, 36.496384], [-92.852668, 36.496384], [-92.891006, 36.112998], [-92.945776, 36.112998], [-93.301777, 36.123952], [-93.2963, 36.496384], [-93.066268, 36.496384]]]}}, {"type": "Feature", "properties": {"name": "Tom Green", "id": "48451", "FIPS": "48451", "FIPS State": 48, "ST": "TX", "County": "Tom Green County,TX", "State": "Texas"}, "geometry": {"type": "Polygon", "coordinates": [[[-100.827093, 31.698584], [-100.235583, 31.693108], [-100.109614, 31.578092], [-100.115091, 31.090644], [-100.690169, 31.085167], [-100.695646, 31.523322], [-101.265248, 31.528799], [-101.265248, 31.556184], [-100.827093, 31.698584]]]}}, {"type": "Feature", "properties": {"name": "Vinton", "id": "39163", "FIPS": "39163", "FIPS State": 39, "ST": "OH", "County": "Vinton County,OH", "State": "Ohio"}, "geometry": {"type": "Polygon", "coordinates": [[[-82.747713, 39.366301], [-82.28765, 39.382732], [-82.271219, 39.201993], [-82.28765, 39.201993], [-82.320511, 39.026731], [-82.435527, 39.037685], [-82.671035, 39.201993], [-82.764143, 39.20747], [-82.747713, 39.366301]]]}}, {"type": "Feature", "properties": {"name": "Louisa", "id": "51109", "FIPS": "51109", "FIPS State": 51, "ST": "VA", "County": "Louisa County,VA", "State": "Virginia"}, "geometry": {"type": "Polygon", "coordinates": [[[-77.95539, 38.117559], [-77.68702, 38.00802], [-77.796559, 37.728696], [-78.064929, 37.903958], [-78.305914, 38.00802], [-78.207329, 38.133989], [-77.95539, 38.117559]]]}}, {"type": "Feature", "properties": {"name": "Randolph", "id": "17157", "FIPS": "17157", "FIPS State": 17, "ST": "IL", "County": "Randolph County,IL", "State": "Illinois"}, "geometry": {"type": "Polygon", "coordinates": [[[-90.03752, 38.22162], [-89.900597, 38.22162], [-89.703427, 38.22162], [-89.593888, 38.22162], [-89.593888, 37.95325], [-89.676042, 37.805373], [-89.938935, 37.876573], [-90.207305, 38.090174], [-90.03752, 38.22162]]]}}, {"type": "Feature", "properties": {"name": "Stanly", "id": "37167", "FIPS": "37167", "FIPS State": 37, "ST": "NC", "County": "Stanly County,NC", "State": "North Carolina"}, "geometry": {"type": "Polygon", "coordinates": [[[-80.233797, 35.505058], [-80.184505, 35.505058], [-80.074966, 35.14358], [-80.173551, 35.149057], [-80.277612, 35.198349], [-80.507644, 35.187396], [-80.294043, 35.505058], [-80.233797, 35.505058]]]}}, {"type": "Feature", "properties": {"name": "Warren", "id": "42123", "FIPS": "42123", "FIPS State": 42, "ST": "PA", "County": "Warren County,PA", "State": "Pennsylvania"}, "geometry": {"type": "Polygon", "coordinates": [[[-79.061732, 42.000709], [-78.919331, 42.000709], [-78.95767, 41.6228], [-78.996008, 41.6228], [-79.510841, 41.6228], [-79.614903, 41.6228], [-79.609426, 41.847355], [-79.609426, 42.000709], [-79.061732, 42.000709]]]}}, {"type": "Feature", "properties": {"name": "Tuscarawas", "id": "39157", "FIPS": "39157", "FIPS State": 39, "ST": "OH", "County": "Tuscarawas County,OH", "State": "Ohio"}, "geometry": {"type": "Polygon", "coordinates": [[[-81.42777, 40.653382], [-81.318231, 40.653382], [-81.268939, 40.434304], [-81.340139, 40.215227], [-81.62494, 40.220704], [-81.707094, 40.445258], [-81.652325, 40.636951], [-81.42777, 40.653382]]]}}, {"type": "Feature", "properties": {"name": "Dallas", "id": "19049", "FIPS": "19049", "FIPS State": 19, "ST": "IA", "County": "Dallas County,IA", "State": "Iowa"}, "geometry": {"type": "Polygon", "coordinates": [[[-93.816609, 41.863786], [-93.789224, 41.513262], [-93.822086, 41.507785], [-94.24381, 41.502308], [-94.282149, 41.863786], [-94.161656, 41.863786], [-93.816609, 41.863786]]]}}, {"type": "Feature", "properties": {"name": "Custer", "id": "40039", "FIPS": "40039", "FIPS State": 40, "ST": "OK", "County": "Custer County,OK", "State": "Oklahoma"}, "geometry": {"type": "Polygon", "coordinates": [[[-98.817056, 35.811767], [-98.63084, 35.811767], [-98.625363, 35.548874], [-98.625363, 35.466719], [-99.16758, 35.466719], [-99.36475, 35.466719], [-99.36475, 35.510535], [-99.375704, 35.811767], [-98.817056, 35.811767]]]}}, {"type": "Feature", "properties": {"name": "Yazoo", "id": "28163", "FIPS": "28163", "FIPS State": 28, "ST": "MS", "County": "Yazoo County,MS", "State": "Mississippi"}, "geometry": {"type": "Polygon", "coordinates": [[[-90.366137, 33.01305], [-89.96632, 32.881604], [-90.448291, 32.574895], [-90.486629, 32.542033], [-90.552353, 32.509172], [-90.722138, 32.61871], [-90.722138, 32.662526], [-90.656414, 32.919942], [-90.366137, 33.01305]]]}}, {"type": "Feature", "properties": {"name": "Grant", "id": "55043", "FIPS": "55043", "FIPS State": 55, "ST": "WI", "County": "Grant County,WI", "State": "Wisconsin"}, "geometry": {"type": "Polygon", "coordinates": [[[-90.552353, 43.205636], [-90.43186, 43.200159], [-90.426383, 42.811297], [-90.426383, 42.504588], [-90.639984, 42.510065], [-90.8974, 42.674373], [-91.154816, 42.986559], [-90.667368, 43.172775], [-90.552353, 43.205636]]]}}, {"type": "Feature", "properties": {"name": "Liberty", "id": "13179", "FIPS": "13179", "FIPS State": 13, "ST": "GA", "County": "Liberty County,GA", "State": "Georgia"}, "geometry": {"type": "Polygon", "coordinates": [[[-81.707094, 32.087447], [-81.197738, 31.725969], [-81.192262, 31.567138], [-81.493493, 31.698584], [-81.811156, 31.999816], [-81.82211, 32.016247], [-81.761863, 32.049109], [-81.718048, 32.087447], [-81.707094, 32.087447]]]}}, {"type": "Feature", "properties": {"name": "Montgomery", "id": "18107", "FIPS": "18107", "FIPS State": 18, "ST": "IN", "County": "Montgomery County,IN", "State": "Indiana"}, "geometry": {"type": "Polygon", "coordinates": [[[-86.921141, 40.215227], [-86.696587, 40.215227], [-86.696587, 40.176888], [-86.696587, 39.924949], [-86.696587, 39.864703], [-87.008772, 39.864703], [-87.090926, 39.952334], [-87.090926, 40.215227], [-86.921141, 40.215227]]]}}, {"type": "Feature", "properties": {"name": "Putnam", "id": "39137", "FIPS": "39137", "FIPS State": 39, "ST": "OH", "County": "Putnam County,OH", "State": "Ohio"}, "geometry": {"type": "Polygon", "coordinates": [[[-84.029317, 41.168214], [-83.881439, 41.168214], [-83.881439, 40.921752], [-84.341502, 40.861506], [-84.401749, 40.992952], [-84.341502, 41.162737], [-84.226487, 41.168214], [-84.029317, 41.168214]]]}}, {"type": "Feature", "properties": {"name": "Ogemaw", "id": "26129", "FIPS": "26129", "FIPS State": 26, "ST": "MI", "County": "Ogemaw County,MI", "State": "Michigan"}, "geometry": {"type": "Polygon", "coordinates": [[[-83.925255, 44.509148], [-83.886916, 44.509148], [-83.886916, 44.164101], [-84.16624, 44.164101], [-84.248394, 44.164101], [-84.368887, 44.158624], [-84.368887, 44.509148], [-83.925255, 44.509148]]]}}, {"type": "Feature", "properties": {"name": "Taylor", "id": "21217", "FIPS": "21217", "FIPS State": 21, "ST": "KY", "County": "Taylor County,KY", "State": "Kentucky"}, "geometry": {"type": "Polygon", "coordinates": [[[-85.584768, 37.47128], [-85.464275, 37.465803], [-85.075412, 37.411033], [-85.163043, 37.312448], [-85.354736, 37.191956], [-85.584768, 37.47128]]]}}, {"type": "Feature", "properties": {"name": "Nacogdoches", "id": "48347", "FIPS": "48347", "FIPS State": 48, "ST": "TX", "County": "Nacogdoches County,TX", "State": "Texas"}, "geometry": {"type": "Polygon", "coordinates": [[[-94.512181, 31.846462], [-94.451934, 31.846462], [-94.397165, 31.654769], [-94.325965, 31.222091], [-94.868182, 31.528799], [-94.939382, 31.846462], [-94.512181, 31.846462]]]}}, {"type": "Feature", "properties": {"name": "Roberts", "id": "46109", "FIPS": "46109", "FIPS State": 46, "ST": "SD", "County": "Roberts County,SD", "State": "South Dakota"}, "geometry": {"type": "Polygon", "coordinates": [[[-96.735818, 45.933153], [-96.560556, 45.933153], [-96.834403, 45.588105], [-96.472925, 45.325212], [-96.681049, 45.325212], [-97.228743, 45.297827], [-97.228743, 45.560721], [-97.228743, 45.933153], [-96.735818, 45.933153]]]}}, {"type": "Feature", "properties": {"name": "Noble", "id": "39121", "FIPS": "39121", "FIPS State": 39, "ST": "OH", "County": "Noble County,OH", "State": "Ohio"}, "geometry": {"type": "Polygon", "coordinates": [[[-81.471585, 39.892087], [-81.236077, 39.952334], [-81.236077, 39.87018], [-81.307277, 39.87018], [-81.28537, 39.607286], [-81.449678, 39.634671], [-81.586601, 39.585379], [-81.69614, 39.755164], [-81.69614, 39.842795], [-81.471585, 39.892087]]]}}, {"type": "Feature", "properties": {"name": "Taos", "id": "35055", "FIPS": "35055", "FIPS State": 35, "ST": "NM", "County": "Taos County,NM", "State": "New Mexico"}, "geometry": {"type": "Polygon", "coordinates": [[[-105.219599, 36.994786], [-105.340092, 36.260876], [-105.531785, 36.014414], [-105.958986, 36.353984], [-106.008278, 36.994786], [-105.718001, 36.994786], [-105.219599, 36.994786]]]}}, {"type": "Feature", "properties": {"name": "Lake", "id": "06033", "FIPS": "06033", "FIPS State": 6, "ST": "CA", "County": "Lake County,CA", "State": "California"}, "geometry": {"type": "Polygon", "coordinates": [[[-122.882732, 39.579902], [-122.740331, 39.382732], [-122.340515, 38.922669], [-122.395284, 38.862422], [-122.625315, 38.665253], [-122.822485, 38.851469], [-123.090855, 39.070546], [-122.882732, 39.579902]]]}}, {"type": "Feature", "properties": {"name": "West Baton Rouge", "id": "22121", "FIPS": "22121", "FIPS State": 22, "ST": "LA", "County": "West Baton Rouge County,LA", "State": "Louisiana"}, "geometry": {"type": "Polygon", "coordinates": [[[-91.330078, 30.657966], [-91.302693, 30.652489], [-91.297217, 30.647012], [-91.143862, 30.323872], [-91.483432, 30.499135], [-91.330078, 30.657966]]]}}, {"type": "Feature", "properties": {"name": "Eau Claire", "id": "55035", "FIPS": "55035", "FIPS State": 55, "ST": "WI", "County": "Eau Claire County,WI", "State": "Wisconsin"}, "geometry": {"type": "Polygon", "coordinates": [[[-91.499863, 44.859672], [-90.924785, 44.859672], [-90.924785, 44.596779], [-91.16577, 44.596779], [-91.286263, 44.596779], [-91.527248, 44.596779], [-91.647741, 44.596779], [-91.647741, 44.68441], [-91.653218, 44.854195], [-91.499863, 44.859672]]]}}, {"type": "Feature", "properties": {"name": "Mills", "id": "48333", "FIPS": "48333", "FIPS State": 48, "ST": "TX", "County": "Mills County,TX", "State": "Texas"}, "geometry": {"type": "Polygon", "coordinates": [[[-98.669178, 31.698584], [-98.461055, 31.682154], [-98.269362, 31.413784], [-98.565116, 31.233045], [-98.992318, 31.484984], [-98.669178, 31.698584]]]}}, {"type": "Feature", "properties": {"name": "Cass", "id": "17017", "FIPS": "17017", "FIPS State": 17, "ST": "IL", "County": "Cass County,IL", "State": "Illinois"}, "geometry": {"type": "Polygon", "coordinates": [[[-90.355183, 40.122119], [-89.993705, 40.105688], [-89.993705, 39.903041], [-89.993705, 39.87018], [-90.585214, 39.875656], [-90.514014, 39.985195], [-90.355183, 40.122119]]]}}, {"type": "Feature", "properties": {"name": "Vermilion", "id": "22113", "FIPS": "22113", "FIPS State": 22, "ST": "LA", "County": "Vermilion County,LA", "State": "Louisiana"}, "geometry": {"type": "Polygon", "coordinates": [[[-92.250204, 30.143133], [-91.965403, 30.033595], [-91.97088, 29.803563], [-91.998265, 29.61187], [-92.04208, 29.579009], [-92.617159, 29.579009], [-92.737652, 30.039072], [-92.628113, 30.093841], [-92.283066, 30.14861], [-92.250204, 30.143133]]]}}, {"type": "Feature", "properties": {"name": "Greene", "id": "51079", "FIPS": "51079", "FIPS State": 51, "ST": "VA", "County": "Greene County,VA", "State": "Virginia"}, "geometry": {"type": "Polygon", "coordinates": [[[-78.459268, 38.468083], [-78.453791, 38.47356], [-78.289483, 38.270913], [-78.371637, 38.183282], [-78.661915, 38.27639], [-78.486653, 38.41879], [-78.459268, 38.468083]]]}}]}