{"type": "FeatureCollection", "crs": {"type": "name", "properties": {"name": "urn:ogc:def:crs:OGC:1.3:CRS84"}}, "features": [{"type": "Feature", "properties": {"name": "Greene", "id": "51079", "FIPS": "51079", "FIPS State": 51, "ST": "VA", "County": "Greene County,VA", "State": "Virginia"}, "geometry": {"type": "Polygon", "coordinates": [[[-78.459268, 38.468083], [-78.453791, 38.47356], [-78.289483, 38.270913], [-78.371637, 38.183282], [-78.661915, 38.27639], [-78.486653, 38.41879], [-78.459268, 38.468083]]]}}, {"type": "Feature", "properties": {"name": "Crow Wing", "id": "27035", "FIPS": "27035", "FIPS State": 27, "ST": "MN", "County": "Crow Wing County,MN", "State": "Minnesota"}, "geometry": {"type": "Polygon", "coordinates": [[[-94.282149, 46.803986], [-93.778271, 46.803986], [-93.794701, 46.245338], [-93.811132, 46.157707], [-94.342395, 46.2782], [-94.282149, 46.803986]]]}}, {"type": "Feature", "properties": {"name": "Geary", "id": "20061", "FIPS": "20061", "FIPS State": 20, "ST": "KS", "County": "Geary County,KS", "State": "Kansas"}, "geometry": {"type": "Polygon", "coordinates": [[[-96.943942, 39.218424], [-96.50031, 39.043162], [-96.50031, 38.867899], [-96.686526, 38.867899], [-96.889173, 38.867899], [-96.96585, 39.130793], [-96.960373, 39.218424], [-96.943942, 39.218424]]]}}, {"type": "Feature", "properties": {"name": "Iberville", "id": "22047", "FIPS": "22047", "FIPS State": 22, "ST": "LA", "County": "Iberville County,LA", "State": "Louisiana"}, "geometry": {"type": "Polygon", "coordinates": [[[-91.521771, 30.499135], [-91.483432, 30.499135], [-91.143862, 30.323872], [-91.023369, 30.323872], [-91.105524, 30.060979], [-91.226016, 30.022641], [-91.368417, 30.060979], [-91.70251, 30.499135], [-91.521771, 30.499135]]]}}, {"type": "Feature", "properties": {"name": "Fayette", "id": "18041", "FIPS": "18041", "FIPS State": 18, "ST": "IN", "County": "Fayette County,IN", "State": "Indiana"}, "geometry": {"type": "Polygon", "coordinates": [[[-85.22329, 39.788025], [-85.037074, 39.716825], [-85.037074, 39.525132], [-85.23972, 39.525132], [-85.299967, 39.525132], [-85.299967, 39.788025], [-85.22329, 39.788025]]]}}, {"type": "Feature", "properties": {"name": "Bartow", "id": "13015", "FIPS": "13015", "FIPS State": 13, "ST": "GA", "County": "Bartow County,GA", "State": "Georgia"}, "geometry": {"type": "Polygon", "coordinates": [[[-84.933012, 34.398716], [-84.653688, 34.415147], [-84.659165, 34.075577], [-84.735842, 34.081054], [-84.922058, 34.081054], [-85.048028, 34.097484], [-85.004212, 34.393239], [-84.933012, 34.398716]]]}}, {"type": "Feature", "properties": {"name": "Cherokee", "id": "45021", "FIPS": "45021", "FIPS State": 45, "ST": "SC", "County": "Cherokee County,SC", "State": "South Carolina"}, "geometry": {"type": "Polygon", "coordinates": [[[-81.76734, 35.181919], [-81.367524, 35.165488], [-81.455155, 34.836871], [-81.712571, 34.913548], [-81.876879, 35.181919], [-81.76734, 35.181919]]]}}, {"type": "Feature", "properties": {"name": "Carlton", "id": "27017", "FIPS": "27017", "FIPS State": 27, "ST": "MN", "County": "Carlton County,MN", "State": "Minnesota"}, "geometry": {"type": "Polygon", "coordinates": [[[-92.49119, 46.765647], [-92.29402, 46.661586], [-92.29402, 46.415123], [-92.962206, 46.4206], [-93.055314, 46.4206], [-93.060791, 46.765647], [-92.49119, 46.765647]]]}}, {"type": "Feature", "properties": {"name": "Tuolumne", "id": "06109", "FIPS": "06109", "FIPS State": 6, "ST": "CA", "County": "Tuolumne County,CA", "State": "California"}, "geometry": {"type": "Polygon", "coordinates": [[[-120.045677, 38.424267], [-120.018292, 38.435221], [-119.640383, 38.325682], [-119.267951, 37.73965], [-119.30629, 37.777988], [-120.084015, 37.827281], [-120.385247, 37.635588], [-120.653617, 37.832758], [-120.045677, 38.424267]]]}}, {"type": "Feature", "properties": {"name": "Jackson", "id": "39079", "FIPS": "39079", "FIPS State": 39, "ST": "OH", "County": "Jackson County,OH", "State": "Ohio"}, "geometry": {"type": "Polygon", "coordinates": [[[-82.671035, 39.201993], [-82.435527, 39.037685], [-82.577927, 38.845992], [-82.649128, 38.851469], [-82.807959, 38.950054], [-82.786051, 39.169131], [-82.764143, 39.20747], [-82.671035, 39.201993]]]}}, {"type": "Feature", "properties": {"name": "Tehama", "id": "06103", "FIPS": "06103", "FIPS State": 6, "ST": "CA", "County": "Tehama County,CA", "State": "California"}, "geometry": {"type": "Polygon", "coordinates": [[[-121.497066, 40.445258], [-121.436819, 40.149503], [-121.584697, 40.100211], [-122.04476, 39.798979], [-122.937501, 39.798979], [-122.932024, 39.979718], [-123.063471, 40.286427], [-121.497066, 40.445258]]]}}, {"type": "Feature", "properties": {"name": "Schoharie", "id": "36095", "FIPS": "36095", "FIPS State": 36, "ST": "NY", "County": "Schoharie County,NY", "State": "New York"}, "geometry": {"type": "Polygon", "coordinates": [[[-74.647318, 42.827727], [-74.263932, 42.794866], [-74.181778, 42.729142], [-74.252978, 42.406003], [-74.444671, 42.35671], [-74.713041, 42.515542], [-74.647318, 42.827727]]]}}, {"type": "Feature", "properties": {"name": "Overton", "id": "47133", "FIPS": "47133", "FIPS State": 47, "ST": "TN", "County": "Overton County,TN", "State": "Tennessee"}, "geometry": {"type": "Polygon", "coordinates": [[[-85.283536, 36.534723], [-85.119228, 36.408753], [-85.119228, 36.14586], [-85.497137, 36.304691], [-85.497137, 36.403276], [-85.283536, 36.529246], [-85.283536, 36.534723]]]}}, {"type": "Feature", "properties": {"name": "Hertford", "id": "37091", "FIPS": "37091", "FIPS State": 37, "ST": "NC", "County": "Hertford County,NC", "State": "North Carolina"}, "geometry": {"type": "Polygon", "coordinates": [[[-76.914771, 36.545677], [-76.695693, 36.293737], [-76.706647, 36.244445], [-77.210526, 36.244445], [-77.16671, 36.545677], [-76.914771, 36.545677]]]}}, {"type": "Feature", "properties": {"name": "Madison", "id": "39097", "FIPS": "39097", "FIPS State": 39, "ST": "OH", "County": "Madison County,OH", "State": "Ohio"}, "geometry": {"type": "Polygon", "coordinates": [[[-83.50353, 40.111165], [-83.207776, 40.105688], [-83.246114, 39.81541], [-83.246114, 39.809933], [-83.251591, 39.694917], [-83.651408, 39.716825], [-83.645931, 39.771595], [-83.514484, 40.01258], [-83.50353, 40.111165]]]}}, {"type": "Feature", "properties": {"name": "Gilchrist", "id": "12041", "FIPS": "12041", "FIPS State": 12, "ST": "FL", "County": "Gilchrist County,FL", "State": "Florida"}, "geometry": {"type": "Polygon", "coordinates": [[[-82.879159, 29.885717], [-82.802482, 29.93501], [-82.660082, 29.830948], [-82.654605, 29.562578], [-82.873682, 29.589962], [-82.939406, 29.589962], [-82.922975, 29.825471], [-82.917498, 29.825471], [-82.906544, 29.825471], [-82.879159, 29.885717]]]}}, {"type": "Feature", "properties": {"name": "Runnels", "id": "48399", "FIPS": "48399", "FIPS State": 48, "ST": "TX", "County": "Runnels County,TX", "State": "Texas"}, "geometry": {"type": "Polygon", "coordinates": [[[-100.054844, 32.08197], [-99.715274, 32.08197], [-99.720751, 31.578092], [-99.726228, 31.578092], [-100.109614, 31.578092], [-100.235583, 31.693108], [-100.235583, 32.08197], [-100.153429, 32.08197], [-100.054844, 32.08197]]]}}, {"type": "Feature", "properties": {"name": "Elk", "id": "42047", "FIPS": "42047", "FIPS State": 42, "ST": "PA", "County": "Elk County,PA", "State": "Pennsylvania"}, "geometry": {"type": "Polygon", "coordinates": [[[-78.95767, 41.6228], [-78.42093, 41.600893], [-78.234714, 41.228461], [-78.711208, 41.201076], [-78.95767, 41.370861], [-79.094593, 41.343476], [-78.95767, 41.6228]]]}}, {"type": "Feature", "properties": {"name": "Marion", "id": "21155", "FIPS": "21155", "FIPS State": 21, "ST": "KY", "County": "Marion County,KY", "State": "Kentucky"}, "geometry": {"type": "Polygon", "coordinates": [[[-85.404029, 37.728696], [-85.031597, 37.630111], [-85.037074, 37.54248], [-85.075412, 37.411033], [-85.464275, 37.465803], [-85.519044, 37.553434], [-85.404029, 37.728696]]]}}, {"type": "Feature", "properties": {"name": "Cowley", "id": "20035", "FIPS": "20035", "FIPS State": 20, "ST": "KS", "County": "Cowley County,KS", "State": "Kansas"}, "geometry": {"type": "Polygon", "coordinates": [[[-97.080866, 37.476757], [-96.527695, 37.476757], [-96.522218, 37.301494], [-96.527695, 37.000263], [-96.730341, 37.000263], [-96.752249, 37.000263], [-96.867265, 37.000263], [-97.146589, 37.000263], [-97.152066, 37.476757], [-97.080866, 37.476757]]]}}, {"type": "Feature", "properties": {"name": "Cole", "id": "29051", "FIPS": "29051", "FIPS State": 29, "ST": "MO", "County": "Cole County,MO", "State": "Missouri"}, "geometry": {"type": "Polygon", "coordinates": [[[-92.392605, 38.736453], [-92.222819, 38.643345], [-92.009219, 38.572145], [-92.195435, 38.336636], [-92.496666, 38.429744], [-92.392605, 38.736453]]]}}, {"type": "Feature", "properties": {"name": "Kings", "id": "06031", "FIPS": "06031", "FIPS State": 6, "ST": "CA", "County": "Kings County,CA", "State": "California"}, "geometry": {"type": "Polygon", "coordinates": [[[-119.57466, 36.490907], [-119.536321, 35.789859], [-120.193554, 35.789859], [-120.215462, 35.789859], [-120.314047, 35.904875], [-119.958045, 36.403276], [-119.57466, 36.490907]]]}}, {"type": "Feature", "properties": {"name": "Talladega", "id": "01121", "FIPS": "01121", "FIPS State": 1, "ST": "AL", "County": "Talladega County,AL", "State": "Alabama"}, "geometry": {"type": "Polygon", "coordinates": [[[-86.198185, 33.697668], [-86.143416, 33.681237], [-85.798368, 33.555267], [-85.853138, 33.500498], [-85.875046, 33.500498], [-86.176277, 33.106158], [-86.488463, 33.100681], [-86.378924, 33.390959], [-86.198185, 33.697668]]]}}, {"type": "Feature", "properties": {"name": "Jefferson", "id": "47089", "FIPS": "47089", "FIPS State": 47, "ST": "TN", "County": "Jefferson County,TN", "State": "Tennessee"}, "geometry": {"type": "Polygon", "coordinates": [[[-83.602115, 36.151337], [-83.465192, 36.173245], [-83.23516, 36.085614], [-83.311837, 35.893921], [-83.673316, 36.036321], [-83.667839, 36.080137], [-83.602115, 36.151337]]]}}, {"type": "Feature", "properties": {"name": "Brown", "id": "48049", "FIPS": "48049", "FIPS State": 48, "ST": "TX", "County": "Brown County,TX", "State": "Texas"}, "geometry": {"type": "Polygon", "coordinates": [[[-99.118287, 32.08197], [-98.926594, 32.076493], [-98.669178, 31.698584], [-98.992318, 31.484984], [-99.090903, 31.463076], [-99.200441, 31.468553], [-99.194965, 32.08197], [-99.118287, 32.08197]]]}}, {"type": "Feature", "properties": {"name": "Waldo", "id": "23027", "FIPS": "23027", "FIPS State": 23, "ST": "ME", "County": "Waldo County,ME", "State": "Maine"}, "geometry": {"type": "Polygon", "coordinates": [[[-69.471609, 44.695364], [-69.268962, 44.722749], [-68.814376, 44.68441], [-68.797945, 44.470809], [-69.027977, 44.251732], [-69.411363, 44.328409], [-69.504471, 44.34484], [-69.471609, 44.695364]]]}}, {"type": "Feature", "properties": {"name": "Hoke", "id": "37093", "FIPS": "37093", "FIPS State": 37, "ST": "NC", "County": "Hoke County,NC", "State": "North Carolina"}, "geometry": {"type": "Polygon", "coordinates": [[[-79.127455, 35.165488], [-79.10007, 35.176442], [-79.034347, 34.951887], [-79.346533, 34.836871], [-79.461548, 35.044995], [-79.127455, 35.165488]]]}}, {"type": "Feature", "properties": {"name": "Iroquois", "id": "17075", "FIPS": "17075", "FIPS State": 17, "ST": "IL", "County": "Iroquois County,IL", "State": "Illinois"}, "geometry": {"type": "Polygon", "coordinates": [[[-87.523605, 41.009383], [-87.523605, 40.735536], [-87.529082, 40.489074], [-87.841267, 40.489074], [-87.934375, 40.483597], [-88.131545, 40.998429], [-88.131545, 40.998429], [-87.523605, 41.009383]]]}}, {"type": "Feature", "properties": {"name": "Rowan", "id": "21205", "FIPS": "21205", "FIPS State": 21, "ST": "KY", "County": "Rowan County,KY", "State": "Kentucky"}, "geometry": {"type": "Polygon", "coordinates": [[[-83.410422, 38.396883], [-83.339222, 38.320205], [-83.246114, 38.194236], [-83.262545, 38.117559], [-83.355653, 38.068266], [-83.43233, 38.035405], [-83.498053, 38.051835], [-83.634977, 38.188759], [-83.454238, 38.380452], [-83.410422, 38.396883]]]}}, {"type": "Feature", "properties": {"name": "Lee", "id": "37105", "FIPS": "37105", "FIPS State": 37, "ST": "NC", "County": "Lee County,NC", "State": "North Carolina"}, "geometry": {"type": "Polygon", "coordinates": [[[-79.242471, 35.570781], [-78.968624, 35.521489], [-79.182224, 35.307888], [-79.35201, 35.516012], [-79.242471, 35.570781]]]}}, {"type": "Feature", "properties": {"name": "Marshall", "id": "18099", "FIPS": "18099", "FIPS State": 18, "ST": "IN", "County": "Marshall County,IN", "State": "Indiana"}, "geometry": {"type": "Polygon", "coordinates": [[[-86.247477, 41.4804], [-86.061262, 41.4804], [-86.061262, 41.436584], [-86.077692, 41.173691], [-86.242001, 41.173691], [-86.466555, 41.173691], [-86.466555, 41.431108], [-86.247477, 41.4804]]]}}, {"type": "Feature", "properties": {"name": "Houston", "id": "48225", "FIPS": "48225", "FIPS State": 48, "ST": "TX", "County": "Houston County,TX", "State": "Texas"}, "geometry": {"type": "Polygon", "coordinates": [[[-95.623999, 31.54523], [-95.273475, 31.594523], [-95.005105, 31.424737], [-94.955813, 31.386399], [-95.432306, 31.057782], [-95.618522, 30.931813], [-95.7664, 31.096121], [-95.739015, 31.501415], [-95.623999, 31.54523]]]}}, {"type": "Feature", "properties": {"name": "Coahoma", "id": "28027", "FIPS": "28027", "FIPS State": 28, "ST": "MS", "County": "Coahoma County,MS", "State": "Mississippi"}, "geometry": {"type": "Polygon", "coordinates": [[[-90.568783, 34.524686], [-90.398998, 34.426101], [-90.448291, 34.075577], [-90.448291, 33.987946], [-90.656414, 33.987946], [-90.738569, 34.119392], [-90.957646, 34.119392], [-90.568783, 34.524686]]]}}, {"type": "Feature", "properties": {"name": "Wayne", "id": "42127", "FIPS": "42127", "FIPS State": 42, "ST": "PA", "County": "Wayne County,PA", "State": "Pennsylvania"}, "geometry": {"type": "Polygon", "coordinates": [[[-75.479813, 42.000709], [-75.35932, 42.000709], [-75.145719, 41.852832], [-75.069042, 41.600893], [-75.35932, 41.239415], [-75.507197, 41.233938], [-75.463382, 41.639231], [-75.48529, 42.000709], [-75.479813, 42.000709]]]}}, {"type": "Feature", "properties": {"name": "Madison", "id": "36053", "FIPS": "36053", "FIPS State": 36, "ST": "NY", "County": "Madison County,NY", "State": "New York"}, "geometry": {"type": "Polygon", "coordinates": [[[-75.978214, 43.167298], [-75.994645, 43.183728], [-75.885106, 43.156344], [-75.249781, 42.871543], [-75.293597, 42.745573], [-75.310028, 42.745573], [-75.890583, 42.723665], [-75.89606, 42.789389], [-75.978214, 43.167298]]]}}, {"type": "Feature", "properties": {"name": "Hill", "id": "30041", "FIPS": "30041", "FIPS State": 30, "ST": "MT", "County": "Hill County,MT", "State": "Montana"}, "geometry": {"type": "Polygon", "coordinates": [[[-109.491612, 49.000239], [-109.535428, 48.134883], [-110.389831, 48.304668], [-110.756786, 48.217037], [-110.745832, 49.000239], [-109.491612, 49.000239]]]}}, {"type": "Feature", "properties": {"name": "Indiana", "id": "42063", "FIPS": "42063", "FIPS State": 42, "ST": "PA", "County": "Indiana County,PA", "State": "Pennsylvania"}, "geometry": {"type": "Polygon", "coordinates": [[[-79.215086, 40.910798], [-78.804316, 40.905321], [-78.804316, 40.724582], [-78.974101, 40.395966], [-79.450595, 40.527412], [-79.215086, 40.910798]]]}}, {"type": "Feature", "properties": {"name": "Allamakee", "id": "19005", "FIPS": "19005", "FIPS State": 19, "ST": "IA", "County": "Allamakee County,IA", "State": "Iowa"}, "geometry": {"type": "Polygon", "coordinates": [[[-91.368417, 43.501391], [-91.215062, 43.501391], [-91.204109, 43.424714], [-91.176724, 43.079667], [-91.565587, 43.079667], [-91.603925, 43.079667], [-91.609402, 43.501391], [-91.368417, 43.501391]]]}}, {"type": "Feature", "properties": {"name": "Panola", "id": "28107", "FIPS": "28107", "FIPS State": 28, "ST": "MS", "County": "Panola County,MS", "State": "Mississippi"}, "geometry": {"type": "Polygon", "coordinates": [[[-90.097767, 34.55207], [-89.719858, 34.55207], [-89.719858, 34.190592], [-89.933458, 34.163208], [-90.136105, 34.157731], [-90.196352, 34.508255], [-90.196352, 34.55207], [-90.097767, 34.55207]]]}}, {"type": "Feature", "properties": {"name": "Bertie", "id": "37015", "FIPS": "37015", "FIPS State": 37, "ST": "NC", "County": "Bertie County,NC", "State": "North Carolina"}, "geometry": {"type": "Polygon", "coordinates": [[[-76.706647, 36.244445], [-76.668309, 36.01989], [-76.690217, 35.943213], [-76.761417, 35.866536], [-77.325542, 36.07466], [-77.29268, 36.167768], [-77.210526, 36.244445], [-76.706647, 36.244445]]]}}, {"type": "Feature", "properties": {"name": "Haywood", "id": "37087", "FIPS": "37087", "FIPS State": 37, "ST": "NC", "County": "Haywood County,NC", "State": "North Carolina"}, "geometry": {"type": "Polygon", "coordinates": [[[-82.961313, 35.789859], [-82.884636, 35.68032], [-82.747713, 35.422904], [-82.922975, 35.291457], [-83.185868, 35.516012], [-83.257068, 35.696751], [-83.257068, 35.713182], [-82.961313, 35.789859]]]}}, {"type": "Feature", "properties": {"name": "Vermilion", "id": "17183", "FIPS": "17183", "FIPS State": 17, "ST": "IL", "County": "Vermilion County,IL", "State": "Illinois"}, "geometry": {"type": "Polygon", "coordinates": [[[-87.841267, 40.489074], [-87.529082, 40.489074], [-87.529082, 40.47812], [-87.529082, 40.149503], [-87.534558, 39.881133], [-87.939852, 39.881133], [-87.934375, 40.401443], [-87.934375, 40.483597], [-87.841267, 40.489074]]]}}, {"type": "Feature", "properties": {"name": "Darke", "id": "39037", "FIPS": "39037", "FIPS State": 39, "ST": "OH", "County": "Darke County,OH", "State": "Ohio"}, "geometry": {"type": "Polygon", "coordinates": [[[-84.456518, 40.35215], [-84.43461, 40.35215], [-84.43461, 40.198796], [-84.423656, 39.919472], [-84.483903, 39.919472], [-84.812519, 39.919472], [-84.812519, 40.007103], [-84.801565, 40.308335], [-84.801565, 40.35215], [-84.456518, 40.35215]]]}}, {"type": "Feature", "properties": {"name": "Orange", "id": "50017", "FIPS": "50017", "FIPS State": 50, "ST": "VT", "County": "Orange County,VT", "State": "Vermont"}, "geometry": {"type": "Polygon", "coordinates": [[[-72.434634, 44.153147], [-72.368911, 44.202439], [-72.040294, 44.153147], [-72.204602, 43.769761], [-72.790635, 43.961454], [-72.741343, 44.027177], [-72.434634, 44.153147]]]}}, {"type": "Feature", "properties": {"name": "Cowlitz", "id": "53015", "FIPS": "53015", "FIPS State": 53, "ST": "WA", "County": "Cowlitz County,WA", "State": "Washington"}, "geometry": {"type": "Polygon", "coordinates": [[[-123.216825, 46.387739], [-122.24193, 46.387739], [-122.247407, 46.053645], [-122.433623, 45.976968], [-122.784147, 45.850998], [-123.211348, 46.174138], [-123.216825, 46.387739]]]}}, {"type": "Feature", "properties": {"name": "Bradford", "id": "42015", "FIPS": "42015", "FIPS State": 42, "ST": "PA", "County": "Bradford County,PA", "State": "Pennsylvania"}, "geometry": {"type": "Polygon", "coordinates": [[[-76.920248, 42.000709], [-76.55877, 42.000709], [-76.147999, 42.000709], [-76.115138, 41.650185], [-76.2192, 41.540646], [-76.816186, 41.589939], [-76.876433, 41.595416], [-76.925725, 42.000709], [-76.920248, 42.000709]]]}}, {"type": "Feature", "properties": {"name": "Rutland", "id": "50021", "FIPS": "50021", "FIPS State": 50, "ST": "VT", "County": "Rutland County,VT", "State": "Vermont"}, "geometry": {"type": "Polygon", "coordinates": [[[-73.365714, 43.75333], [-72.96042, 43.82453], [-72.867312, 43.298744], [-73.256175, 43.315175], [-73.365714, 43.75333]]]}}, {"type": "Feature", "properties": {"name": "Lenoir", "id": "37107", "FIPS": "37107", "FIPS State": 37, "ST": "NC", "County": "Lenoir County,NC", "State": "North Carolina"}, "geometry": {"type": "Polygon", "coordinates": [[[-77.446034, 35.379088], [-77.391265, 35.34075], [-77.473419, 35.231211], [-77.730835, 35.006656], [-77.834897, 35.176442], [-77.807512, 35.368135], [-77.473419, 35.428381], [-77.446034, 35.379088]]]}}, {"type": "Feature", "properties": {"name": "Knox", "id": "23013", "FIPS": "23013", "FIPS State": 23, "ST": "ME", "County": "Knox County,ME", "State": "Maine"}, "geometry": {"type": "Polygon", "coordinates": [[[-69.411363, 44.328409], [-69.027977, 44.251732], [-69.373024, 43.966931], [-69.411363, 44.328409]]]}}, {"type": "Feature", "properties": {"name": "Waller", "id": "48473", "FIPS": "48473", "FIPS State": 48, "ST": "TX", "County": "Waller County,TX", "State": "Texas"}, "geometry": {"type": "Polygon", "coordinates": [[[-95.821169, 30.247195], [-95.804738, 30.247195], [-95.804738, 30.088364], [-95.826646, 29.787132], [-95.826646, 29.787132], [-96.03477, 29.726886], [-96.144309, 30.071933], [-96.095016, 30.225288], [-95.821169, 30.247195]]]}}, {"type": "Feature", "properties": {"name": "Shenandoah", "id": "51171", "FIPS": "51171", "FIPS State": 51, "ST": "VA", "County": "Shenandoah County,VA", "State": "Virginia"}, "geometry": {"type": "Polygon", "coordinates": [[[-78.338776, 39.103408], [-78.311391, 39.0103], [-78.388068, 38.829561], [-78.640007, 38.605006], [-78.870039, 38.763838], [-78.541422, 39.054115], [-78.338776, 39.103408]]]}}, {"type": "Feature", "properties": {"name": "Daviess", "id": "21059", "FIPS": "21059", "FIPS State": 21, "ST": "KY", "County": "Daviess County,KY", "State": "Kentucky"}, "geometry": {"type": "Polygon", "coordinates": [[[-87.266188, 37.876573], [-86.981388, 37.931343], [-86.822556, 37.73965], [-87.036157, 37.558911], [-87.408589, 37.68488], [-87.304527, 37.898481], [-87.266188, 37.876573]]]}}, {"type": "Feature", "properties": {"name": "Marinette", "id": "55075", "FIPS": "55075", "FIPS State": 55, "ST": "WI", "County": "Marinette County,WI", "State": "Wisconsin"}, "geometry": {"type": "Polygon", "coordinates": [[[-88.060345, 45.779798], [-87.846744, 45.725029], [-87.589328, 45.095181], [-87.76459, 44.963734], [-88.4273, 45.374505], [-88.4273, 45.725029], [-88.060345, 45.779798]]]}}, {"type": "Feature", "properties": {"name": "Winona", "id": "27169", "FIPS": "27169", "FIPS State": 27, "ST": "MN", "County": "Winona County,MN", "State": "Minnesota"}, "geometry": {"type": "Polygon", "coordinates": [[[-92.069465, 44.191485], [-91.855864, 44.191485], [-91.56011, 44.027177], [-91.423186, 43.983362], [-91.286263, 43.846438], [-91.373894, 43.846438], [-91.729895, 43.846438], [-92.080419, 43.846438], [-92.080419, 44.109331], [-92.069465, 44.191485]]]}}, {"type": "Feature", "properties": {"name": "Reno", "id": "20155", "FIPS": "20155", "FIPS State": 20, "ST": "KS", "County": "Reno County,KS", "State": "Kansas"}, "geometry": {"type": "Polygon", "coordinates": [[[-97.929791, 38.172328], [-97.924314, 38.172328], [-97.69976, 38.172328], [-97.69976, 37.914912], [-97.809299, 37.734173], [-97.918837, 37.734173], [-98.466531, 37.734173], [-98.472008, 37.827281], [-98.472008, 38.172328], [-97.929791, 38.172328]]]}}, {"type": "Feature", "properties": {"name": "George", "id": "28039", "FIPS": "28039", "FIPS State": 28, "ST": "MS", "County": "George County,MS", "State": "Mississippi"}, "geometry": {"type": "Polygon", "coordinates": [[[-88.679239, 30.997536], [-88.4273, 30.997536], [-88.410869, 30.734643], [-88.865455, 30.734643], [-88.881886, 30.734643], [-88.887363, 30.909905], [-88.832593, 30.997536], [-88.679239, 30.997536]]]}}, {"type": "Feature", "properties": {"name": "Ochiltree", "id": "48357", "FIPS": "48357", "FIPS State": 48, "ST": "TX", "County": "Ochiltree County,TX", "State": "Texas"}, "geometry": {"type": "Polygon", "coordinates": [[[-100.805185, 36.501861], [-100.547769, 36.501861], [-100.547769, 36.058229], [-100.947585, 36.058229], [-101.084509, 36.058229], [-101.084509, 36.501861], [-100.953062, 36.501861], [-100.805185, 36.501861]]]}}, {"type": "Feature", "properties": {"name": "Becker", "id": "27005", "FIPS": "27005", "FIPS State": 27, "ST": "MN", "County": "Becker County,MN", "State": "Minnesota"}, "geometry": {"type": "Polygon", "coordinates": [[[-95.169413, 47.15451], [-95.163936, 46.803986], [-95.163936, 46.716355], [-96.17717, 46.716355], [-96.193601, 47.149033], [-96.067632, 47.149033], [-95.552799, 47.149033], [-95.169413, 47.15451]]]}}, {"type": "Feature", "properties": {"name": "Pike", "id": "21195", "FIPS": "21195", "FIPS State": 21, "ST": "KY", "County": "Pike County,KY", "State": "Kentucky"}, "geometry": {"type": "Polygon", "coordinates": [[[-82.145249, 37.569865], [-81.969987, 37.537003], [-82.315034, 37.296018], [-82.55602, 37.20291], [-82.566974, 37.197433], [-82.731282, 37.27411], [-82.709374, 37.285064], [-82.561497, 37.68488], [-82.331465, 37.73965], [-82.145249, 37.569865]]]}}, {"type": "Feature", "properties": {"name": "Madison", "id": "21151", "FIPS": "21151", "FIPS State": 21, "ST": "KY", "County": "Madison County,KY", "State": "Kentucky"}, "geometry": {"type": "Polygon", "coordinates": [[[-84.270302, 37.914912], [-84.078609, 37.854665], [-84.089563, 37.564388], [-84.199102, 37.520572], [-84.231963, 37.520572], [-84.346979, 37.537003], [-84.527718, 37.767034], [-84.43461, 37.849189], [-84.336025, 37.893004], [-84.270302, 37.914912]]]}}, {"type": "Feature", "properties": {"name": "Johnson", "id": "48251", "FIPS": "48251", "FIPS State": 48, "ST": "TX", "County": "Johnson County,TX", "State": "Texas"}, "geometry": {"type": "Polygon", "coordinates": [[[-97.551882, 32.552987], [-97.086342, 32.54751], [-97.086342, 32.268186], [-97.113727, 32.257232], [-97.475205, 32.175078], [-97.617606, 32.202463], [-97.617606, 32.317479], [-97.617606, 32.552987], [-97.551882, 32.552987]]]}}, {"type": "Feature", "properties": {"name": "Morgan", "id": "18109", "FIPS": "18109", "FIPS State": 18, "ST": "IN", "County": "Morgan County,IN", "State": "Indiana"}, "geometry": {"type": "Polygon", "coordinates": [[[-86.247477, 39.634671], [-86.252954, 39.344393], [-86.378924, 39.338916], [-86.630863, 39.34987], [-86.685633, 39.470363], [-86.658248, 39.601809], [-86.324155, 39.629194], [-86.247477, 39.634671]]]}}, {"type": "Feature", "properties": {"name": "Box Elder", "id": "49003", "FIPS": "49003", "FIPS State": 49, "ST": "UT", "County": "Box Elder County,UT", "State": "Utah"}, "geometry": {"type": "Polygon", "coordinates": [[[-112.164359, 41.995232], [-111.885035, 41.425631], [-112.492976, 41.075106], [-113.073531, 40.998429], [-114.04295, 40.998429], [-114.04295, 41.995232], [-113.002331, 42.000709], [-112.164359, 41.995232]]]}}, {"type": "Feature", "properties": {"name": "Rabun", "id": "13241", "FIPS": "13241", "FIPS State": 13, "ST": "GA", "County": "Rabun County,GA", "State": "Georgia"}, "geometry": {"type": "Polygon", "coordinates": [[[-83.109191, 35.00118], [-83.350176, 34.716379], [-83.651408, 34.820441], [-83.547346, 34.990226], [-83.481623, 34.995703], [-83.109191, 35.00118]]]}}, {"type": "Feature", "properties": {"name": "Roane", "id": "47145", "FIPS": "47145", "FIPS State": 47, "ST": "TN", "County": "Roane County,TN", "State": "Tennessee"}, "geometry": {"type": "Polygon", "coordinates": [[[-84.582488, 35.641982], [-84.620826, 35.641982], [-84.724888, 35.75152], [-84.768704, 35.80629], [-84.779657, 35.822721], [-84.681073, 35.910352], [-84.341502, 36.047275], [-84.270302, 35.910352], [-84.264825, 35.899398], [-84.582488, 35.641982]]]}}, {"type": "Feature", "properties": {"name": "Columbia", "id": "12023", "FIPS": "12023", "FIPS State": 12, "ST": "FL", "County": "Columbia County,FL", "State": "Florida"}, "geometry": {"type": "Polygon", "coordinates": [[[-82.69842, 30.597719], [-82.687466, 30.597719], [-82.583404, 30.592243], [-82.457435, 30.586766], [-82.457435, 30.137656], [-82.528635, 29.940487], [-82.660082, 29.830948], [-82.802482, 29.93501], [-82.797005, 30.334826], [-82.69842, 30.597719]]]}}, {"type": "Feature", "properties": {"name": "Randolph", "id": "37151", "FIPS": "37151", "FIPS State": 37, "ST": "NC", "County": "Randolph County,NC", "State": "North Carolina"}, "geometry": {"type": "Polygon", "coordinates": [[[-80.036627, 35.921306], [-79.543702, 35.899398], [-79.543702, 35.844628], [-79.554656, 35.516012], [-79.768257, 35.510535], [-80.064012, 35.505058], [-80.047581, 35.921306], [-80.036627, 35.921306]]]}}, {"type": "Feature", "properties": {"name": "Effingham", "id": "13103", "FIPS": "13103", "FIPS State": 13, "ST": "GA", "County": "Effingham County,GA", "State": "Georgia"}, "geometry": {"type": "Polygon", "coordinates": [[[-81.389431, 32.596803], [-81.279893, 32.558464], [-81.148446, 32.224371], [-81.1594, 32.229848], [-81.389431, 32.098401], [-81.42777, 32.235325], [-81.433247, 32.240802], [-81.548263, 32.487264], [-81.389431, 32.596803]]]}}, {"type": "Feature", "properties": {"name": "Marquette", "id": "26103", "FIPS": "26103", "FIPS State": 26, "ST": "MI", "County": "Marquette County,MI", "State": "Michigan"}, "geometry": {"type": "Polygon", "coordinates": [[[-87.118311, 46.497277], [-87.118311, 46.157707], [-87.37025, 45.987922], [-87.616713, 45.987922], [-87.802929, 46.245338], [-88.115114, 46.245338], [-88.115114, 46.4206], [-88.043914, 46.913525], [-87.118311, 46.497277]]]}}, {"type": "Feature", "properties": {"name": "Pittsylvania", "id": "51143", "FIPS": "51143", "FIPS State": 51, "ST": "VA", "County": "Pittsylvania County,VA", "State": "Virginia"}, "geometry": {"type": "Polygon", "coordinates": [[[-79.302717, 37.109802], [-79.094593, 37.060509], [-79.220563, 36.5402], [-79.341056, 36.5402], [-79.401302, 36.638785], [-79.472502, 36.5402], [-79.510841, 36.5402], [-79.713488, 36.5402], [-79.642287, 36.857862], [-79.592995, 37.044078], [-79.445118, 37.055032], [-79.302717, 37.109802]]]}}, {"type": "Feature", "properties": {"name": "Ellis", "id": "20051", "FIPS": "20051", "FIPS State": 20, "ST": "KS", "County": "Ellis County,KS", "State": "Kansas"}, "geometry": {"type": "Polygon", "coordinates": [[[-99.408565, 39.130793], [-99.047087, 39.130793], [-99.036133, 39.130793], [-99.04161, 38.698114], [-99.583827, 38.698114], [-99.600258, 38.698114], [-99.589304, 39.130793], [-99.408565, 39.130793]]]}}, {"type": "Feature", "properties": {"name": "Jefferson", "id": "36045", "FIPS": "36045", "FIPS State": 36, "ST": "NY", "County": "Jefferson County,NY", "State": "New York"}, "geometry": {"type": "Polygon", "coordinates": [[[-75.857722, 44.405086], [-75.446951, 44.21887], [-75.775568, 43.687607], [-76.087753, 43.671176], [-76.202769, 43.68213], [-76.312308, 44.196962], [-75.857722, 44.405086]]]}}, {"type": "Feature", "properties": {"name": "Klamath", "id": "41035", "FIPS": "41035", "FIPS State": 41, "ST": "OR", "County": "Klamath County,OR", "State": "Oregon"}, "geometry": {"type": "Polygon", "coordinates": [[[-121.486112, 43.616407], [-121.332757, 43.616407], [-121.349188, 42.745573], [-120.883648, 42.745573], [-120.878171, 41.995232], [-121.316327, 41.995232], [-121.447773, 41.995232], [-122.291222, 42.006186], [-122.280268, 42.992036], [-122.280268, 42.997512], [-122.132391, 43.441145], [-122.000944, 43.616407], [-121.486112, 43.616407]]]}}, {"type": "Feature", "properties": {"name": "Harris", "id": "13145", "FIPS": "13145", "FIPS State": 13, "ST": "GA", "County": "Harris County,GA", "State": "Georgia"}, "geometry": {"type": "Polygon", "coordinates": [[[-84.861812, 32.87065], [-84.70298, 32.843265], [-84.692026, 32.585849], [-85.02612, 32.607757], [-85.080889, 32.607757], [-85.130182, 32.74468], [-85.184951, 32.87065], [-84.861812, 32.87065], [-84.861812, 32.87065]]]}}, {"type": "Feature", "properties": {"name": "Noble", "id": "18113", "FIPS": "18113", "FIPS State": 18, "ST": "IN", "County": "Noble County,IN", "State": "Indiana"}, "geometry": {"type": "Polygon", "coordinates": [[[-85.195905, 41.524216], [-85.190428, 41.266799], [-85.305444, 41.266799], [-85.650491, 41.294184], [-85.655968, 41.436584], [-85.655968, 41.524216], [-85.195905, 41.524216]]]}}, {"type": "Feature", "properties": {"name": "Carbon", "id": "42025", "FIPS": "42025", "FIPS State": 42, "ST": "PA", "County": "Carbon County,PA", "State": "Pennsylvania"}, "geometry": {"type": "Polygon", "coordinates": [[[-75.687936, 41.129876], [-75.649598, 41.124399], [-75.474336, 40.812213], [-75.611259, 40.784829], [-75.759137, 40.735536], [-75.994645, 40.910798], [-75.687936, 41.129876]]]}}, {"type": "Feature", "properties": {"name": "Calvert", "id": "24009", "FIPS": "24009", "FIPS State": 24, "ST": "MD", "County": "Calvert County,MD", "State": "Maryland"}, "geometry": {"type": "Polygon", "coordinates": [[[-76.635447, 38.769315], [-76.531385, 38.714545], [-76.405416, 38.320205], [-76.673786, 38.500944], [-76.673786, 38.533806], [-76.68474, 38.747407], [-76.635447, 38.769315]]]}}, {"type": "Feature", "properties": {"name": "Walton", "id": "12131", "FIPS": "12131", "FIPS State": 12, "ST": "FL", "County": "Walton County,FL", "State": "Florida"}, "geometry": {"type": "Polygon", "coordinates": [[[-86.389878, 30.992059], [-86.187231, 30.992059], [-86.033877, 30.992059], [-85.842184, 30.701781], [-85.990061, 30.389596], [-85.995538, 30.269103], [-86.395355, 30.378642], [-86.389878, 30.992059]]]}}, {"type": "Feature", "properties": {"name": "Frederick", "id": "51069", "FIPS": "51069", "FIPS State": 51, "ST": "VA", "County": "Frederick County,VA", "State": "Virginia"}, "geometry": {"type": "Polygon", "coordinates": [[[-78.349729, 39.464886], [-78.229237, 39.393686], [-78.032067, 39.262239], [-78.032067, 39.262239], [-78.15256, 39.037685], [-78.311391, 39.0103], [-78.338776, 39.103408], [-78.541422, 39.054115], [-78.508561, 39.086977], [-78.349729, 39.464886]]]}}, {"type": "Feature", "properties": {"name": "Carroll", "id": "33003", "FIPS": "33003", "FIPS State": 33, "ST": "NH", "County": "Carroll County,NH", "State": "New Hampshire"}, "geometry": {"type": "Polygon", "coordinates": [[[-71.010629, 44.284593], [-70.988722, 43.791669], [-70.961337, 43.53973], [-71.109214, 43.506868], [-71.163984, 43.53973], [-71.530939, 43.764284], [-71.415923, 44.213393], [-71.010629, 44.284593]]]}}, {"type": "Feature", "properties": {"name": "Hall", "id": "13139", "FIPS": "13139", "FIPS State": 13, "ST": "GA", "County": "Hall County,GA", "State": "Georgia"}, "geometry": {"type": "Polygon", "coordinates": [[[-83.788331, 34.513732], [-83.667839, 34.502778], [-83.613069, 34.431578], [-83.618546, 34.294654], [-83.815716, 34.124869], [-83.990978, 34.1413], [-84.062178, 34.168685], [-83.958116, 34.332993], [-83.980024, 34.420624], [-83.843101, 34.502778], [-83.788331, 34.513732]]]}}, {"type": "Feature", "properties": {"name": "Essex", "id": "36031", "FIPS": "36031", "FIPS State": 36, "ST": "NY", "County": "Essex County,NY", "State": "New York"}, "geometry": {"type": "Polygon", "coordinates": [[[-73.338329, 44.547487], [-73.310944, 44.262686], [-73.376668, 43.8081], [-73.436914, 43.802623], [-73.853161, 43.764284], [-74.055808, 43.742376], [-74.280363, 44.120285], [-73.907931, 44.426994], [-73.338329, 44.547487]]]}}, {"type": "Feature", "properties": {"name": "Chatham", "id": "37037", "FIPS": "37037", "FIPS State": 37, "ST": "NC", "County": "Chatham County,NC", "State": "North Carolina"}, "geometry": {"type": "Polygon", "coordinates": [[[-79.187701, 35.872013], [-79.017916, 35.861059], [-78.908377, 35.866536], [-78.913854, 35.581735], [-78.968624, 35.521489], [-79.242471, 35.570781], [-79.35201, 35.516012], [-79.554656, 35.516012], [-79.543702, 35.844628], [-79.247948, 35.87749], [-79.187701, 35.872013]]]}}, {"type": "Feature", "properties": {"name": "Raleigh", "id": "54081", "FIPS": "54081", "FIPS State": 54, "ST": "WV", "County": "Raleigh County,WV", "State": "West Virginia"}, "geometry": {"type": "Polygon", "coordinates": [[[-81.564693, 37.931343], [-81.455155, 37.986112], [-81.378478, 37.969681], [-80.945799, 37.821804], [-81.093677, 37.586295], [-81.126538, 37.591772], [-81.219646, 37.509618], [-81.515401, 37.788942], [-81.564693, 37.931343]]]}}, {"type": "Feature", "properties": {"name": "Franklin", "id": "53021", "FIPS": "53021", "FIPS State": 53, "ST": "WA", "County": "Franklin County,WA", "State": "Washington"}, "geometry": {"type": "Polygon", "coordinates": [[[-119.213182, 46.738263], [-118.210901, 46.738263], [-118.216378, 46.590385], [-118.227332, 46.595862], [-118.698349, 46.371308], [-119.043396, 46.190569], [-119.454167, 46.678016], [-119.372013, 46.738263], [-119.213182, 46.738263]]]}}, {"type": "Feature", "properties": {"name": "Maury", "id": "47119", "FIPS": "47119", "FIPS State": 47, "ST": "TN", "County": "Maury County,TN", "State": "Tennessee"}, "geometry": {"type": "Polygon", "coordinates": [[[-87.216896, 35.850105], [-86.784218, 35.707705], [-86.95948, 35.417427], [-87.129265, 35.455766], [-87.205942, 35.433858], [-87.293573, 35.444812], [-87.337389, 35.658412], [-87.216896, 35.850105]]]}}, {"type": "Feature", "properties": {"name": "Atchison", "id": "20005", "FIPS": "20005", "FIPS State": 20, "ST": "KS", "County": "Atchison County,KS", "State": "Kansas"}, "geometry": {"type": "Polygon", "coordinates": [[[-95.393968, 39.651102], [-95.339199, 39.651102], [-95.054398, 39.623717], [-95.10369, 39.530609], [-94.966767, 39.42107], [-95.065351, 39.42107], [-95.180367, 39.42107], [-95.465168, 39.42107], [-95.56923, 39.42107], [-95.563753, 39.651102], [-95.393968, 39.651102]]]}}, {"type": "Feature", "properties": {"name": "Alexander", "id": "37003", "FIPS": "37003", "FIPS State": 37, "ST": "NC", "County": "Alexander County,NC", "State": "North Carolina"}, "geometry": {"type": "Polygon", "coordinates": [[[-81.027953, 36.047275], [-81.110107, 35.778905], [-81.192262, 35.822721], [-81.334662, 35.795336], [-81.329185, 35.997983], [-81.027953, 36.047275]]]}}, {"type": "Feature", "properties": {"name": "Coles", "id": "17029", "FIPS": "17029", "FIPS State": 17, "ST": "IL", "County": "Coles County,IL", "State": "Illinois"}, "geometry": {"type": "Polygon", "coordinates": [[[-88.065822, 39.651102], [-87.967237, 39.683964], [-87.96176, 39.481317], [-88.011052, 39.377255], [-88.142499, 39.377255], [-88.471115, 39.371778], [-88.471115, 39.448455], [-88.471115, 39.651102], [-88.065822, 39.651102]]]}}, {"type": "Feature", "properties": {"name": "Gilpin", "id": "08047", "FIPS": "08047", "FIPS State": 8, "ST": "CO", "County": "Gilpin County,CO", "State": "Colorado"}, "geometry": {"type": "Polygon", "coordinates": [[[-105.674185, 39.930426], [-105.400338, 39.913995], [-105.400338, 39.749687], [-105.690616, 39.853749], [-105.674185, 39.930426]]]}}, {"type": "Feature", "properties": {"name": "Putnam", "id": "47141", "FIPS": "47141", "FIPS State": 47, "ST": "TN", "County": "Putnam County,TN", "State": "Tennessee"}, "geometry": {"type": "Polygon", "coordinates": [[[-85.497137, 36.299214], [-85.497137, 36.304691], [-85.119228, 36.14586], [-85.102797, 36.140383], [-85.261628, 35.981552], [-85.508091, 36.080137], [-85.645014, 36.014414], [-85.809322, 36.129429], [-85.781938, 36.238968], [-85.497137, 36.299214]]]}}, {"type": "Feature", "properties": {"name": "Houston", "id": "01069", "FIPS": "01069", "FIPS State": 1, "ST": "AL", "County": "Houston County,AL", "State": "Alabama"}, "geometry": {"type": "Polygon", "coordinates": [[[-85.414983, 31.315199], [-85.086366, 31.309722], [-85.02612, 31.074213], [-85.004212, 31.003013], [-85.486183, 30.997536], [-85.486183, 31.200183], [-85.710737, 31.194706], [-85.414983, 31.315199]]]}}, {"type": "Feature", "properties": {"name": "Macon", "id": "13193", "FIPS": "13193", "FIPS State": 13, "ST": "GA", "County": "Macon County,GA", "State": "Georgia"}, "geometry": {"type": "MultiPolygon", "coordinates": [[[[-84.001932, 32.531079], [-84.007409, 32.520126], [-84.051224, 32.520126], [-84.051224, 32.520126], [-84.001932, 32.531079]]], [[[-84.018363, 32.503695], [-83.848578, 32.465356], [-83.848578, 32.290094], [-84.029317, 32.169601], [-84.182671, 32.229848], [-84.253871, 32.372248], [-84.051224, 32.520126], [-84.018363, 32.503695]]]]}}, {"type": "Feature", "properties": {"name": "Botetourt", "id": "51023", "FIPS": "51023", "FIPS State": 51, "ST": "VA", "County": "Botetourt County,VA", "State": "Virginia"}, "geometry": {"type": "Polygon", "coordinates": [[[-79.790165, 37.794419], [-79.675149, 37.761557], [-79.499887, 37.531526], [-79.844934, 37.306971], [-80.074966, 37.421987], [-80.020196, 37.646542], [-79.790165, 37.794419]]]}}, {"type": "Feature", "properties": {"name": "Culpeper", "id": "51047", "FIPS": "51047", "FIPS State": 51, "ST": "VA", "County": "Culpeper County,VA", "State": "Virginia"}, "geometry": {"type": "Polygon", "coordinates": [[[-77.933482, 38.698114], [-77.637727, 38.407836], [-77.621296, 38.369498], [-77.703451, 38.358544], [-77.895143, 38.391406], [-78.092313, 38.309252], [-78.229237, 38.533806], [-77.933482, 38.698114]]]}}, {"type": "Feature", "properties": {"name": "Lafayette", "id": "28071", "FIPS": "28071", "FIPS State": 28, "ST": "MS", "County": "Lafayette County,MS", "State": "Mississippi"}, "geometry": {"type": "Polygon", "coordinates": [[[-89.62675, 34.557547], [-89.248841, 34.497301], [-89.248841, 34.376808], [-89.243364, 34.163208], [-89.511734, 34.163208], [-89.719858, 34.190592], [-89.719858, 34.55207], [-89.670565, 34.55207], [-89.62675, 34.557547]]]}}, {"type": "Feature", "properties": {"name": "Lee", "id": "28081", "FIPS": "28081", "FIPS State": 28, "ST": "MS", "County": "Lee County,MS", "State": "Mississippi"}, "geometry": {"type": "Polygon", "coordinates": [[[-88.635423, 34.508255], [-88.542316, 34.464439], [-88.542316, 34.08653], [-88.706624, 34.092007], [-88.717578, 34.075577], [-88.827116, 34.075577], [-88.827116, 34.365854], [-88.734008, 34.508255], [-88.635423, 34.508255]]]}}, {"type": "Feature", "properties": {"name": "Green", "id": "55045", "FIPS": "55045", "FIPS State": 55, "ST": "WI", "County": "Green County,WI", "State": "Wisconsin"}, "geometry": {"type": "Polygon", "coordinates": [[[-89.84035, 42.855112], [-89.369334, 42.844158], [-89.363857, 42.499111], [-89.402195, 42.499111], [-89.84035, 42.504588], [-89.84035, 42.811297], [-89.84035, 42.855112]]]}}, {"type": "Feature", "properties": {"name": "Clarion", "id": "42031", "FIPS": "42031", "FIPS State": 42, "ST": "PA", "County": "Clarion County,PA", "State": "Pennsylvania"}, "geometry": {"type": "Polygon", "coordinates": [[[-79.357487, 41.431108], [-79.209609, 41.332523], [-79.215086, 41.053199], [-79.603949, 41.020337], [-79.69158, 41.168214], [-79.697057, 41.173691], [-79.477979, 41.387292], [-79.357487, 41.431108]]]}}, {"type": "Feature", "properties": {"name": "Allen", "id": "39003", "FIPS": "39003", "FIPS State": 39, "ST": "OH", "County": "Allen County,OH", "State": "Ohio"}, "geometry": {"type": "Polygon", "coordinates": [[[-83.881439, 40.921752], [-83.881439, 40.81769], [-83.881439, 40.642428], [-84.253871, 40.686244], [-84.396272, 40.686244], [-84.341502, 40.861506], [-83.881439, 40.921752]]]}}, {"type": "Feature", "properties": {"name": "Delta", "id": "08029", "FIPS": "08029", "FIPS State": 8, "ST": "CO", "County": "Delta County,CO", "State": "Colorado"}, "geometry": {"type": "Polygon", "coordinates": [[[-107.514437, 39.212947], [-107.503483, 39.218424], [-107.498006, 38.67073], [-108.001885, 38.67073], [-108.379794, 38.67073], [-107.514437, 39.212947]]]}}, {"type": "Feature", "properties": {"name": "Belmont", "id": "39013", "FIPS": "39013", "FIPS State": 39, "ST": "OH", "County": "Belmont County,OH", "State": "Ohio"}, "geometry": {"type": "Polygon", "coordinates": [[[-81.219646, 40.171411], [-80.885553, 40.160457], [-80.704814, 40.15498], [-80.732199, 40.034488], [-80.81983, 39.848272], [-81.236077, 39.87018], [-81.236077, 39.952334], [-81.225123, 40.171411], [-81.219646, 40.171411]]]}}, {"type": "Feature", "properties": {"name": "Iron", "id": "49021", "FIPS": "49021", "FIPS State": 49, "ST": "UT", "County": "Iron County,UT", "State": "Utah"}, "geometry": {"type": "Polygon", "coordinates": [[[-112.876362, 38.15042], [-112.476545, 38.144943], [-112.684669, 37.54248], [-112.903746, 37.498664], [-112.898269, 37.498664], [-114.053904, 37.602726], [-114.048427, 38.15042], [-112.876362, 38.15042]]]}}, {"type": "Feature", "properties": {"name": "Dyer", "id": "47045", "FIPS": "47045", "FIPS State": 47, "ST": "TN", "County": "Dyer County,TN", "State": "Tennessee"}, "geometry": {"type": "Polygon", "coordinates": [[[-89.265272, 36.206106], [-89.155733, 36.206106], [-89.188594, 35.997983], [-89.341949, 35.882967], [-89.489826, 35.94869], [-89.643181, 35.904875], [-89.730812, 35.997983], [-89.62675, 36.184199], [-89.484349, 36.211583], [-89.265272, 36.206106]]]}}]}