{"type": "FeatureCollection", "crs": {"type": "name", "properties": {"name": "urn:ogc:def:crs:OGC:1.3:CRS84"}}, "features": [{"type": "Feature", "properties": {"name": "Smith", "id": "48423", "FIPS": "48423", "FIPS State": 48, "ST": "TX", "County": "Smith County,TX", "State": "Texas"}, "geometry": {"type": "Polygon", "coordinates": [[[-95.574707, 32.67348], [-95.152983, 32.569418], [-94.988674, 32.536556], [-94.988674, 32.366771], [-94.983197, 32.13674], [-95.459691, 32.13674], [-95.448737, 32.355817], [-95.596615, 32.684434], [-95.574707, 32.67348]]]}}, {"type": "Feature", "properties": {"name": "Terry", "id": "48445", "FIPS": "48445", "FIPS State": 48, "ST": "TX", "County": "Terry County,TX", "State": "Texas"}, "geometry": {"type": "Polygon", "coordinates": [[[-102.366113, 33.390959], [-102.075835, 33.390959], [-102.075835, 32.958281], [-102.207282, 32.958281], [-102.596144, 32.958281], [-102.596144, 33.390959], [-102.366113, 33.390959]]]}}, {"type": "Feature", "properties": {"name": "Nolan", "id": "48353", "FIPS": "48353", "FIPS State": 48, "ST": "TX", "County": "Nolan County,TX", "State": "Texas"}, "geometry": {"type": "Polygon", "coordinates": [[[-100.147952, 32.520126], [-100.153429, 32.08197], [-100.235583, 32.08197], [-100.662785, 32.087447], [-100.662785, 32.525602], [-100.147952, 32.520126]]]}}, {"type": "Feature", "properties": {"name": "Harrison", "id": "28047", "FIPS": "28047", "FIPS State": 28, "ST": "MS", "County": "Harrison County,MS", "State": "Mississippi"}, "geometry": {"type": "Polygon", "coordinates": [[[-88.881886, 30.679874], [-88.843547, 30.406027], [-89.341949, 30.373165], [-89.341949, 30.647012], [-88.881886, 30.679874]]]}}, {"type": "Feature", "properties": {"name": "Tom Green", "id": "48451", "FIPS": "48451", "FIPS State": 48, "ST": "TX", "County": "Tom Green County,TX", "State": "Texas"}, "geometry": {"type": "Polygon", "coordinates": [[[-100.827093, 31.698584], [-100.235583, 31.693108], [-100.109614, 31.578092], [-100.115091, 31.090644], [-100.690169, 31.085167], [-100.695646, 31.523322], [-101.265248, 31.528799], [-101.265248, 31.556184], [-100.827093, 31.698584]]]}}, {"type": "Feature", "properties": {"name": "Hinds", "id": "28049", "FIPS": "28049", "FIPS State": 28, "ST": "MS", "County": "Hinds County,MS", "State": "Mississippi"}, "geometry": {"type": "Polygon", "coordinates": [[[-90.486629, 32.542033], [-90.448291, 32.574895], [-90.064905, 32.399633], [-90.229213, 32.049109], [-90.716661, 32.049109], [-90.727615, 32.224371], [-90.552353, 32.509172], [-90.486629, 32.542033]]]}}, {"type": "Feature", "properties": {"name": "Butte", "id": "06007", "FIPS": "06007", "FIPS State": 6, "ST": "CA", "County": "Butte County,CA", "State": "California"}, "geometry": {"type": "Polygon", "coordinates": [[[-121.584697, 40.100211], [-121.436819, 40.149503], [-121.075341, 39.596333], [-121.623035, 39.295101], [-121.907836, 39.306055], [-121.891405, 39.382732], [-122.04476, 39.798979], [-121.584697, 40.100211]]]}}, {"type": "Feature", "properties": {"name": "Austin", "id": "48015", "FIPS": "48015", "FIPS State": 48, "ST": "TX", "County": "Austin County,TX", "State": "Texas"}, "geometry": {"type": "Polygon", "coordinates": [[[-96.379817, 30.082887], [-96.144309, 30.071933], [-96.03477, 29.726886], [-96.089539, 29.600916], [-96.17717, 29.633778], [-96.57151, 29.962394], [-96.620803, 30.044549], [-96.379817, 30.082887]]]}}, {"type": "Feature", "properties": {"name": "Greene", "id": "29077", "FIPS": "29077", "FIPS State": 29, "ST": "MO", "County": "Greene County,MO", "State": "Missouri"}, "geometry": {"type": "Polygon", "coordinates": [[[-93.619439, 37.427464], [-93.619439, 37.427464], [-93.181284, 37.41651], [-93.071745, 37.41651], [-93.066268, 37.087894], [-93.482516, 37.098848], [-93.608485, 37.098848], [-93.624916, 37.279587], [-93.619439, 37.427464]]]}}, {"type": "Feature", "properties": {"name": "Winnebago", "id": "17201", "FIPS": "17201", "FIPS State": 17, "ST": "IL", "County": "Winnebago County,IL", "State": "Illinois"}, "geometry": {"type": "Polygon", "coordinates": [[[-89.363857, 42.499111], [-88.942132, 42.493634], [-88.942132, 42.154064], [-89.281702, 42.203356], [-89.396718, 42.203356], [-89.402195, 42.499111], [-89.363857, 42.499111]]]}}, {"type": "Feature", "properties": {"name": "Anderson", "id": "48001", "FIPS": "48001", "FIPS State": 48, "ST": "TX", "County": "Anderson County,TX", "State": "Texas"}, "geometry": {"type": "Polygon", "coordinates": [[[-95.42683, 32.08197], [-95.273475, 31.594523], [-95.623999, 31.54523], [-95.739015, 31.501415], [-95.728061, 31.643815], [-95.788308, 31.61643], [-96.051201, 32.005293], [-95.42683, 32.08197]]]}}, {"type": "Feature", "properties": {"name": "Ottawa", "id": "26139", "FIPS": "26139", "FIPS State": 26, "ST": "MI", "County": "Ottawa County,MI", "State": "Michigan"}, "geometry": {"type": "Polygon", "coordinates": [[[-85.792891, 43.205636], [-85.781938, 42.767481], [-86.044831, 42.767481], [-86.209139, 42.767481], [-86.269385, 43.118005], [-85.792891, 43.205636]]]}}, {"type": "Feature", "properties": {"name": "Jackson", "id": "26075", "FIPS": "26075", "FIPS State": 26, "ST": "MI", "County": "Jackson County,MI", "State": "Michigan"}, "geometry": {"type": "Polygon", "coordinates": [[[-84.598918, 42.422434], [-84.138855, 42.422434], [-84.133379, 42.422434], [-84.133379, 42.07191], [-84.36341, 42.07191], [-84.708457, 42.07191], [-84.719411, 42.422434], [-84.598918, 42.422434]]]}}, {"type": "Feature", "properties": {"name": "Uintah", "id": "49047", "FIPS": "49047", "FIPS State": 49, "ST": "UT", "County": "Uintah County,UT", "State": "Utah"}, "geometry": {"type": "Polygon", "coordinates": [[[-109.283489, 40.856029], [-109.04798, 40.653382], [-109.053457, 40.220704], [-109.053457, 39.662056], [-109.053457, 39.497748], [-110.022876, 39.459409], [-110.022876, 39.470363], [-109.968106, 39.804456], [-109.97906, 40.812213], [-109.283489, 40.856029]]]}}, {"type": "Feature", "properties": {"name": "Buchanan", "id": "29021", "FIPS": "29021", "FIPS State": 29, "ST": "MO", "County": "Buchanan County,MO", "State": "Missouri"}, "geometry": {"type": "Polygon", "coordinates": [[[-94.769597, 39.820887], [-94.605288, 39.820887], [-94.599812, 39.749687], [-94.599812, 39.530609], [-95.10369, 39.530609], [-95.054398, 39.623717], [-94.879136, 39.820887], [-94.769597, 39.820887]]]}}, {"type": "Feature", "properties": {"name": "Wayne", "id": "37191", "FIPS": "37191", "FIPS State": 37, "ST": "NC", "County": "Wayne County,NC", "State": "North Carolina"}, "geometry": {"type": "Polygon", "coordinates": [[[-78.064929, 35.587212], [-77.823943, 35.570781], [-77.807512, 35.368135], [-77.834897, 35.176442], [-78.043021, 35.192872], [-78.163514, 35.187396], [-78.305914, 35.28598], [-78.064929, 35.587212]]]}}, {"type": "Feature", "properties": {"name": "Napa", "id": "06055", "FIPS": "06055", "FIPS State": 6, "ST": "CA", "County": "Napa County,CA", "State": "California"}, "geometry": {"type": "Polygon", "coordinates": [[[-122.395284, 38.862422], [-122.105006, 38.511898], [-122.406238, 38.155897], [-122.625315, 38.665253], [-122.395284, 38.862422]]]}}, {"type": "Feature", "properties": {"name": "Calhoun", "id": "01015", "FIPS": "01015", "FIPS State": 1, "ST": "AL", "County": "Calhoun County,AL", "State": "Alabama"}, "geometry": {"type": "Polygon", "coordinates": [[[-85.738122, 33.966038], [-85.529998, 33.94413], [-85.798368, 33.555267], [-86.143416, 33.681237], [-86.066738, 33.840068], [-85.738122, 33.966038]]]}}, {"type": "Feature", "properties": {"name": "Lake", "id": "39085", "FIPS": "39085", "FIPS State": 39, "ST": "OH", "County": "Lake County,OH", "State": "Ohio"}, "geometry": {"type": "Polygon", "coordinates": [[[-81.000569, 41.852832], [-81.006046, 41.715908], [-81.389431, 41.568031], [-81.488016, 41.633754], [-81.000569, 41.852832]]]}}, {"type": "Feature", "properties": {"name": "Sonoma", "id": "06097", "FIPS": "06097", "FIPS State": 6, "ST": "CA", "County": "Sonoma County,CA", "State": "California"}, "geometry": {"type": "Polygon", "coordinates": [[[-123.074425, 38.851469], [-122.822485, 38.851469], [-122.625315, 38.665253], [-122.406238, 38.155897], [-122.406238, 38.15042], [-122.488392, 38.112082], [-122.844393, 38.27639], [-123.003224, 38.298298], [-123.534488, 38.769315], [-123.074425, 38.851469]]]}}, {"type": "Feature", "properties": {"name": "Placer", "id": "06061", "FIPS": "06061", "FIPS State": 6, "ST": "CA", "County": "Placer County,CA", "State": "California"}, "geometry": {"type": "Polygon", "coordinates": [[[-120.149738, 39.317009], [-120.007338, 39.317009], [-120.001861, 39.163654], [-120.001861, 39.114362], [-120.001861, 39.065069], [-121.04248, 38.917192], [-121.141065, 38.714545], [-121.486112, 38.736453], [-121.414912, 38.999346], [-121.277988, 39.032208], [-120.149738, 39.317009]]]}}, {"type": "Feature", "properties": {"name": "Brazos", "id": "48041", "FIPS": "48041", "FIPS State": 48, "ST": "TX", "County": "Brazos County,TX", "State": "Texas"}, "geometry": {"type": "Polygon", "coordinates": [[[-96.237417, 30.964674], [-96.166217, 30.822274], [-96.155263, 30.329349], [-96.297663, 30.378642], [-96.566033, 30.696304], [-96.242894, 30.975628], [-96.237417, 30.964674]]]}}, {"type": "Feature", "properties": {"name": "Ashtabula", "id": "39007", "FIPS": "39007", "FIPS State": 39, "ST": "OH", "County": "Ashtabula County,OH", "State": "Ohio"}, "geometry": {"type": "Polygon", "coordinates": [[[-80.518598, 41.978802], [-80.518598, 41.847355], [-80.518598, 41.502308], [-81.000569, 41.502308], [-81.006046, 41.715908], [-81.000569, 41.852832], [-80.518598, 41.978802], [-80.518598, 41.978802]]]}}, {"type": "Feature", "properties": {"name": "Jefferson", "id": "54037", "FIPS": "54037", "FIPS State": 54, "ST": "WV", "County": "Jefferson County,WV", "State": "West Virginia"}, "geometry": {"type": "Polygon", "coordinates": [[[-77.823943, 39.492271], [-77.823943, 39.492271], [-77.719881, 39.322485], [-77.82942, 39.130793], [-78.032067, 39.262239], [-77.823943, 39.492271]]]}}, {"type": "Feature", "properties": {"name": "Spokane", "id": "53063", "FIPS": "53063", "FIPS State": 53, "ST": "WA", "County": "Spokane County,WA", "State": "Washington"}, "geometry": {"type": "Polygon", "coordinates": [[[-117.537238, 48.047251], [-117.438653, 48.047251], [-117.044313, 48.047251], [-117.044313, 47.976051], [-117.038836, 47.368111], [-117.038836, 47.258572], [-117.822039, 47.258572], [-117.822039, 47.822697], [-117.537238, 48.047251]]]}}, {"type": "Feature", "properties": {"name": "Merced", "id": "06047", "FIPS": "06047", "FIPS State": 6, "ST": "CA", "County": "Merced County,CA", "State": "California"}, "geometry": {"type": "Polygon", "coordinates": [[[-120.385247, 37.635588], [-120.051153, 37.181002], [-120.544078, 37.044078], [-120.91651, 36.742847], [-121.217742, 36.961924], [-121.228696, 37.137186], [-120.385247, 37.635588]]]}}, {"type": "Feature", "properties": {"name": "Chittenden", "id": "50007", "FIPS": "50007", "FIPS State": 50, "ST": "VT", "County": "Chittenden County,VT", "State": "Vermont"}, "geometry": {"type": "Polygon", "coordinates": [[[-73.22879, 44.722749], [-72.922082, 44.635118], [-72.807066, 44.454379], [-72.954943, 44.164101], [-73.22879, 44.262686], [-73.310944, 44.262686], [-73.338329, 44.547487], [-73.360237, 44.563917], [-73.22879, 44.722749]]]}}, {"type": "Feature", "properties": {"name": "Weld", "id": "08123", "FIPS": "08123", "FIPS State": 8, "ST": "CO", "County": "Weld County,CO", "State": "Colorado"}, "geometry": {"type": "Polygon", "coordinates": [[[-103.576517, 41.003906], [-103.581994, 40.521935], [-104.091349, 40.521935], [-104.151596, 40.001626], [-105.055291, 40.001626], [-105.055291, 40.264519], [-104.945752, 40.998429], [-104.053011, 41.003906], [-103.576517, 41.003906]]]}}, {"type": "Feature", "properties": {"name": "Arlington", "id": "51013", "FIPS": "51013", "FIPS State": 51, "ST": "VA", "County": "Arlington County,VA", "State": "Virginia"}, "geometry": {"type": "Polygon", "coordinates": [[[-77.117418, 38.933623], [-77.046218, 38.840515], [-77.084556, 38.845992], [-77.111941, 38.845992], [-77.15028, 38.878853], [-77.172187, 38.895284], [-77.117418, 38.933623]]]}}, {"type": "Feature", "properties": {"name": "Summit", "id": "49043", "FIPS": "49043", "FIPS State": 49, "ST": "UT", "County": "Summit County,UT", "State": "Utah"}, "geometry": {"type": "Polygon", "coordinates": [[[-111.047063, 41.250368], [-111.047063, 40.998429], [-110.05026, 40.998429], [-110.000968, 40.998429], [-110.000968, 40.812213], [-110.148845, 40.812213], [-110.904663, 40.680767], [-111.430449, 40.686244], [-111.550942, 40.609566], [-111.638573, 40.801259], [-111.266141, 41.146307], [-111.047063, 41.250368]]]}}, {"type": "Feature", "properties": {"name": "Cambria", "id": "42021", "FIPS": "42021", "FIPS State": 42, "ST": "PA", "County": "Cambria County,PA", "State": "Pennsylvania"}, "geometry": {"type": "Polygon", "coordinates": [[[-78.804316, 40.724582], [-78.349729, 40.724582], [-78.6181, 40.324766], [-78.656438, 40.242611], [-79.001485, 40.286427], [-79.056255, 40.286427], [-78.974101, 40.395966], [-78.804316, 40.724582]]]}}, {"type": "Feature", "properties": {"name": "Phillips", "id": "08095", "FIPS": "08095", "FIPS State": 8, "ST": "CO", "County": "Phillips County,CO", "State": "Colorado"}, "geometry": {"type": "Polygon", "coordinates": [[[-102.327774, 40.74649], [-102.053927, 40.751967], [-102.053927, 40.697198], [-102.053927, 40.439781], [-102.426359, 40.439781], [-102.667345, 40.439781], [-102.650914, 40.751967], [-102.327774, 40.74649]]]}}, {"type": "Feature", "properties": {"name": "Citrus", "id": "12017", "FIPS": "12017", "FIPS State": 12, "ST": "FL", "County": "Citrus County,FL", "State": "Florida"}, "geometry": {"type": "Polygon", "coordinates": [[[-82.523158, 29.042268], [-82.309557, 28.960114], [-82.265742, 28.669836], [-82.649128, 28.691744], [-82.758666, 28.992976], [-82.534112, 29.042268], [-82.523158, 29.042268]]]}}, {"type": "Feature", "properties": {"name": "Adams", "id": "42001", "FIPS": "42001", "FIPS State": 42, "ST": "PA", "County": "Adams County,PA", "State": "Pennsylvania"}, "geometry": {"type": "Polygon", "coordinates": [[[-77.139326, 40.067349], [-76.996925, 39.722302], [-77.216003, 39.722302], [-77.456988, 39.722302], [-77.473419, 39.946857], [-77.139326, 40.067349]]]}}, {"type": "Feature", "properties": {"name": "Waller", "id": "48473", "FIPS": "48473", "FIPS State": 48, "ST": "TX", "County": "Waller County,TX", "State": "Texas"}, "geometry": {"type": "Polygon", "coordinates": [[[-95.821169, 30.247195], [-95.804738, 30.247195], [-95.804738, 30.088364], [-95.826646, 29.787132], [-95.826646, 29.787132], [-96.03477, 29.726886], [-96.144309, 30.071933], [-96.095016, 30.225288], [-95.821169, 30.247195]]]}}, {"type": "Feature", "properties": {"name": "Yuma", "id": "04027", "FIPS": "04027", "FIPS State": 4, "ST": "AZ", "County": "Yuma County,AZ", "State": "Arizona"}, "geometry": {"type": "Polygon", "coordinates": [[[-113.993657, 33.462159], [-113.336425, 33.380005], [-113.336425, 32.503695], [-113.336425, 32.038155], [-114.815198, 32.492741], [-114.72209, 32.717295], [-114.513967, 33.029481], [-113.993657, 33.462159]]]}}, {"type": "Feature", "properties": {"name": "Georgetown", "id": "45043", "FIPS": "45043", "FIPS State": 45, "ST": "SC", "County": "Georgetown County,SC", "State": "South Carolina"}, "geometry": {"type": "Polygon", "coordinates": [[[-79.319148, 33.779822], [-79.319148, 33.779822], [-79.187701, 33.703145], [-79.001485, 33.571698], [-79.291763, 33.111635], [-79.445118, 33.215697], [-79.675149, 33.303328], [-79.319148, 33.779822]]]}}, {"type": "Feature", "properties": {"name": "Lake", "id": "12069", "FIPS": "12069", "FIPS State": 12, "ST": "FL", "County": "Lake County,FL", "State": "Florida"}, "geometry": {"type": "Polygon", "coordinates": [[[-81.641371, 29.277777], [-81.367524, 28.87796], [-81.411339, 28.784852], [-81.542786, 28.784852], [-81.657801, 28.346697], [-81.959033, 28.346697], [-81.953556, 28.960114], [-81.641371, 29.277777]]]}}, {"type": "Feature", "properties": {"name": "Oklahoma", "id": "40109", "FIPS": "40109", "FIPS State": 40, "ST": "OK", "County": "Oklahoma County,OK", "State": "Oklahoma"}, "geometry": {"type": "Polygon", "coordinates": [[[-97.672375, 35.724136], [-97.141112, 35.724136], [-97.141112, 35.466719], [-97.141112, 35.379088], [-97.425913, 35.379088], [-97.672375, 35.379088], [-97.672375, 35.724136]]]}}, {"type": "Feature", "properties": {"name": "Kern", "id": "06029", "FIPS": "06029", "FIPS State": 6, "ST": "CA", "County": "Kern County,CA", "State": "California"}, "geometry": {"type": "Polygon", "coordinates": [[[-118.008255, 35.789859], [-117.630346, 35.795336], [-117.668684, 34.820441], [-118.884565, 34.793056], [-119.443213, 34.902595], [-119.470598, 34.902595], [-120.193554, 35.789859], [-119.536321, 35.789859], [-118.008255, 35.789859]]]}}, {"type": "Feature", "properties": {"name": "Douglas", "id": "08035", "FIPS": "08035", "FIPS State": 8, "ST": "CO", "County": "Douglas County,CO", "State": "Colorado"}, "geometry": {"type": "Polygon", "coordinates": [[[-104.989567, 39.568948], [-104.660951, 39.563471], [-104.660951, 39.130793], [-104.995044, 39.130793], [-105.033383, 39.130793], [-105.329138, 39.130793], [-105.049814, 39.563471], [-104.989567, 39.568948]]]}}, {"type": "Feature", "properties": {"name": "Cleveland", "id": "40027", "FIPS": "40027", "FIPS State": 40, "ST": "OK", "County": "Cleveland County,OK", "State": "Oklahoma"}, "geometry": {"type": "Polygon", "coordinates": [[[-97.425913, 35.379088], [-97.141112, 35.379088], [-97.141112, 34.929979], [-97.672375, 35.335273], [-97.672375, 35.379088], [-97.425913, 35.379088]]]}}, {"type": "Feature", "properties": {"name": "Warren", "id": "39165", "FIPS": "39165", "FIPS State": 39, "ST": "OH", "County": "Warren County,OH", "State": "Ohio"}, "geometry": {"type": "Polygon", "coordinates": [[[-84.36341, 39.590856], [-84.111471, 39.579902], [-83.974547, 39.568948], [-84.007409, 39.256762], [-84.259348, 39.273193], [-84.352456, 39.289624], [-84.36341, 39.590856]]]}}, {"type": "Feature", "properties": {"name": "Alachua", "id": "12001", "FIPS": "12001", "FIPS State": 12, "ST": "FL", "County": "Alachua County,FL", "State": "Florida"}, "geometry": {"type": "Polygon", "coordinates": [[[-82.506727, 29.940487], [-82.419096, 29.924056], [-82.052141, 29.715932], [-82.057618, 29.46947], [-82.408142, 29.485901], [-82.654605, 29.562578], [-82.660082, 29.830948], [-82.528635, 29.940487], [-82.506727, 29.940487]]]}}]}