{"type": "FeatureCollection", "crs": {"type": "name", "properties": {"name": "urn:ogc:def:crs:OGC:1.3:CRS84"}}, "features": [{"type": "Feature", "properties": {"name": "Madison", "id": "05087", "FIPS": "05087", "FIPS State": 5, "ST": "AR", "County": "Madison County,AR", "State": "Arkansas"}, "geometry": {"type": "Polygon", "coordinates": [[[-93.816609, 36.304691], [-93.477039, 36.123952], [-93.520854, 35.762474], [-93.696116, 35.767951], [-93.909717, 35.762474], [-93.964486, 35.762474], [-93.887809, 36.233491], [-93.816609, 36.304691]]]}}, {"type": "Feature", "properties": {"name": "Lycoming", "id": "42081", "FIPS": "42081", "FIPS State": 42, "ST": "PA", "County": "Lycoming County,PA", "State": "Pennsylvania"}, "geometry": {"type": "Polygon", "coordinates": [[[-76.876433, 41.595416], [-76.816186, 41.589939], [-76.449231, 41.277753], [-76.640924, 41.157261], [-76.734032, 41.173691], [-76.799755, 41.173691], [-76.89834, 41.14083], [-77.144803, 41.069629], [-77.599389, 41.4804], [-77.599389, 41.540646], [-76.876433, 41.595416]]]}}, {"type": "Feature", "properties": {"name": "Tippecanoe", "id": "18157", "FIPS": "18157", "FIPS State": 18, "ST": "IN", "County": "Tippecanoe County,IN", "State": "Indiana"}, "geometry": {"type": "Polygon", "coordinates": [[[-87.096403, 40.560274], [-86.773264, 40.560274], [-86.696587, 40.434304], [-86.696587, 40.215227], [-86.921141, 40.215227], [-87.090926, 40.215227], [-87.090926, 40.368581], [-87.096403, 40.47812], [-87.096403, 40.560274]]]}}, {"type": "Feature", "properties": {"name": "Roosevelt", "id": "30085", "FIPS": "30085", "FIPS State": 30, "ST": "MT", "County": "Roosevelt County,MT", "State": "Montana"}, "geometry": {"type": "Polygon", "coordinates": [[[-105.756339, 48.562084], [-104.973137, 48.562084], [-104.047534, 48.386822], [-104.042057, 47.997959], [-104.567843, 48.118452], [-105.192214, 48.063682], [-105.84397, 48.008913], [-105.805632, 48.562084], [-105.756339, 48.562084]]]}}, {"type": "Feature", "properties": {"name": "Manatee", "id": "12081", "FIPS": "12081", "FIPS State": 12, "ST": "FL", "County": "Manatee County,FL", "State": "Florida"}, "geometry": {"type": "Polygon", "coordinates": [[[-82.28765, 27.645649], [-82.052141, 27.645649], [-82.057618, 27.33894], [-82.057618, 27.207493], [-82.62722, 27.388232], [-82.643651, 27.388232], [-82.55602, 27.645649], [-82.28765, 27.645649]]]}}, {"type": "Feature", "properties": {"name": "Huntingdon", "id": "42061", "FIPS": "42061", "FIPS State": 42, "ST": "PA", "County": "Huntingdon County,PA", "State": "Pennsylvania"}, "geometry": {"type": "Polygon", "coordinates": [[[-78.114221, 40.741013], [-77.681543, 40.730059], [-77.752743, 40.379535], [-77.703451, 40.264519], [-77.862282, 40.061872], [-78.136129, 40.165934], [-78.256622, 40.297381], [-78.114221, 40.741013]]]}}, {"type": "Feature", "properties": {"name": "Durham", "id": "37063", "FIPS": "37063", "FIPS State": 37, "ST": "NC", "County": "Durham County,NC", "State": "North Carolina"}, "geometry": {"type": "Polygon", "coordinates": [[[-78.952193, 36.238968], [-78.804316, 36.233491], [-78.749546, 36.069183], [-78.908377, 35.866536], [-79.017916, 35.861059], [-78.952193, 36.238968]]]}}, {"type": "Feature", "properties": {"name": "Gaston", "id": "37071", "FIPS": "37071", "FIPS State": 37, "ST": "NC", "County": "Gaston County,NC", "State": "North Carolina"}, "geometry": {"type": "Polygon", "coordinates": [[[-81.455155, 35.417427], [-80.956753, 35.400996], [-81.044384, 35.149057], [-81.329185, 35.165488], [-81.455155, 35.417427]]]}}, {"type": "Feature", "properties": {"name": "Flathead", "id": "30029", "FIPS": "30029", "FIPS State": 30, "ST": "MT", "County": "Flathead County,MT", "State": "Montana"}, "geometry": {"type": "Polygon", "coordinates": [[[-114.070335, 49.000239], [-113.347378, 48.310145], [-113.018762, 48.134883], [-112.9859, 47.954144], [-113.144732, 47.598142], [-113.467871, 47.598142], [-113.632179, 47.598142], [-114.010088, 48.052728], [-114.601598, 47.789835], [-115.012368, 48.019867], [-114.727567, 49.000239], [-114.070335, 49.000239]]]}}, {"type": "Feature", "properties": {"name": "Benton", "id": "41003", "FIPS": "41003", "FIPS State": 41, "ST": "OR", "County": "Benton County,OR", "State": "Oregon"}, "geometry": {"type": "Polygon", "coordinates": [[[-123.561872, 44.722749], [-123.151102, 44.722749], [-123.200394, 44.284593], [-123.775473, 44.284593], [-123.600211, 44.722749], [-123.561872, 44.722749]]]}}, {"type": "Feature", "properties": {"name": "Churchill", "id": "32001", "FIPS": "32001", "FIPS State": 32, "ST": "NV", "County": "Churchill County,NV", "State": "Nevada"}, "geometry": {"type": "Polygon", "coordinates": [[[-117.948008, 40.001626], [-117.542715, 40.001626], [-117.493422, 39.530609], [-117.772746, 39.092454], [-117.865854, 39.076023], [-118.753119, 39.076023], [-119.191274, 39.629194], [-119.224135, 40.001626], [-117.948008, 40.001626]]]}}, {"type": "Feature", "properties": {"name": "Sitka", "id": "02220", "FIPS": "02220", "FIPS State": 2, "ST": "AK", "County": "Sitka County,AK", "State": "Alaska"}, "geometry": {"type": "MultiPolygon", "coordinates": [[[[-136.372436, 57.829067], [-135.589233, 57.89479], [-134.937477, 57.763344], [-134.822462, 57.500451], [-135.572802, 57.675713], [-135.890465, 57.407343], [-136.372436, 57.829067]]], [[[-134.66363, 56.28457], [-134.669107, 56.169554], [-135.413971, 56.810356], [-135.687818, 57.369004], [-135.419448, 57.566174], [-134.849846, 57.407343], [-134.636246, 56.28457], [-134.66363, 56.28457]]]]}}, {"type": "Feature", "properties": {"name": "Ascension", "id": "22005", "FIPS": "22005", "FIPS State": 22, "ST": "LA", "County": "Ascension County,LA", "State": "Louisiana"}, "geometry": {"type": "Polygon", "coordinates": [[[-90.891923, 30.34578], [-90.634507, 30.219811], [-90.639984, 30.165041], [-90.963123, 30.066456], [-91.078139, 30.07741], [-91.105524, 30.060979], [-91.023369, 30.323872], [-90.891923, 30.34578]]]}}, {"type": "Feature", "properties": {"name": "Kennebec", "id": "23011", "FIPS": "23011", "FIPS State": 23, "ST": "ME", "County": "Kennebec County,ME", "State": "Maine"}, "geometry": {"type": "Polygon", "coordinates": [[[-69.581148, 44.706318], [-69.471609, 44.695364], [-69.504471, 44.34484], [-69.75641, 44.136716], [-70.002872, 44.125762], [-70.128842, 44.48724], [-69.931672, 44.61321], [-69.581148, 44.706318]]]}}, {"type": "Feature", "properties": {"name": "Lee", "id": "01081", "FIPS": "01081", "FIPS State": 1, "ST": "AL", "County": "Lee County,AL", "State": "Alabama"}, "geometry": {"type": "Polygon", "coordinates": [[[-85.184951, 32.74468], [-85.130182, 32.74468], [-85.080889, 32.607757], [-84.998735, 32.509172], [-85.020643, 32.509172], [-85.431413, 32.410587], [-85.694307, 32.580372], [-85.694307, 32.596803], [-85.595722, 32.728249], [-85.184951, 32.74468]]]}}, {"type": "Feature", "properties": {"name": "Coryell", "id": "48099", "FIPS": "48099", "FIPS State": 48, "ST": "TX", "County": "Coryell County,TX", "State": "Texas"}, "geometry": {"type": "Polygon", "coordinates": [[[-97.688806, 31.709538], [-97.606652, 31.589046], [-97.420436, 31.320676], [-97.907884, 31.068736], [-98.181731, 31.463076], [-97.765483, 31.6712], [-97.688806, 31.709538]]]}}, {"type": "Feature", "properties": {"name": "Hudspeth", "id": "48229", "FIPS": "48229", "FIPS State": 48, "ST": "TX", "County": "Hudspeth County,TX", "State": "Texas"}, "geometry": {"type": "Polygon", "coordinates": [[[-105.997324, 31.999816], [-104.918367, 31.999816], [-104.918367, 30.663443], [-104.98409, 30.630581], [-104.98409, 30.630581], [-105.997324, 31.386399], [-105.997324, 31.999816]]]}}, {"type": "Feature", "properties": {"name": "Albemarle", "id": "51003", "FIPS": "51003", "FIPS State": 51, "ST": "VA", "County": "Albemarle County,VA", "State": "Virginia"}, "geometry": {"type": "Polygon", "coordinates": [[[-78.371637, 38.183282], [-78.207329, 38.133989], [-78.305914, 38.00802], [-78.49213, 37.794419], [-78.645484, 37.734173], [-78.837177, 38.046358], [-78.749546, 38.20519], [-78.661915, 38.27639], [-78.371637, 38.183282]]]}}, {"type": "Feature", "properties": {"name": "Missoula", "id": "30063", "FIPS": "30063", "FIPS State": 30, "ST": "MT", "County": "Missoula County,MT", "State": "Montana"}, "geometry": {"type": "Polygon", "coordinates": [[[-113.91698, 47.499557], [-113.632179, 47.598142], [-113.467871, 47.598142], [-113.303563, 46.831371], [-113.829349, 46.661586], [-113.851257, 46.661586], [-114.333228, 46.661586], [-114.596121, 46.634201], [-114.672798, 46.738263], [-114.798768, 47.269526], [-114.18535, 47.138079], [-113.91698, 47.499557]]]}}, {"type": "Feature", "properties": {"name": "Washington", "id": "19183", "FIPS": "19183", "FIPS State": 19, "ST": "IA", "County": "Washington County,IA", "State": "Iowa"}, "geometry": {"type": "Polygon", "coordinates": [[[-91.790141, 41.513262], [-91.483432, 41.425631], [-91.483432, 41.162737], [-91.598448, 41.162737], [-91.713464, 41.162737], [-91.943495, 41.162737], [-91.943495, 41.513262], [-91.82848, 41.513262], [-91.790141, 41.513262]]]}}, {"type": "Feature", "properties": {"name": "Merrimack", "id": "33013", "FIPS": "33013", "FIPS State": 33, "ST": "NH", "County": "Merrimack County,NH", "State": "New Hampshire"}, "geometry": {"type": "Polygon", "coordinates": [[[-71.81574, 43.545207], [-71.728109, 43.561637], [-71.235184, 43.282313], [-71.246138, 43.276836], [-71.394015, 43.008466], [-71.914325, 43.205636], [-72.007433, 43.189205], [-71.936232, 43.528776], [-71.81574, 43.545207]]]}}, {"type": "Feature", "properties": {"name": "Armstrong", "id": "42005", "FIPS": "42005", "FIPS State": 42, "ST": "PA", "County": "Armstrong County,PA", "State": "Pennsylvania"}, "geometry": {"type": "Polygon", "coordinates": [[[-79.603949, 41.020337], [-79.215086, 41.053199], [-79.215086, 40.910798], [-79.450595, 40.527412], [-79.538226, 40.54932], [-79.69158, 40.669813], [-79.69158, 40.669813], [-79.69158, 41.168214], [-79.603949, 41.020337]]]}}, {"type": "Feature", "properties": {"name": "San Benito", "id": "06069", "FIPS": "06069", "FIPS State": 6, "ST": "CA", "County": "San Benito County,CA", "State": "California"}, "geometry": {"type": "Polygon", "coordinates": [[[-121.447773, 36.989309], [-121.217742, 36.961924], [-120.91651, 36.742847], [-120.681002, 36.266353], [-121.31085, 36.501861], [-121.644943, 36.896201], [-121.57922, 36.901678], [-121.447773, 36.989309]]]}}, {"type": "Feature", "properties": {"name": "Rhea", "id": "47143", "FIPS": "47143", "FIPS State": 47, "ST": "TN", "County": "Rhea County,TN", "State": "Tennessee"}, "geometry": {"type": "Polygon", "coordinates": [[[-84.768704, 35.80629], [-84.724888, 35.75152], [-85.015166, 35.41195], [-85.130182, 35.455766], [-85.135659, 35.455766], [-84.916581, 35.762474], [-84.779657, 35.822721], [-84.768704, 35.80629]]]}}, {"type": "Feature", "properties": {"name": "Woodbury", "id": "19193", "FIPS": "19193", "FIPS State": 19, "ST": "IA", "County": "Woodbury County,IA", "State": "Iowa"}, "geometry": {"type": "Polygon", "coordinates": [[[-96.50031, 42.559357], [-95.859508, 42.559357], [-95.739015, 42.559357], [-95.673292, 42.208833], [-96.133355, 42.21431], [-96.357909, 42.21431], [-96.357909, 42.274556], [-96.44554, 42.488157], [-96.50031, 42.559357]]]}}, {"type": "Feature", "properties": {"name": "Bedford", "id": "51019", "FIPS": "51019", "FIPS State": 51, "ST": "VA", "County": "Bedford County,VA", "State": "Virginia"}, "geometry": {"type": "Polygon", "coordinates": [[[-79.439641, 37.619157], [-79.187701, 37.465803], [-79.187701, 37.465803], [-79.258902, 37.356264], [-79.445118, 37.055032], [-79.592995, 37.044078], [-79.784688, 37.230294], [-79.844934, 37.224817], [-79.844934, 37.306971], [-79.499887, 37.531526], [-79.439641, 37.619157]]]}}, {"type": "Feature", "properties": {"name": "Cape May", "id": "34009", "FIPS": "34009", "FIPS State": 34, "ST": "NJ", "County": "Cape May County,NJ", "State": "New Jersey"}, "geometry": {"type": "Polygon", "coordinates": [[[-74.860918, 39.322485], [-74.548733, 39.295101], [-74.915688, 39.180085], [-74.860918, 39.322485]]]}}, {"type": "Feature", "properties": {"name": "Le Flore", "id": "40079", "FIPS": "40079", "FIPS State": 40, "ST": "OK", "County": "Le Flore County,OK", "State": "Oklahoma"}, "geometry": {"type": "Polygon", "coordinates": [[[-94.430026, 35.379088], [-94.446457, 34.935456], [-94.451934, 34.727333], [-94.462888, 34.508255], [-94.616242, 34.508255], [-94.939382, 34.508255], [-95.059875, 34.67804], [-94.928428, 35.055949], [-94.813412, 35.324319], [-94.430026, 35.379088]]]}}, {"type": "Feature", "properties": {"name": "Menard", "id": "17129", "FIPS": "17129", "FIPS State": 17, "ST": "IL", "County": "Menard County,IL", "State": "Illinois"}, "geometry": {"type": "Polygon", "coordinates": [[[-89.670565, 40.160457], [-89.599365, 40.122119], [-89.577457, 39.974241], [-89.993705, 39.903041], [-89.993705, 40.105688], [-89.670565, 40.160457]]]}}, {"type": "Feature", "properties": {"name": "Victoria", "id": "48469", "FIPS": "48469", "FIPS State": 48, "ST": "TX", "County": "Victoria County,TX", "State": "Texas"}, "geometry": {"type": "Polygon", "coordinates": [[[-96.976804, 29.102515], [-96.938465, 29.064176], [-96.64271, 28.713652], [-96.653664, 28.702698], [-96.889173, 28.505528], [-97.146589, 28.549344], [-97.16302, 28.554821], [-97.30542, 28.861529], [-96.976804, 29.102515]]]}}, {"type": "Feature", "properties": {"name": "Jackson", "id": "19097", "FIPS": "19097", "FIPS State": 19, "ST": "IA", "County": "Jackson County,IA", "State": "Iowa"}, "geometry": {"type": "Polygon", "coordinates": [[[-90.475675, 42.384095], [-90.316844, 42.192402], [-90.152536, 42.033571], [-90.366137, 42.033571], [-90.8974, 42.033571], [-90.8974, 42.296464], [-90.475675, 42.384095]]]}}, {"type": "Feature", "properties": {"name": "Jefferson", "id": "05069", "FIPS": "05069", "FIPS State": 5, "ST": "AR", "County": "Jefferson County,AR", "State": "Arkansas"}, "geometry": {"type": "Polygon", "coordinates": [[[-92.069465, 34.491824], [-92.031127, 34.491824], [-91.70251, 34.48087], [-91.445094, 34.081054], [-91.603925, 34.113915], [-91.954449, 34.064623], [-92.058511, 34.064623], [-92.233773, 34.064623], [-92.206389, 34.491824], [-92.069465, 34.491824]]]}}, {"type": "Feature", "properties": {"name": "Ingham", "id": "26065", "FIPS": "26065", "FIPS State": 26, "ST": "MI", "County": "Ingham County,MI", "State": "Michigan"}, "geometry": {"type": "Polygon", "coordinates": [[[-84.270302, 42.778435], [-84.160763, 42.778435], [-84.138855, 42.422434], [-84.598918, 42.422434], [-84.604395, 42.767481], [-84.36341, 42.778435], [-84.270302, 42.778435]]]}}, {"type": "Feature", "properties": {"name": "Yuba", "id": "06115", "FIPS": "06115", "FIPS State": 6, "ST": "CA", "County": "Yuba County,CA", "State": "California"}, "geometry": {"type": "Polygon", "coordinates": [[[-121.075341, 39.596333], [-121.009618, 39.640148], [-121.020572, 39.393686], [-121.277988, 39.032208], [-121.414912, 38.999346], [-121.623035, 39.295101], [-121.075341, 39.596333]]]}}, {"type": "Feature", "properties": {"name": "Susquehanna", "id": "42115", "FIPS": "42115", "FIPS State": 42, "ST": "PA", "County": "Susquehanna County,PA", "State": "Pennsylvania"}, "geometry": {"type": "Polygon", "coordinates": [[[-75.890583, 42.000709], [-75.48529, 42.000709], [-75.463382, 41.639231], [-75.720798, 41.644708], [-76.115138, 41.650185], [-76.147999, 42.000709], [-76.104184, 42.000709], [-75.890583, 42.000709]]]}}, {"type": "Feature", "properties": {"name": "Union", "id": "37179", "FIPS": "37179", "FIPS State": 37, "ST": "NC", "County": "Union County,NC", "State": "North Carolina"}, "geometry": {"type": "Polygon", "coordinates": [[[-80.55146, 35.209303], [-80.507644, 35.187396], [-80.277612, 35.198349], [-80.321428, 34.814964], [-80.562413, 34.814964], [-80.841737, 35.00118], [-80.55146, 35.209303]]]}}, {"type": "Feature", "properties": {"name": "Swain", "id": "37173", "FIPS": "37173", "FIPS State": 37, "ST": "NC", "County": "Swain County,NC", "State": "North Carolina"}, "geometry": {"type": "Polygon", "coordinates": [[[-83.662362, 35.570781], [-83.257068, 35.696751], [-83.185868, 35.516012], [-83.207776, 35.516012], [-83.339222, 35.329796], [-83.678792, 35.280503], [-83.952639, 35.461243], [-83.662362, 35.570781]]]}}, {"type": "Feature", "properties": {"name": "Bay", "id": "26017", "FIPS": "26017", "FIPS State": 26, "ST": "MI", "County": "Bay County,MI", "State": "Michigan"}, "geometry": {"type": "Polygon", "coordinates": [[[-84.105994, 43.999793], [-83.908824, 43.912162], [-83.7007, 43.594499], [-83.7007, 43.479483], [-84.138855, 43.567114], [-84.16624, 43.567114], [-84.16624, 43.82453], [-84.16624, 43.994316], [-84.105994, 43.999793]]]}}, {"type": "Feature", "properties": {"name": "Whitman", "id": "53075", "FIPS": "53075", "FIPS State": 53, "ST": "WA", "County": "Whitman County,WA", "State": "Washington"}, "geometry": {"type": "Polygon", "coordinates": [[[-117.822039, 47.258572], [-117.038836, 47.258572], [-117.038836, 47.127126], [-117.038836, 46.541093], [-117.038836, 46.426077], [-117.230529, 46.464416], [-117.849423, 46.623247], [-118.216378, 46.590385], [-118.210901, 46.738263], [-117.958962, 47.258572], [-117.822039, 47.258572]]]}}, {"type": "Feature", "properties": {"name": "Peoria", "id": "17143", "FIPS": "17143", "FIPS State": 17, "ST": "IL", "County": "Peoria County,IL", "State": "Illinois"}, "geometry": {"type": "Polygon", "coordinates": [[[-89.96632, 40.976521], [-89.637704, 40.976521], [-89.473395, 40.921752], [-89.555549, 40.74649], [-89.873212, 40.510982], [-89.988228, 40.713628], [-89.988228, 40.976521], [-89.96632, 40.976521]]]}}, {"type": "Feature", "properties": {"name": "Orleans", "id": "22071", "FIPS": "22071", "FIPS State": 22, "ST": "LA", "County": "Orleans County,LA", "State": "Louisiana"}, "geometry": {"type": "Polygon", "coordinates": [[[-89.900597, 30.192426], [-89.62675, 30.14861], [-89.856781, 30.00621], [-89.862258, 30.000733], [-89.911551, 29.869286], [-89.988228, 29.907625], [-90.010136, 29.896671], [-90.103244, 30.192426], [-89.900597, 30.192426]]]}}, {"type": "Feature", "properties": {"name": "Orange", "id": "48361", "FIPS": "48361", "FIPS State": 48, "ST": "TX", "County": "Orange County,TX", "State": "Texas"}, "geometry": {"type": "Polygon", "coordinates": [[[-93.70707, 30.247195], [-93.723501, 30.050025], [-93.854948, 29.863809], [-94.117841, 30.159564], [-94.117841, 30.241718], [-93.898763, 30.241718], [-93.70707, 30.247195]]]}}, {"type": "Feature", "properties": {"name": "Madison", "id": "18095", "FIPS": "18095", "FIPS State": 18, "ST": "IN", "County": "Madison County,IN", "State": "Indiana"}, "geometry": {"type": "Polygon", "coordinates": [[[-85.672399, 40.379535], [-85.579291, 40.379535], [-85.573814, 40.078303], [-85.573814, 39.946857], [-85.617629, 39.946857], [-85.864092, 39.94138], [-85.864092, 40.220704], [-85.864092, 40.379535], [-85.672399, 40.379535]]]}}, {"type": "Feature", "properties": {"name": "Madison", "id": "28089", "FIPS": "28089", "FIPS State": 28, "ST": "MS", "County": "Madison County,MS", "State": "Mississippi"}, "geometry": {"type": "Polygon", "coordinates": [[[-89.96632, 32.881604], [-89.730812, 32.887081], [-89.730812, 32.635141], [-89.785581, 32.585849], [-90.03752, 32.448925], [-90.064905, 32.399633], [-90.448291, 32.574895], [-89.96632, 32.881604]]]}}, {"type": "Feature", "properties": {"name": "Daviess", "id": "21059", "FIPS": "21059", "FIPS State": 21, "ST": "KY", "County": "Daviess County,KY", "State": "Kentucky"}, "geometry": {"type": "Polygon", "coordinates": [[[-87.266188, 37.876573], [-86.981388, 37.931343], [-86.822556, 37.73965], [-87.036157, 37.558911], [-87.408589, 37.68488], [-87.304527, 37.898481], [-87.266188, 37.876573]]]}}]}