{"type": "FeatureCollection", "crs": {"type": "name", "properties": {"name": "urn:ogc:def:crs:OGC:1.3:CRS84"}}, "features": [{"type": "Feature", "properties": {"name": "Linn", "id": "41043", "FIPS": "41043", "FIPS State": 41, "ST": "OR", "County": "Linn County,OR", "State": "Oregon"}, "geometry": {"type": "Polygon", "coordinates": [[[-122.658177, 44.777518], [-121.79282, 44.68441], [-121.842113, 44.394132], [-121.798297, 44.257209], [-123.200394, 44.284593], [-123.151102, 44.722749], [-123.145625, 44.750133], [-122.658177, 44.777518]]]}}, {"type": "Feature", "properties": {"name": "Napa", "id": "06055", "FIPS": "06055", "FIPS State": 6, "ST": "CA", "County": "Napa County,CA", "State": "California"}, "geometry": {"type": "Polygon", "coordinates": [[[-122.395284, 38.862422], [-122.105006, 38.511898], [-122.406238, 38.155897], [-122.625315, 38.665253], [-122.395284, 38.862422]]]}}, {"type": "Feature", "properties": {"name": "Hernando", "id": "12053", "FIPS": "12053", "FIPS State": 12, "ST": "FL", "County": "Hernando County,FL", "State": "Florida"}, "geometry": {"type": "Polygon", "coordinates": [[[-82.265742, 28.669836], [-82.057618, 28.478144], [-82.254788, 28.478144], [-82.676512, 28.434328], [-82.649128, 28.691744], [-82.265742, 28.669836]]]}}, {"type": "Feature", "properties": {"name": "Goodhue", "id": "27049", "FIPS": "27049", "FIPS State": 27, "ST": "MN", "County": "Goodhue County,MN", "State": "Minnesota"}, "geometry": {"type": "Polygon", "coordinates": [[[-92.732175, 44.711795], [-92.315927, 44.54201], [-92.244727, 44.454379], [-92.430943, 44.454379], [-92.551436, 44.196962], [-92.666452, 44.196962], [-92.677405, 44.196962], [-92.918391, 44.196962], [-93.038884, 44.196962], [-93.038884, 44.470809], [-92.732175, 44.711795]]]}}, {"type": "Feature", "properties": {"name": "Brown", "id": "48049", "FIPS": "48049", "FIPS State": 48, "ST": "TX", "County": "Brown County,TX", "State": "Texas"}, "geometry": {"type": "Polygon", "coordinates": [[[-99.118287, 32.08197], [-98.926594, 32.076493], [-98.669178, 31.698584], [-98.992318, 31.484984], [-99.090903, 31.463076], [-99.200441, 31.468553], [-99.194965, 32.08197], [-99.118287, 32.08197]]]}}, {"type": "Feature", "properties": {"name": "Cecil", "id": "24015", "FIPS": "24015", "FIPS State": 24, "ST": "MD", "County": "Cecil County,MD", "State": "Maryland"}, "geometry": {"type": "Polygon", "coordinates": [[[-75.808429, 39.722302], [-75.786521, 39.722302], [-75.764614, 39.377255], [-76.000122, 39.377255], [-76.076799, 39.541563], [-76.235631, 39.722302], [-76.137046, 39.722302], [-75.808429, 39.722302]]]}}, {"type": "Feature", "properties": {"name": "Westmoreland", "id": "42129", "FIPS": "42129", "FIPS State": 42, "ST": "PA", "County": "Westmoreland County,PA", "State": "Pennsylvania"}, "geometry": {"type": "Polygon", "coordinates": [[[-79.538226, 40.54932], [-79.450595, 40.527412], [-78.974101, 40.395966], [-79.056255, 40.286427], [-79.291763, 40.039965], [-79.499887, 40.13855], [-79.877796, 40.127596], [-79.872319, 40.198796], [-79.69158, 40.669813], [-79.538226, 40.54932]]]}}, {"type": "Feature", "properties": {"name": "Campbell", "id": "21037", "FIPS": "21037", "FIPS State": 21, "ST": "KY", "County": "Campbell County,KY", "State": "Kentucky"}, "geometry": {"type": "Polygon", "coordinates": [[[-84.319594, 39.021254], [-84.231963, 38.873376], [-84.418179, 38.807653], [-84.50581, 39.092454], [-84.319594, 39.021254]]]}}, {"type": "Feature", "properties": {"name": "Calhoun", "id": "01015", "FIPS": "01015", "FIPS State": 1, "ST": "AL", "County": "Calhoun County,AL", "State": "Alabama"}, "geometry": {"type": "Polygon", "coordinates": [[[-85.738122, 33.966038], [-85.529998, 33.94413], [-85.798368, 33.555267], [-86.143416, 33.681237], [-86.066738, 33.840068], [-85.738122, 33.966038]]]}}, {"type": "Feature", "properties": {"name": "Cumberland", "id": "21057", "FIPS": "21057", "FIPS State": 21, "ST": "KY", "County": "Cumberland County,KY", "State": "Kentucky"}, "geometry": {"type": "Polygon", "coordinates": [[[-85.447844, 36.940016], [-85.234244, 36.923586], [-85.217813, 36.852385], [-85.29449, 36.627831], [-85.43689, 36.616877], [-85.595722, 36.819524], [-85.453321, 36.940016], [-85.447844, 36.940016]]]}}, {"type": "Feature", "properties": {"name": "Meriwether", "id": "13199", "FIPS": "13199", "FIPS State": 13, "ST": "GA", "County": "Meriwether County,GA", "State": "Georgia"}, "geometry": {"type": "Polygon", "coordinates": [[[-84.861812, 33.193789], [-84.500334, 33.221174], [-84.494857, 33.182835], [-84.527718, 32.969235], [-84.50581, 32.881604], [-84.70298, 32.843265], [-84.861812, 32.87065], [-84.861812, 32.87065], [-84.861812, 33.193789]]]}}, {"type": "Feature", "properties": {"name": "Ulster", "id": "36111", "FIPS": "36111", "FIPS State": 36, "ST": "NY", "County": "Ulster County,NY", "State": "New York"}, "geometry": {"type": "Polygon", "coordinates": [[[-74.01747, 42.159541], [-73.913408, 42.126679], [-73.929839, 42.077386], [-73.951746, 41.589939], [-74.263932, 41.633754], [-74.367994, 41.589939], [-74.778764, 42.01714], [-74.450148, 42.170494], [-74.01747, 42.159541]]]}}, {"type": "Feature", "properties": {"name": "Sullivan", "id": "47163", "FIPS": "47163", "FIPS State": 47, "ST": "TN", "County": "Sullivan County,TN", "State": "Tennessee"}, "geometry": {"type": "Polygon", "coordinates": [[[-81.827587, 36.616877], [-81.986418, 36.507338], [-82.298603, 36.397799], [-82.473866, 36.441615], [-82.681989, 36.430661], [-82.610789, 36.594969], [-82.293127, 36.594969], [-82.243834, 36.594969], [-82.145249, 36.594969], [-81.827587, 36.616877]]]}}, {"type": "Feature", "properties": {"name": "Bell", "id": "48027", "FIPS": "48027", "FIPS State": 48, "ST": "TX", "County": "Bell County,TX", "State": "Texas"}, "geometry": {"type": "Polygon", "coordinates": [[[-97.404005, 31.304245], [-97.278035, 31.282337], [-97.069912, 30.986582], [-97.316374, 30.751074], [-97.831206, 30.904428], [-97.91336, 31.035875], [-97.907884, 31.068736], [-97.420436, 31.320676], [-97.404005, 31.304245]]]}}, {"type": "Feature", "properties": {"name": "Grand", "id": "49019", "FIPS": "49019", "FIPS State": 49, "ST": "UT", "County": "Grand County,UT", "State": "Utah"}, "geometry": {"type": "Polygon", "coordinates": [[[-109.053457, 39.497748], [-109.053457, 39.366301], [-109.058934, 38.500944], [-110.022876, 38.500944], [-110.022876, 39.459409], [-109.053457, 39.497748]]]}}, {"type": "Feature", "properties": {"name": "Macon", "id": "13193", "FIPS": "13193", "FIPS State": 13, "ST": "GA", "County": "Macon County,GA", "State": "Georgia"}, "geometry": {"type": "MultiPolygon", "coordinates": [[[[-84.001932, 32.531079], [-84.007409, 32.520126], [-84.051224, 32.520126], [-84.051224, 32.520126], [-84.001932, 32.531079]]], [[[-84.018363, 32.503695], [-83.848578, 32.465356], [-83.848578, 32.290094], [-84.029317, 32.169601], [-84.182671, 32.229848], [-84.253871, 32.372248], [-84.051224, 32.520126], [-84.018363, 32.503695]]]]}}, {"type": "Feature", "properties": {"name": "Caroline", "id": "51033", "FIPS": "51033", "FIPS State": 51, "ST": "VA", "County": "Caroline County,VA", "State": "Virginia"}, "geometry": {"type": "Polygon", "coordinates": [[[-77.325542, 38.243528], [-77.117418, 38.15042], [-77.068125, 37.964204], [-77.073602, 37.964204], [-77.183141, 37.893004], [-77.347449, 37.788942], [-77.643204, 37.991589], [-77.369357, 38.249005], [-77.325542, 38.243528]]]}}, {"type": "Feature", "properties": {"name": "Clayton", "id": "13063", "FIPS": "13063", "FIPS State": 13, "ST": "GA", "County": "Clayton County,GA", "State": "Georgia"}, "geometry": {"type": "Polygon", "coordinates": [[[-84.352456, 33.648375], [-84.281256, 33.648375], [-84.352456, 33.35262], [-84.368887, 33.35262], [-84.385318, 33.35262], [-84.451041, 33.54979], [-84.456518, 33.54979], [-84.352456, 33.648375]]]}}, {"type": "Feature", "properties": {"name": "Yuma", "id": "04027", "FIPS": "04027", "FIPS State": 4, "ST": "AZ", "County": "Yuma County,AZ", "State": "Arizona"}, "geometry": {"type": "Polygon", "coordinates": [[[-113.993657, 33.462159], [-113.336425, 33.380005], [-113.336425, 32.503695], [-113.336425, 32.038155], [-114.815198, 32.492741], [-114.72209, 32.717295], [-114.513967, 33.029481], [-113.993657, 33.462159]]]}}, {"type": "Feature", "properties": {"name": "Jefferson", "id": "21111", "FIPS": "21111", "FIPS State": 21, "ST": "KY", "County": "Jefferson County,KY", "State": "Kentucky"}, "geometry": {"type": "Polygon", "coordinates": [[[-85.639537, 38.380452], [-85.469752, 38.287344], [-85.425936, 38.144943], [-85.431413, 38.117559], [-85.699783, 38.084697], [-85.940769, 37.997066], [-85.946246, 38.00802], [-85.90243, 38.177805], [-85.792891, 38.287344], [-85.639537, 38.380452]]]}}, {"type": "Feature", "properties": {"name": "Cleveland", "id": "40027", "FIPS": "40027", "FIPS State": 40, "ST": "OK", "County": "Cleveland County,OK", "State": "Oklahoma"}, "geometry": {"type": "Polygon", "coordinates": [[[-97.425913, 35.379088], [-97.141112, 35.379088], [-97.141112, 34.929979], [-97.672375, 35.335273], [-97.672375, 35.379088], [-97.425913, 35.379088]]]}}, {"type": "Feature", "properties": {"name": "Fairbanks North Star", "id": "02090", "FIPS": "02090", "FIPS State": 2, "ST": "AK", "County": "Fairbanks North Star County,AK", "State": "Alaska"}, "geometry": {"type": "Polygon", "coordinates": [[[-146.696468, 65.321521], [-146.19259, 65.452968], [-145.644896, 65.031244], [-143.886798, 65.09149], [-144.06206, 64.680719], [-146.236405, 64.308287], [-147.003177, 64.258995], [-147.99998, 64.341149], [-148.646259, 64.604042], [-148.66269, 65.211983], [-146.696468, 65.321521]]]}}, {"type": "Feature", "properties": {"name": "Camden", "id": "13039", "FIPS": "13039", "FIPS State": 13, "ST": "GA", "County": "Camden County,GA", "State": "Georgia"}, "geometry": {"type": "Polygon", "coordinates": [[[-81.76734, 31.167321], [-81.444201, 31.013967], [-81.444201, 30.707258], [-81.904264, 30.816797], [-81.937125, 31.046829], [-81.76734, 31.167321]]]}}, {"type": "Feature", "properties": {"name": "Wayne", "id": "36117", "FIPS": "36117", "FIPS State": 36, "ST": "NY", "County": "Wayne County,NY", "State": "New York"}, "geometry": {"type": "Polygon", "coordinates": [[[-76.723078, 43.34256], [-76.712124, 43.024897], [-76.964064, 43.013943], [-77.122895, 43.013943], [-77.369357, 43.035851], [-77.374834, 43.276836], [-76.723078, 43.34256]]]}}, {"type": "Feature", "properties": {"name": "Gladwin", "id": "26051", "FIPS": "26051", "FIPS State": 26, "ST": "MI", "County": "Gladwin County,MI", "State": "Michigan"}, "geometry": {"type": "Polygon", "coordinates": [[[-84.248394, 44.164101], [-84.16624, 44.164101], [-84.16624, 43.994316], [-84.16624, 43.82453], [-84.368887, 43.830007], [-84.604395, 43.813577], [-84.609872, 44.158624], [-84.368887, 44.158624], [-84.248394, 44.164101]]]}}, {"type": "Feature", "properties": {"name": "Monroe", "id": "18105", "FIPS": "18105", "FIPS State": 18, "ST": "IN", "County": "Monroe County,IN", "State": "Indiana"}, "geometry": {"type": "Polygon", "coordinates": [[[-86.630863, 39.34987], [-86.378924, 39.338916], [-86.318678, 39.048638], [-86.318678, 38.988392], [-86.680156, 38.993869], [-86.685633, 39.163654], [-86.630863, 39.34987]]]}}, {"type": "Feature", "properties": {"name": "Blount", "id": "47009", "FIPS": "47009", "FIPS State": 47, "ST": "TN", "County": "Blount County,TN", "State": "Tennessee"}, "geometry": {"type": "Polygon", "coordinates": [[[-83.793808, 35.888444], [-83.662362, 35.570781], [-83.952639, 35.461243], [-83.963593, 35.461243], [-84.188148, 35.60912], [-84.16624, 35.80629], [-83.793808, 35.888444]]]}}, {"type": "Feature", "properties": {"name": "Bartow", "id": "13015", "FIPS": "13015", "FIPS State": 13, "ST": "GA", "County": "Bartow County,GA", "State": "Georgia"}, "geometry": {"type": "Polygon", "coordinates": [[[-84.933012, 34.398716], [-84.653688, 34.415147], [-84.659165, 34.075577], [-84.735842, 34.081054], [-84.922058, 34.081054], [-85.048028, 34.097484], [-85.004212, 34.393239], [-84.933012, 34.398716]]]}}, {"type": "Feature", "properties": {"name": "Knox", "id": "47093", "FIPS": "47093", "FIPS State": 47, "ST": "TN", "County": "Knox County,TN", "State": "Tennessee"}, "geometry": {"type": "Polygon", "coordinates": [[[-83.925255, 36.173245], [-83.733562, 36.162291], [-83.667839, 36.080137], [-83.673316, 36.036321], [-83.678792, 36.030844], [-83.793808, 35.888444], [-84.16624, 35.80629], [-84.264825, 35.899398], [-84.270302, 35.910352], [-83.941686, 36.184199], [-83.925255, 36.173245]]]}}, {"type": "Feature", "properties": {"name": "Yavapai", "id": "04025", "FIPS": "04025", "FIPS State": 4, "ST": "AZ", "County": "Yavapai County,AZ", "State": "Arizona"}, "geometry": {"type": "Polygon", "coordinates": [[[-113.336425, 35.526966], [-112.438206, 35.258596], [-112.334144, 34.973795], [-111.775497, 34.979272], [-111.556419, 34.469916], [-111.496173, 33.998899], [-112.273898, 33.883884], [-113.336425, 33.998899], [-113.330948, 34.316562], [-113.336425, 35.526966]]]}}, {"type": "Feature", "properties": {"name": "Herkimer", "id": "36043", "FIPS": "36043", "FIPS State": 36, "ST": "NY", "County": "Herkimer County,NY", "State": "New York"}, "geometry": {"type": "Polygon", "coordinates": [[[-75.167627, 44.098377], [-74.855442, 44.070993], [-74.713041, 43.28779], [-74.762334, 43.046805], [-74.762334, 42.860589], [-75.096427, 42.904404], [-75.211443, 42.882497], [-75.112858, 43.616407], [-75.167627, 44.098377]]]}}, {"type": "Feature", "properties": {"name": "Northampton", "id": "42095", "FIPS": "42095", "FIPS State": 42, "ST": "PA", "County": "Northampton County,PA", "State": "Pennsylvania"}, "geometry": {"type": "Polygon", "coordinates": [[[-75.118335, 40.965568], [-75.195012, 40.609566], [-75.331935, 40.538366], [-75.611259, 40.784829], [-75.474336, 40.812213], [-75.118335, 40.965568]]]}}, {"type": "Feature", "properties": {"name": "Tulsa", "id": "40143", "FIPS": "40143", "FIPS State": 40, "ST": "OK", "County": "Tulsa County,OK", "State": "Oklahoma"}, "geometry": {"type": "Polygon", "coordinates": [[[-95.919754, 36.425184], [-95.810215, 36.425184], [-95.760923, 36.162291], [-95.821169, 35.855582], [-96.03477, 35.855582], [-96.297663, 36.162291], [-96.270278, 36.162291], [-96.001908, 36.425184], [-95.919754, 36.425184]]]}}, {"type": "Feature", "properties": {"name": "Bullitt", "id": "21029", "FIPS": "21029", "FIPS State": 21, "ST": "KY", "County": "Bullitt County,KY", "State": "Kentucky"}, "geometry": {"type": "Polygon", "coordinates": [[[-85.699783, 38.084697], [-85.431413, 38.117559], [-85.49166, 37.991589], [-85.497137, 37.986112], [-85.738122, 37.81085], [-85.940769, 37.997066], [-85.699783, 38.084697]]]}}, {"type": "Feature", "properties": {"name": "Grand Traverse", "id": "26055", "FIPS": "26055", "FIPS State": 26, "ST": "MI", "County": "Grand Traverse County,MI", "State": "Michigan"}, "geometry": {"type": "Polygon", "coordinates": [[[-85.42046, 44.859672], [-85.332828, 44.81038], [-85.332828, 44.514625], [-85.694307, 44.514625], [-85.814799, 44.514625], [-85.814799, 44.772041], [-85.639537, 44.777518], [-85.442367, 44.859672], [-85.42046, 44.859672]]]}}, {"type": "Feature", "properties": {"name": "Craven", "id": "37049", "FIPS": "37049", "FIPS State": 37, "ST": "NC", "County": "Craven County,NC", "State": "North Carolina"}, "geometry": {"type": "Polygon", "coordinates": [[[-77.188618, 35.417427], [-76.89834, 35.253119], [-76.712124, 34.979272], [-77.090033, 34.80401], [-77.473419, 35.231211], [-77.391265, 35.34075], [-77.188618, 35.417427]]]}}, {"type": "Feature", "properties": {"name": "Richmond", "id": "13245", "FIPS": "13245", "FIPS State": 13, "ST": "GA", "County": "Richmond County,GA", "State": "Georgia"}, "geometry": {"type": "Polygon", "coordinates": [[[-82.030233, 33.544313], [-82.013803, 33.53336], [-81.849494, 33.248559], [-82.189065, 33.292374], [-82.265742, 33.264989], [-82.353373, 33.314282], [-82.293127, 33.35262], [-82.030233, 33.544313]]]}}, {"type": "Feature", "properties": {"name": "Waller", "id": "48473", "FIPS": "48473", "FIPS State": 48, "ST": "TX", "County": "Waller County,TX", "State": "Texas"}, "geometry": {"type": "Polygon", "coordinates": [[[-95.821169, 30.247195], [-95.804738, 30.247195], [-95.804738, 30.088364], [-95.826646, 29.787132], [-95.826646, 29.787132], [-96.03477, 29.726886], [-96.144309, 30.071933], [-96.095016, 30.225288], [-95.821169, 30.247195]]]}}, {"type": "Feature", "properties": {"name": "Weld", "id": "08123", "FIPS": "08123", "FIPS State": 8, "ST": "CO", "County": "Weld County,CO", "State": "Colorado"}, "geometry": {"type": "Polygon", "coordinates": [[[-103.576517, 41.003906], [-103.581994, 40.521935], [-104.091349, 40.521935], [-104.151596, 40.001626], [-105.055291, 40.001626], [-105.055291, 40.264519], [-104.945752, 40.998429], [-104.053011, 41.003906], [-103.576517, 41.003906]]]}}, {"type": "Feature", "properties": {"name": "Whitley", "id": "21235", "FIPS": "21235", "FIPS State": 21, "ST": "KY", "County": "Whitley County,KY", "State": "Kentucky"}, "geometry": {"type": "Polygon", "coordinates": [[[-84.122425, 36.967401], [-84.089563, 36.956447], [-83.875962, 36.688077], [-83.930732, 36.589492], [-83.985501, 36.589492], [-84.226487, 36.589492], [-84.297687, 36.945493], [-84.122425, 36.967401]]]}}, {"type": "Feature", "properties": {"name": "Adams", "id": "42001", "FIPS": "42001", "FIPS State": 42, "ST": "PA", "County": "Adams County,PA", "State": "Pennsylvania"}, "geometry": {"type": "Polygon", "coordinates": [[[-77.139326, 40.067349], [-76.996925, 39.722302], [-77.216003, 39.722302], [-77.456988, 39.722302], [-77.473419, 39.946857], [-77.139326, 40.067349]]]}}, {"type": "Feature", "properties": {"name": "Wyandotte", "id": "20209", "FIPS": "20209", "FIPS State": 20, "ST": "KS", "County": "Wyandotte County,KS", "State": "Kansas"}, "geometry": {"type": "Polygon", "coordinates": [[[-94.862705, 39.201993], [-94.775074, 39.201993], [-94.599812, 39.158177], [-94.605288, 39.114362], [-94.605288, 39.043162], [-94.90652, 38.988392], [-94.862705, 39.201993]]]}}, {"type": "Feature", "properties": {"name": "Orange", "id": "36071", "FIPS": "36071", "FIPS State": 36, "ST": "NY", "County": "Orange County,NY", "State": "New York"}, "geometry": {"type": "Polygon", "coordinates": [[[-74.263932, 41.633754], [-73.951746, 41.589939], [-73.979131, 41.436584], [-73.979131, 41.327046], [-74.236547, 41.14083], [-74.367994, 41.201076], [-74.69661, 41.359907], [-74.756857, 41.425631], [-74.367994, 41.589939], [-74.263932, 41.633754]]]}}, {"type": "Feature", "properties": {"name": "Kanawha", "id": "54039", "FIPS": "54039", "FIPS State": 54, "ST": "WV", "County": "Kanawha County,WV", "State": "West Virginia"}, "geometry": {"type": "Polygon", "coordinates": [[[-81.69614, 38.626914], [-81.69614, 38.626914], [-81.520878, 38.610483], [-81.192262, 38.528329], [-81.2306, 38.265436], [-81.2306, 38.265436], [-81.378478, 37.969681], [-81.455155, 37.986112], [-81.756386, 38.20519], [-81.833064, 38.210667], [-81.915218, 38.325682], [-81.69614, 38.626914]]]}}]}