{"type": "FeatureCollection", "crs": {"type": "name", "properties": {"name": "urn:ogc:def:crs:OGC:1.3:CRS84"}}, "features": [{"type": "Feature", "properties": {"name": "New Castle", "id": "10003", "FIPS": "10003", "FIPS State": 10, "ST": "DE", "County": "New Castle County,DE", "State": "Delaware"}, "geometry": {"type": "Polygon", "coordinates": [[[-75.414089, 39.804456], [-75.446951, 39.771595], [-75.507197, 39.683964], [-75.512674, 39.366301], [-75.616736, 39.311532], [-75.759137, 39.295101], [-75.764614, 39.377255], [-75.786521, 39.722302], [-75.594828, 39.837318], [-75.594828, 39.837318], [-75.578398, 39.837318], [-75.414089, 39.804456]]]}}, {"type": "Feature", "properties": {"name": "Choctaw", "id": "28019", "FIPS": "28019", "FIPS State": 28, "ST": "MS", "County": "Choctaw County,MS", "State": "Mississippi"}, "geometry": {"type": "Polygon", "coordinates": [[[-89.139302, 33.53336], [-89.09001, 33.53336], [-89.09001, 33.286897], [-89.320041, 33.106158], [-89.396718, 33.286897], [-89.451488, 33.286897], [-89.380287, 33.462159], [-89.139302, 33.53336]]]}}, {"type": "Feature", "properties": {"name": "Polk", "id": "12105", "FIPS": "12105", "FIPS State": 12, "ST": "FL", "County": "Polk County,FL", "State": "Florida"}, "geometry": {"type": "Polygon", "coordinates": [[[-81.657801, 28.346697], [-81.142969, 27.645649], [-81.49897, 27.645649], [-81.564693, 27.645649], [-82.052141, 27.645649], [-82.106911, 28.171435], [-82.057618, 28.313835], [-81.959033, 28.346697], [-81.657801, 28.346697]]]}}, {"type": "Feature", "properties": {"name": "Sarasota", "id": "12115", "FIPS": "12115", "FIPS State": 12, "ST": "FL", "County": "Sarasota County,FL", "State": "Florida"}, "geometry": {"type": "Polygon", "coordinates": [[[-82.62722, 27.388232], [-82.057618, 27.207493], [-82.057618, 27.032231], [-82.375281, 26.9446], [-82.643651, 27.388232], [-82.62722, 27.388232]]]}}, {"type": "Feature", "properties": {"name": "Howard", "id": "24027", "FIPS": "24027", "FIPS State": 24, "ST": "MD", "County": "Howard County,MD", "State": "Maryland"}, "geometry": {"type": "Polygon", "coordinates": [[[-77.079079, 39.366301], [-76.881909, 39.34987], [-76.695693, 39.212947], [-76.838094, 39.103408], [-76.887386, 39.130793], [-77.16671, 39.355347], [-77.16671, 39.355347], [-77.079079, 39.366301]]]}}, {"type": "Feature", "properties": {"name": "Osceola", "id": "12097", "FIPS": "12097", "FIPS State": 12, "ST": "FL", "County": "Osceola County,FL", "State": "Florida"}, "geometry": {"type": "Polygon", "coordinates": [[[-81.2306, 28.346697], [-80.863645, 28.346697], [-80.869122, 27.820911], [-80.874599, 27.640172], [-81.142969, 27.645649], [-81.657801, 28.346697], [-81.2306, 28.346697]]]}}, {"type": "Feature", "properties": {"name": "Ward", "id": "38101", "FIPS": "38101", "FIPS State": 38, "ST": "ND", "County": "Ward County,ND", "State": "North Dakota"}, "geometry": {"type": "Polygon", "coordinates": [[[-102.152512, 48.808546], [-102.021066, 48.808546], [-101.840327, 48.458022], [-101.062601, 48.458022], [-100.969493, 47.850082], [-101.873188, 47.850082], [-101.971773, 48.545653], [-102.234666, 48.545653], [-102.152512, 48.808546]]]}}, {"type": "Feature", "properties": {"name": "Guilford", "id": "37081", "FIPS": "37081", "FIPS State": 37, "ST": "NC", "County": "Guilford County,NC", "State": "North Carolina"}, "geometry": {"type": "Polygon", "coordinates": [[[-80.036627, 36.255399], [-80.036627, 36.255399], [-79.532749, 36.238968], [-79.543702, 35.899398], [-80.036627, 35.921306], [-80.047581, 35.921306], [-80.042104, 36.008937], [-80.036627, 36.255399]]]}}, {"type": "Feature", "properties": {"name": "Utah", "id": "49049", "FIPS": "49049", "FIPS State": 49, "ST": "UT", "County": "Utah County,UT", "State": "Utah"}, "geometry": {"type": "Polygon", "coordinates": [[[-111.594758, 40.576705], [-111.594758, 40.576705], [-110.893709, 39.897564], [-110.855371, 39.81541], [-111.014202, 39.81541], [-111.24971, 39.81541], [-111.556419, 39.81541], [-111.64405, 39.81541], [-112.18079, 40.01258], [-112.175313, 40.467166], [-111.594758, 40.576705]]]}}, {"type": "Feature", "properties": {"name": "Lake", "id": "17097", "FIPS": "17097", "FIPS State": 17, "ST": "IL", "County": "Lake County,IL", "State": "Illinois"}, "geometry": {"type": "Polygon", "coordinates": [[[-88.202745, 42.493634], [-87.802929, 42.493634], [-87.759113, 42.154064], [-88.120591, 42.154064], [-88.197268, 42.154064], [-88.202745, 42.493634]]]}}, {"type": "Feature", "properties": {"name": "Ramsey", "id": "27123", "FIPS": "27123", "FIPS State": 27, "ST": "MN", "County": "Ramsey County,MN", "State": "Minnesota"}, "geometry": {"type": "Polygon", "coordinates": [[[-93.230576, 45.122565], [-93.022453, 45.122565], [-93.016976, 44.892534], [-93.088176, 44.919919], [-93.175807, 44.887057], [-93.2251, 45.034934], [-93.230576, 45.122565]]]}}, {"type": "Feature", "properties": {"name": "Richland", "id": "39139", "FIPS": "39139", "FIPS State": 39, "ST": "OH", "County": "Richland County,OH", "State": "Ohio"}, "geometry": {"type": "Polygon", "coordinates": [[[-82.687466, 40.992952], [-82.435527, 40.992952], [-82.336942, 40.554797], [-82.621743, 40.54932], [-82.725805, 40.713628], [-82.725805, 40.998429], [-82.687466, 40.992952]]]}}, {"type": "Feature", "properties": {"name": "Fulton", "id": "13121", "FIPS": "13121", "FIPS State": 13, "ST": "GA", "County": "Fulton County,GA", "State": "Georgia"}, "geometry": {"type": "Polygon", "coordinates": [[[-84.407226, 34.108438], [-84.259348, 34.185115], [-84.09504, 34.048192], [-84.275779, 33.955084], [-84.352456, 33.648375], [-84.456518, 33.54979], [-84.609872, 33.500498], [-84.681073, 33.511452], [-84.850858, 33.511452], [-84.807042, 33.571698], [-84.577011, 33.741483], [-84.418179, 34.075577], [-84.407226, 34.108438]]]}}, {"type": "Feature", "properties": {"name": "Stark", "id": "39151", "FIPS": "39151", "FIPS State": 39, "ST": "OH", "County": "Stark County,OH", "State": "Ohio"}, "geometry": {"type": "Polygon", "coordinates": [[[-81.394908, 40.987475], [-81.0882, 40.987475], [-81.0882, 40.905321], [-81.0882, 40.730059], [-81.121061, 40.730059], [-81.318231, 40.653382], [-81.42777, 40.653382], [-81.652325, 40.636951], [-81.652325, 40.669813], [-81.646848, 40.916275], [-81.394908, 40.987475]]]}}, {"type": "Feature", "properties": {"name": "Fort Bend", "id": "48157", "FIPS": "48157", "FIPS State": 48, "ST": "TX", "County": "Fort Bend County,TX", "State": "Texas"}, "geometry": {"type": "Polygon", "coordinates": [[[-95.826646, 29.787132], [-95.826646, 29.787132], [-95.42683, 29.579009], [-95.848554, 29.261346], [-96.089539, 29.600916], [-96.03477, 29.726886], [-95.826646, 29.787132]]]}}, {"type": "Feature", "properties": {"name": "Wake", "id": "37183", "FIPS": "37183", "FIPS State": 37, "ST": "NC", "County": "Wake County,NC", "State": "North Carolina"}, "geometry": {"type": "Polygon", "coordinates": [[[-78.749546, 36.069183], [-78.546899, 36.01989], [-78.256622, 35.817244], [-78.711208, 35.521489], [-78.913854, 35.581735], [-78.908377, 35.866536], [-78.749546, 36.069183]]]}}, {"type": "Feature", "properties": {"name": "Worcester", "id": "25027", "FIPS": "25027", "FIPS State": 25, "ST": "MA", "County": "Worcester County,MA", "State": "Massachusetts"}, "geometry": {"type": "Polygon", "coordinates": [[[-72.28128, 42.723665], [-71.930755, 42.712712], [-71.897894, 42.712712], [-71.476169, 42.154064], [-71.498077, 42.01714], [-71.799309, 42.006186], [-72.100541, 42.028094], [-72.133402, 42.028094], [-72.221033, 42.247172], [-72.314141, 42.345757], [-72.28128, 42.723665]]]}}, {"type": "Feature", "properties": {"name": "Norfolk", "id": "25021", "FIPS": "25021", "FIPS State": 25, "ST": "MA", "County": "Norfolk County,MA", "State": "Massachusetts"}, "geometry": {"type": "MultiPolygon", "coordinates": [[[[-71.109214, 42.351234], [-71.163984, 42.301941], [-71.158507, 42.329326], [-71.109214, 42.351234]]], [[[-71.262569, 42.329326], [-71.191368, 42.280033], [-71.005152, 42.307418], [-70.906568, 42.269079], [-70.901091, 42.269079], [-71.08183, 42.093817], [-71.08183, 42.093817], [-71.383061, 41.984279], [-71.498077, 42.01714], [-71.476169, 42.154064], [-71.262569, 42.329326]]]]}}, {"type": "Feature", "properties": {"name": "Pinellas", "id": "12103", "FIPS": "12103", "FIPS State": 12, "ST": "FL", "County": "Pinellas County,FL", "State": "Florida"}, "geometry": {"type": "Polygon", "coordinates": [[[-82.649128, 28.171435], [-82.649128, 27.968788], [-82.802482, 28.171435], [-82.649128, 28.171435]]]}}, {"type": "Feature", "properties": {"name": "Honolulu", "id": "15003", "FIPS": "15003", "FIPS State": 15, "ST": "HI", "County": "Honolulu County,HI", "State": "Hawaii"}, "geometry": {"type": "Polygon", "coordinates": [[[-157.951581, 21.697691], [-157.655826, 21.303352], [-158.110412, 21.303352], [-157.951581, 21.697691]]]}}, {"type": "Feature", "properties": {"name": "Essex", "id": "25009", "FIPS": "25009", "FIPS State": 25, "ST": "MA", "County": "Essex County,MA", "State": "Massachusetts"}, "geometry": {"type": "Polygon", "coordinates": [[[-70.917521, 42.887974], [-70.818936, 42.871543], [-70.961337, 42.444341], [-71.02706, 42.444341], [-71.257092, 42.734619], [-71.246138, 42.740096], [-70.917521, 42.887974]]]}}, {"type": "Feature", "properties": {"name": "Milwaukee", "id": "55079", "FIPS": "55079", "FIPS State": 55, "ST": "WI", "County": "Milwaukee County,WI", "State": "Wisconsin"}, "geometry": {"type": "Polygon", "coordinates": [[[-87.972714, 43.194682], [-87.89056, 43.194682], [-87.824836, 42.844158], [-87.956283, 42.844158], [-88.071299, 42.844158], [-88.065822, 43.194682], [-87.972714, 43.194682]]]}}, {"type": "Feature", "properties": {"name": "Burlington", "id": "34005", "FIPS": "34005", "FIPS State": 34, "ST": "NJ", "County": "Burlington County,NJ", "State": "New Jersey"}, "geometry": {"type": "Polygon", "coordinates": [[[-74.702087, 40.182365], [-74.587071, 40.13855], [-74.55421, 40.078303], [-74.417286, 39.557994], [-74.734949, 39.727779], [-75.030704, 39.990672], [-75.058088, 39.990672], [-74.975934, 40.050919], [-74.723995, 40.149503], [-74.702087, 40.182365]]]}}, {"type": "Feature", "properties": {"name": "Salt Lake", "id": "49035", "FIPS": "49035", "FIPS State": 49, "ST": "UT", "County": "Salt Lake County,UT", "State": "Utah"}, "geometry": {"type": "Polygon", "coordinates": [[[-111.98362, 40.921752], [-111.737158, 40.861506], [-111.638573, 40.801259], [-111.550942, 40.609566], [-111.594758, 40.576705], [-111.594758, 40.576705], [-112.175313, 40.467166], [-112.262944, 40.773875], [-111.98362, 40.921752]]]}}, {"type": "Feature", "properties": {"name": "Gwinnett", "id": "13135", "FIPS": "13135", "FIPS State": 13, "ST": "GA", "County": "Gwinnett County,GA", "State": "Georgia"}, "geometry": {"type": "Polygon", "coordinates": [[[-83.990978, 34.1413], [-83.815716, 34.124869], [-83.799285, 33.927699], [-83.980024, 33.785299], [-84.02384, 33.752437], [-84.275779, 33.955084], [-84.275779, 33.955084], [-84.09504, 34.048192], [-84.062178, 34.168685], [-83.990978, 34.1413]]]}}, {"type": "Feature", "properties": {"name": "Union", "id": "34039", "FIPS": "34039", "FIPS State": 34, "ST": "NJ", "County": "Union County,NJ", "State": "New Jersey"}, "geometry": {"type": "Polygon", "coordinates": [[[-74.362517, 40.735536], [-74.137962, 40.67529], [-74.15987, 40.642428], [-74.209163, 40.593136], [-74.291317, 40.593136], [-74.461102, 40.598613], [-74.461102, 40.67529], [-74.373471, 40.741013], [-74.362517, 40.735536]]]}}, {"type": "Feature", "properties": {"name": "Denton", "id": "48121", "FIPS": "48121", "FIPS State": 48, "ST": "TX", "County": "Denton County,TX", "State": "Texas"}, "geometry": {"type": "Polygon", "coordinates": [[[-97.382097, 33.429298], [-96.943942, 33.418344], [-96.834403, 33.40739], [-96.834403, 33.40739], [-96.845357, 32.985665], [-96.856311, 32.985665], [-97.031573, 32.985665], [-97.398528, 32.991142], [-97.382097, 33.429298]]]}}, {"type": "Feature", "properties": {"name": "Dane", "id": "55025", "FIPS": "55025", "FIPS State": 55, "ST": "WI", "County": "Dane County,WI", "State": "Wisconsin"}, "geometry": {"type": "Polygon", "coordinates": [[[-89.413149, 43.293267], [-89.007855, 43.282313], [-89.007855, 43.200159], [-89.013332, 42.849635], [-89.051671, 42.849635], [-89.369334, 42.844158], [-89.84035, 42.855112], [-89.84035, 43.205636], [-89.719858, 43.293267], [-89.413149, 43.293267]]]}}, {"type": "Feature", "properties": {"name": "Cuyahoga", "id": "39035", "FIPS": "39035", "FIPS State": 39, "ST": "OH", "County": "Cuyahoga County,OH", "State": "Ohio"}, "geometry": {"type": "Polygon", "coordinates": [[[-81.488016, 41.633754], [-81.389431, 41.568031], [-81.389431, 41.348953], [-81.389431, 41.348953], [-81.537309, 41.348953], [-81.685186, 41.277753], [-81.876879, 41.277753], [-81.969987, 41.507785], [-81.488016, 41.633754]]]}}, {"type": "Feature", "properties": {"name": "Sacramento", "id": "06067", "FIPS": "06067", "FIPS State": 6, "ST": "CA", "County": "Sacramento County,CA", "State": "California"}, "geometry": {"type": "Polygon", "coordinates": [[[-121.557312, 38.736453], [-121.486112, 38.736453], [-121.141065, 38.714545], [-121.026049, 38.506421], [-121.026049, 38.298298], [-121.097249, 38.287344], [-121.57922, 38.095651], [-121.628512, 38.101128], [-121.864021, 38.068266], [-121.590174, 38.314728], [-121.601128, 38.736453], [-121.557312, 38.736453]]]}}, {"type": "Feature", "properties": {"name": "Jefferson", "id": "08059", "FIPS": "08059", "FIPS State": 8, "ST": "CO", "County": "Jefferson County,CO", "State": "Colorado"}, "geometry": {"type": "Polygon", "coordinates": [[[-105.055291, 39.913995], [-105.055291, 39.913995], [-105.055291, 39.793502], [-105.055291, 39.623717], [-105.049814, 39.563471], [-105.329138, 39.130793], [-105.329138, 39.130793], [-105.400338, 39.563471], [-105.400338, 39.749687], [-105.400338, 39.913995], [-105.055291, 39.913995]]]}}, {"type": "Feature", "properties": {"name": "Adams", "id": "08001", "FIPS": "08001", "FIPS State": 8, "ST": "CO", "County": "Adams County,CO", "State": "Colorado"}, "geometry": {"type": "Polygon", "coordinates": [[[-103.795594, 40.001626], [-103.707963, 40.001626], [-103.707963, 39.738733], [-104.830736, 39.738733], [-104.885506, 39.738733], [-104.704767, 39.903041], [-105.055291, 39.793502], [-105.055291, 39.913995], [-105.055291, 40.001626], [-104.151596, 40.001626], [-103.795594, 40.001626]]]}}, {"type": "Feature", "properties": {"name": "Hudson", "id": "34017", "FIPS": "34017", "FIPS State": 34, "ST": "NJ", "County": "Hudson County,NJ", "State": "New Jersey"}, "geometry": {"type": "Polygon", "coordinates": [[[-74.011993, 40.823167], [-73.984608, 40.795782], [-74.022947, 40.708151], [-74.15987, 40.642428], [-74.137962, 40.67529], [-74.148916, 40.784829], [-74.011993, 40.823167]]]}}, {"type": "Feature", "properties": {"name": "Contra Costa", "id": "06013", "FIPS": "06013", "FIPS State": 6, "ST": "CA", "County": "Contra Costa County,CA", "State": "California"}, "geometry": {"type": "Polygon", "coordinates": [[[-121.628512, 38.101128], [-121.57922, 38.095651], [-121.557312, 37.821804], [-122.269314, 37.903958], [-122.31313, 37.898481], [-122.269314, 38.062789], [-121.864021, 38.068266], [-121.628512, 38.101128]]]}}, {"type": "Feature", "properties": {"name": "Hennepin", "id": "27053", "FIPS": "27053", "FIPS State": 27, "ST": "MN", "County": "Hennepin County,MN", "State": "Minnesota"}, "geometry": {"type": "Polygon", "coordinates": [[[-93.520854, 45.248535], [-93.5099, 45.243058], [-93.2251, 45.034934], [-93.175807, 44.887057], [-93.329161, 44.788472], [-93.433223, 44.81038], [-93.520854, 44.804903], [-93.767317, 44.980165], [-93.520854, 45.248535]]]}}, {"type": "Feature", "properties": {"name": "Hillsborough", "id": "33011", "FIPS": "33011", "FIPS State": 33, "ST": "NH", "County": "Hillsborough County,NH", "State": "New Hampshire"}, "geometry": {"type": "Polygon", "coordinates": [[[-71.914325, 43.205636], [-71.394015, 43.008466], [-71.246138, 42.740096], [-71.257092, 42.734619], [-71.897894, 42.712712], [-71.930755, 42.712712], [-72.040294, 43.128959], [-72.007433, 43.189205], [-71.914325, 43.205636]]]}}, {"type": "Feature", "properties": {"name": "Webb", "id": "48479", "FIPS": "48479", "FIPS State": 48, "ST": "TX", "County": "Webb County,TX", "State": "Texas"}, "geometry": {"type": "Polygon", "coordinates": [[[-100.115091, 28.19882], [-99.392134, 28.204297], [-98.800625, 28.056419], [-98.800625, 27.355371], [-98.953979, 27.26774], [-99.359273, 27.306078], [-99.452381, 27.262263], [-100.213675, 28.19882], [-100.115091, 28.19882]]]}}, {"type": "Feature", "properties": {"name": "Monroe", "id": "36055", "FIPS": "36055", "FIPS State": 36, "ST": "NY", "County": "Monroe County,NY", "State": "New York"}, "geometry": {"type": "Polygon", "coordinates": [[[-77.374834, 43.276836], [-77.369357, 43.035851], [-77.582958, 42.942743], [-77.823943, 42.986559], [-77.911574, 42.986559], [-77.906097, 43.128959], [-77.999205, 43.134436], [-77.993728, 43.364467], [-77.374834, 43.276836]]]}}, {"type": "Feature", "properties": {"name": "Suffolk", "id": "25025", "FIPS": "25025", "FIPS State": 25, "ST": "MA", "County": "Suffolk County,MA", "State": "Massachusetts"}, "geometry": {"type": "Polygon", "coordinates": [[[-71.02706, 42.444341], [-70.961337, 42.444341], [-71.005152, 42.307418], [-71.191368, 42.280033], [-71.163984, 42.301941], [-71.109214, 42.351234], [-71.158507, 42.329326], [-71.02706, 42.444341]]]}}, {"type": "Feature", "properties": {"name": "Multnomah", "id": "41051", "FIPS": "41051", "FIPS State": 41, "ST": "OR", "County": "Multnomah County,OR", "State": "Oregon"}, "geometry": {"type": "Polygon", "coordinates": [[[-122.926547, 45.725029], [-122.762239, 45.730506], [-122.247407, 45.549767], [-121.924267, 45.648352], [-121.820205, 45.462136], [-122.356945, 45.462136], [-122.745808, 45.434751], [-122.926547, 45.725029]]]}}, {"type": "Feature", "properties": {"name": "Mecklenburg", "id": "37119", "FIPS": "37119", "FIPS State": 37, "ST": "NC", "County": "Mecklenburg County,NC", "State": "North Carolina"}, "geometry": {"type": "Polygon", "coordinates": [[[-80.907461, 35.516012], [-80.781491, 35.505058], [-80.55146, 35.209303], [-80.841737, 35.00118], [-80.907461, 35.077857], [-81.044384, 35.149057], [-80.956753, 35.400996], [-80.945799, 35.488627], [-80.907461, 35.516012]]]}}, {"type": "Feature", "properties": {"name": "Brevard", "id": "12009", "FIPS": "12009", "FIPS State": 12, "ST": "FL", "County": "Brevard County,FL", "State": "Florida"}, "geometry": {"type": "Polygon", "coordinates": [[[-80.447398, 27.859249], [-80.869122, 27.820911], [-80.863645, 28.346697], [-80.989615, 28.615067], [-80.732199, 28.790329], [-80.447398, 27.859249]]]}}, {"type": "Feature", "properties": {"name": "Erie", "id": "36029", "FIPS": "36029", "FIPS State": 36, "ST": "NY", "County": "Erie County,NY", "State": "New York"}, "geometry": {"type": "Polygon", "coordinates": [[[-78.552376, 43.096097], [-78.464745, 43.09062], [-78.464745, 42.866066], [-78.464745, 42.537449], [-79.001485, 42.531973], [-79.061732, 42.537449], [-79.138409, 42.570311], [-79.138409, 42.570311], [-79.023393, 43.068713], [-78.552376, 43.096097]]]}}, {"type": "Feature", "properties": {"name": "Cobb", "id": "13067", "FIPS": "13067", "FIPS State": 13, "ST": "GA", "County": "Cobb County,GA", "State": "Georgia"}, "geometry": {"type": "Polygon", "coordinates": [[[-84.615349, 34.081054], [-84.418179, 34.075577], [-84.577011, 33.741483], [-84.724888, 33.807207], [-84.735842, 34.081054], [-84.659165, 34.075577], [-84.615349, 34.081054]]]}}]}