{"type": "FeatureCollection", "crs": {"type": "name", "properties": {"name": "urn:ogc:def:crs:OGC:1.3:CRS84"}}, "features": [{"type": "Feature", "properties": {"name": "Indiana", "id": "42063", "FIPS": "42063", "FIPS State": 42, "ST": "PA", "County": "Indiana County,PA", "State": "Pennsylvania"}, "geometry": {"type": "Polygon", "coordinates": [[[-79.215086, 40.910798], [-78.804316, 40.905321], [-78.804316, 40.724582], [-78.974101, 40.395966], [-79.450595, 40.527412], [-79.215086, 40.910798]]]}}, {"type": "Feature", "properties": {"name": "Greene", "id": "19073", "FIPS": "19073", "FIPS State": 19, "ST": "IA", "County": "Greene County,IA", "State": "Iowa"}, "geometry": {"type": "Polygon", "coordinates": [[[-94.167133, 42.208833], [-94.161656, 41.863786], [-94.282149, 41.863786], [-94.484796, 41.863786], [-94.627196, 41.863786], [-94.627196, 42.208833], [-94.397165, 42.208833], [-94.167133, 42.208833]]]}}, {"type": "Feature", "properties": {"name": "Ventura", "id": "06111", "FIPS": "06111", "FIPS State": 6, "ST": "CA", "County": "Ventura County,CA", "State": "California"}, "geometry": {"type": "Polygon", "coordinates": [[[-119.443213, 34.902595], [-118.884565, 34.793056], [-118.638103, 34.289177], [-118.944811, 34.042715], [-119.476075, 34.376808], [-119.443213, 34.902595]]]}}, {"type": "Feature", "properties": {"name": "Prince Edward", "id": "51147", "FIPS": "51147", "FIPS State": 51, "ST": "VA", "County": "Prince Edward County,VA", "State": "Virginia"}, "geometry": {"type": "Polygon", "coordinates": [[[-78.262098, 37.34531], [-78.234714, 37.367218], [-78.229237, 37.296018], [-78.240191, 37.120755], [-78.399022, 37.087894], [-78.442837, 37.07694], [-78.683823, 37.246725], [-78.596192, 37.400079], [-78.464745, 37.339833], [-78.262098, 37.34531]]]}}, {"type": "Feature", "properties": {"name": "Montgomery", "id": "48339", "FIPS": "48339", "FIPS State": 48, "ST": "TX", "County": "Montgomery County,TX", "State": "Texas"}, "geometry": {"type": "Polygon", "coordinates": [[[-95.832123, 30.630581], [-95.361106, 30.504611], [-95.163936, 30.34578], [-95.098213, 30.165041], [-95.218706, 30.066456], [-95.804738, 30.088364], [-95.804738, 30.247195], [-95.832123, 30.630581]]]}}, {"type": "Feature", "properties": {"name": "Madison", "id": "21151", "FIPS": "21151", "FIPS State": 21, "ST": "KY", "County": "Madison County,KY", "State": "Kentucky"}, "geometry": {"type": "Polygon", "coordinates": [[[-84.270302, 37.914912], [-84.078609, 37.854665], [-84.089563, 37.564388], [-84.199102, 37.520572], [-84.231963, 37.520572], [-84.346979, 37.537003], [-84.527718, 37.767034], [-84.43461, 37.849189], [-84.336025, 37.893004], [-84.270302, 37.914912]]]}}, {"type": "Feature", "properties": {"name": "Brown", "id": "46013", "FIPS": "46013", "FIPS State": 46, "ST": "SD", "County": "Brown County,SD", "State": "South Dakota"}, "geometry": {"type": "Polygon", "coordinates": [[[-98.723948, 45.938629], [-98.006468, 45.938629], [-97.979084, 45.938629], [-97.979084, 45.588105], [-97.979084, 45.243058], [-98.532255, 45.243058], [-98.718471, 45.243058], [-98.723948, 45.243058], [-98.723948, 45.593582], [-98.723948, 45.938629]]]}}, {"type": "Feature", "properties": {"name": "Stafford", "id": "51179", "FIPS": "51179", "FIPS State": 51, "ST": "VA", "County": "Stafford County,VA", "State": "Virginia"}, "geometry": {"type": "Polygon", "coordinates": [[[-77.533665, 38.555714], [-77.303634, 38.506421], [-77.287203, 38.34759], [-77.325542, 38.243528], [-77.369357, 38.249005], [-77.446034, 38.281867], [-77.528188, 38.309252], [-77.621296, 38.369498], [-77.637727, 38.407836], [-77.533665, 38.555714]]]}}, {"type": "Feature", "properties": {"name": "Halifax", "id": "37083", "FIPS": "37083", "FIPS State": 37, "ST": "NC", "County": "Halifax County,NC", "State": "North Carolina"}, "geometry": {"type": "Polygon", "coordinates": [[[-77.90062, 36.507338], [-77.29268, 36.167768], [-77.325542, 36.07466], [-77.402219, 36.00346], [-77.697974, 36.151337], [-78.004682, 36.200629], [-77.90062, 36.507338]]]}}, {"type": "Feature", "properties": {"name": "Gates", "id": "37073", "FIPS": "37073", "FIPS State": 37, "ST": "NC", "County": "Gates County,NC", "State": "North Carolina"}, "geometry": {"type": "Polygon", "coordinates": [[[-76.914771, 36.551154], [-76.542339, 36.551154], [-76.493047, 36.512815], [-76.454708, 36.375892], [-76.55877, 36.353984], [-76.695693, 36.293737], [-76.914771, 36.545677], [-76.914771, 36.551154]]]}}, {"type": "Feature", "properties": {"name": "Angelina", "id": "48005", "FIPS": "48005", "FIPS State": 48, "ST": "TX", "County": "Angelina County,TX", "State": "Texas"}, "geometry": {"type": "Polygon", "coordinates": [[[-94.868182, 31.528799], [-94.325965, 31.222091], [-94.128795, 31.101598], [-94.457411, 31.035875], [-94.561473, 31.057782], [-94.813412, 31.13446], [-94.840797, 31.145414], [-94.950336, 31.342583], [-94.955813, 31.386399], [-95.005105, 31.424737], [-94.868182, 31.528799]]]}}, {"type": "Feature", "properties": {"name": "Allamakee", "id": "19005", "FIPS": "19005", "FIPS State": 19, "ST": "IA", "County": "Allamakee County,IA", "State": "Iowa"}, "geometry": {"type": "Polygon", "coordinates": [[[-91.368417, 43.501391], [-91.215062, 43.501391], [-91.204109, 43.424714], [-91.176724, 43.079667], [-91.565587, 43.079667], [-91.603925, 43.079667], [-91.609402, 43.501391], [-91.368417, 43.501391]]]}}, {"type": "Feature", "properties": {"name": "Stark", "id": "38089", "FIPS": "38089", "FIPS State": 38, "ST": "ND", "County": "Stark County,ND", "State": "North Dakota"}, "geometry": {"type": "Polygon", "coordinates": [[[-102.147035, 47.01211], [-102.097743, 46.979248], [-102.097743, 46.716355], [-102.097743, 46.628724], [-102.17442, 46.628724], [-102.930238, 46.628724], [-103.23147, 46.628724], [-103.0343, 46.979248], [-102.147035, 47.01211]]]}}, {"type": "Feature", "properties": {"name": "Watauga", "id": "37189", "FIPS": "37189", "FIPS State": 37, "ST": "NC", "County": "Watauga County,NC", "State": "North Carolina"}, "geometry": {"type": "Polygon", "coordinates": [[[-81.734479, 36.392322], [-81.477062, 36.238968], [-81.542786, 36.118475], [-81.685186, 36.123952], [-81.811156, 36.112998], [-81.920695, 36.288261], [-81.734479, 36.392322]]]}}, {"type": "Feature", "properties": {"name": "San Jacinto", "id": "48407", "FIPS": "48407", "FIPS State": 48, "ST": "TX", "County": "San Jacinto County,TX", "State": "Texas"}, "geometry": {"type": "Polygon", "coordinates": [[[-95.311814, 30.88252], [-95.202275, 30.822274], [-94.851751, 30.493658], [-95.163936, 30.34578], [-95.361106, 30.504611], [-95.328245, 30.860613], [-95.311814, 30.88252]]]}}, {"type": "Feature", "properties": {"name": "Kalamazoo", "id": "26077", "FIPS": "26077", "FIPS State": 26, "ST": "MI", "County": "Kalamazoo County,MI", "State": "Michigan"}, "geometry": {"type": "Polygon", "coordinates": [[[-85.540952, 42.422434], [-85.299967, 42.416957], [-85.29449, 42.07191], [-85.299967, 42.07191], [-85.765507, 42.07191], [-85.765507, 42.422434], [-85.540952, 42.422434]]]}}, {"type": "Feature", "properties": {"name": "Tipton", "id": "47167", "FIPS": "47167", "FIPS State": 47, "ST": "TN", "County": "Tipton County,TN", "State": "Tennessee"}, "geometry": {"type": "Polygon", "coordinates": [[[-89.643181, 35.647459], [-89.50078, 35.581735], [-89.473395, 35.400996], [-89.550073, 35.400996], [-89.632227, 35.373611], [-89.774627, 35.406473], [-90.075859, 35.384565], [-90.141582, 35.439335], [-89.911551, 35.53792], [-89.643181, 35.647459]]]}}, {"type": "Feature", "properties": {"name": "Champaign", "id": "17019", "FIPS": "17019", "FIPS State": 17, "ST": "IL", "County": "Champaign County,IL", "State": "Illinois"}, "geometry": {"type": "Polygon", "coordinates": [[[-88.109637, 40.401443], [-87.934375, 40.401443], [-87.939852, 39.881133], [-88.126068, 39.881133], [-88.460161, 39.881133], [-88.460161, 40.28095], [-88.460161, 40.401443], [-88.109637, 40.401443]]]}}, {"type": "Feature", "properties": {"name": "Wasatch", "id": "49051", "FIPS": "49051", "FIPS State": 49, "ST": "UT", "County": "Wasatch County,UT", "State": "Utah"}, "geometry": {"type": "Polygon", "coordinates": [[[-111.430449, 40.686244], [-110.904663, 40.680767], [-110.893709, 39.897564], [-111.594758, 40.576705], [-111.550942, 40.609566], [-111.430449, 40.686244]]]}}, {"type": "Feature", "properties": {"name": "Nicollet", "id": "27103", "FIPS": "27103", "FIPS State": 27, "ST": "MN", "County": "Nicollet County,MN", "State": "Minnesota"}, "geometry": {"type": "Polygon", "coordinates": [[[-94.112364, 44.454379], [-93.931625, 44.454379], [-94.013779, 44.240778], [-94.331441, 44.251732], [-94.36978, 44.262686], [-94.780551, 44.454379], [-94.621719, 44.454379], [-94.112364, 44.454379]]]}}, {"type": "Feature", "properties": {"name": "Onondaga", "id": "36067", "FIPS": "36067", "FIPS State": 36, "ST": "NY", "County": "Onondaga County,NY", "State": "New York"}, "geometry": {"type": "Polygon", "coordinates": [[[-76.169907, 43.249452], [-75.994645, 43.183728], [-75.978214, 43.167298], [-75.89606, 42.789389], [-75.917968, 42.789389], [-76.273969, 42.772958], [-76.476616, 43.227544], [-76.169907, 43.249452]]]}}, {"type": "Feature", "properties": {"name": "Madison", "id": "13195", "FIPS": "13195", "FIPS State": 13, "ST": "GA", "County": "Madison County,GA", "State": "Georgia"}, "geometry": {"type": "Polygon", "coordinates": [[[-83.120145, 34.272746], [-83.114668, 34.272746], [-83.076329, 34.228931], [-82.977744, 34.042715], [-83.098237, 34.026284], [-83.257068, 33.998899], [-83.36113, 34.042715], [-83.404945, 34.196069], [-83.355653, 34.223454], [-83.120145, 34.272746]]]}}, {"type": "Feature", "properties": {"name": "Glenn", "id": "06021", "FIPS": "06021", "FIPS State": 6, "ST": "CA", "County": "Glenn County,CA", "State": "California"}, "geometry": {"type": "Polygon", "coordinates": [[[-122.937501, 39.798979], [-122.04476, 39.798979], [-121.891405, 39.382732], [-122.077621, 39.415593], [-122.740331, 39.382732], [-122.882732, 39.579902], [-122.937501, 39.798979]]]}}, {"type": "Feature", "properties": {"name": "Bryan", "id": "13029", "FIPS": "13029", "FIPS State": 13, "ST": "GA", "County": "Bryan County,GA", "State": "Georgia"}, "geometry": {"type": "Polygon", "coordinates": [[[-81.42777, 32.235325], [-81.389431, 32.098401], [-81.153923, 31.725969], [-81.197738, 31.725969], [-81.707094, 32.087447], [-81.718048, 32.087447], [-81.783771, 32.153171], [-81.433247, 32.240802], [-81.42777, 32.235325]]]}}, {"type": "Feature", "properties": {"name": "Butte", "id": "46019", "FIPS": "46019", "FIPS State": 46, "ST": "SD", "County": "Butte County,SD", "State": "South Dakota"}, "geometry": {"type": "Polygon", "coordinates": [[[-104.042057, 45.210196], [-102.957623, 45.210196], [-102.957623, 45.040411], [-102.963099, 44.602256], [-103.565563, 44.602256], [-103.812025, 44.602256], [-104.058488, 44.569394], [-104.058488, 44.996596], [-104.042057, 45.210196]]]}}, {"type": "Feature", "properties": {"name": "Carroll", "id": "19027", "FIPS": "19027", "FIPS State": 19, "ST": "IA", "County": "Carroll County,IA", "State": "Iowa"}, "geometry": {"type": "Polygon", "coordinates": [[[-95.092736, 42.208833], [-94.857228, 42.208833], [-94.627196, 42.208833], [-94.627196, 41.863786], [-94.742212, 41.863786], [-95.092736, 41.863786], [-95.092736, 42.208833]]]}}, {"type": "Feature", "properties": {"name": "Woodford", "id": "17203", "FIPS": "17203", "FIPS State": 17, "ST": "IL", "County": "Woodford County,IL", "State": "Illinois"}, "geometry": {"type": "Polygon", "coordinates": [[[-89.111917, 40.927229], [-89.046194, 40.927229], [-88.931178, 40.927229], [-88.931178, 40.751967], [-89.270749, 40.593136], [-89.50078, 40.74649], [-89.555549, 40.74649], [-89.473395, 40.921752], [-89.111917, 40.927229]]]}}, {"type": "Feature", "properties": {"name": "Clark", "id": "53011", "FIPS": "53011", "FIPS State": 53, "ST": "WA", "County": "Clark County,WA", "State": "Washington"}, "geometry": {"type": "Polygon", "coordinates": [[[-122.433623, 45.976968], [-122.247407, 46.053645], [-122.247407, 45.549767], [-122.762239, 45.730506], [-122.784147, 45.850998], [-122.433623, 45.976968]]]}}, {"type": "Feature", "properties": {"name": "Livingston", "id": "26093", "FIPS": "26093", "FIPS State": 26, "ST": "MI", "County": "Livingston County,MI", "State": "Michigan"}, "geometry": {"type": "Polygon", "coordinates": [[[-83.684269, 42.783912], [-83.662362, 42.433388], [-84.133379, 42.422434], [-84.138855, 42.422434], [-84.160763, 42.778435], [-83.925255, 42.778435], [-83.684269, 42.783912]]]}}, {"type": "Feature", "properties": {"name": "Wayne", "id": "39169", "FIPS": "39169", "FIPS State": 39, "ST": "OH", "County": "Wayne County,OH", "State": "Ohio"}, "geometry": {"type": "Polygon", "coordinates": [[[-82.079526, 40.992952], [-81.690663, 40.987475], [-81.646848, 40.916275], [-81.652325, 40.669813], [-81.657801, 40.669813], [-82.128818, 40.669813], [-82.128818, 40.992952], [-82.079526, 40.992952]]]}}, {"type": "Feature", "properties": {"name": "Forrest", "id": "28035", "FIPS": "28035", "FIPS State": 28, "ST": "MS", "County": "Forrest County,MS", "State": "Mississippi"}, "geometry": {"type": "Polygon", "coordinates": [[[-89.42958, 31.435691], [-89.396718, 31.435691], [-89.144779, 31.435691], [-89.139302, 30.909905], [-89.341949, 30.909905], [-89.347426, 31.00849], [-89.451488, 31.435691], [-89.42958, 31.435691]]]}}, {"type": "Feature", "properties": {"name": "Kootenai", "id": "16055", "FIPS": "16055", "FIPS State": 16, "ST": "ID", "County": "Kootenai County,ID", "State": "Idaho"}, "geometry": {"type": "Polygon", "coordinates": [[[-116.567819, 47.992482], [-116.321357, 47.88842], [-116.326834, 47.411926], [-117.038836, 47.368111], [-117.044313, 47.976051], [-116.567819, 47.992482]]]}}, {"type": "Feature", "properties": {"name": "Burke", "id": "13033", "FIPS": "13033", "FIPS State": 13, "ST": "GA", "County": "Burke County,GA", "State": "Georgia"}, "geometry": {"type": "Polygon", "coordinates": [[[-82.189065, 33.292374], [-81.849494, 33.248559], [-81.756386, 33.199266], [-81.613986, 33.095204], [-81.542786, 33.045912], [-81.76734, 32.908988], [-81.860448, 32.952804], [-82.145249, 32.810403], [-82.315034, 32.837788], [-82.265742, 33.264989], [-82.189065, 33.292374]]]}}, {"type": "Feature", "properties": {"name": "Union", "id": "45087", "FIPS": "45087", "FIPS State": 45, "ST": "SC", "County": "Union County,SC", "State": "South Carolina"}, "geometry": {"type": "Polygon", "coordinates": [[[-81.712571, 34.913548], [-81.712571, 34.913548], [-81.455155, 34.836871], [-81.477062, 34.820441], [-81.422293, 34.573978], [-81.422293, 34.491824], [-81.641371, 34.53564], [-81.854971, 34.595886], [-81.712571, 34.913548]]]}}, {"type": "Feature", "properties": {"name": "Coahoma", "id": "28027", "FIPS": "28027", "FIPS State": 28, "ST": "MS", "County": "Coahoma County,MS", "State": "Mississippi"}, "geometry": {"type": "Polygon", "coordinates": [[[-90.568783, 34.524686], [-90.398998, 34.426101], [-90.448291, 34.075577], [-90.448291, 33.987946], [-90.656414, 33.987946], [-90.738569, 34.119392], [-90.957646, 34.119392], [-90.568783, 34.524686]]]}}, {"type": "Feature", "properties": {"name": "Magoffin", "id": "21153", "FIPS": "21153", "FIPS State": 21, "ST": "KY", "County": "Magoffin County,KY", "State": "Kentucky"}, "geometry": {"type": "Polygon", "coordinates": [[[-83.005129, 37.860142], [-82.939406, 37.717742], [-82.922975, 37.48771], [-82.944882, 37.498664], [-82.950359, 37.504141], [-83.246114, 37.668449], [-83.262545, 37.712265], [-83.005129, 37.860142]]]}}, {"type": "Feature", "properties": {"name": "Oswego", "id": "36075", "FIPS": "36075", "FIPS State": 36, "ST": "NY", "County": "Oswego County,NY", "State": "New York"}, "geometry": {"type": "Polygon", "coordinates": [[[-76.087753, 43.671176], [-75.775568, 43.687607], [-75.75366, 43.468529], [-75.885106, 43.156344], [-75.994645, 43.183728], [-76.169907, 43.249452], [-76.476616, 43.227544], [-76.619016, 43.419237], [-76.202769, 43.68213], [-76.087753, 43.671176]]]}}, {"type": "Feature", "properties": {"name": "Williamson", "id": "17199", "FIPS": "17199", "FIPS State": 17, "ST": "IL", "County": "Williamson County,IL", "State": "Illinois"}, "geometry": {"type": "Polygon", "coordinates": [[[-88.728531, 37.865619], [-88.706624, 37.865619], [-88.706624, 37.597249], [-88.876409, 37.597249], [-89.040717, 37.597249], [-89.155733, 37.602726], [-89.150256, 37.860142], [-88.728531, 37.865619]]]}}, {"type": "Feature", "properties": {"name": "Perry", "id": "18123", "FIPS": "18123", "FIPS State": 18, "ST": "IN", "County": "Perry County,IN", "State": "Indiana"}, "geometry": {"type": "Polygon", "coordinates": [[[-86.570617, 38.265436], [-86.461078, 38.117559], [-86.488463, 38.046358], [-86.652771, 37.843712], [-86.811602, 37.997066], [-86.789695, 38.20519], [-86.680156, 38.265436], [-86.570617, 38.265436]]]}}, {"type": "Feature", "properties": {"name": "Wilson", "id": "47189", "FIPS": "47189", "FIPS State": 47, "ST": "TN", "County": "Wilson County,TN", "State": "Tennessee"}, "geometry": {"type": "Polygon", "coordinates": [[[-86.36797, 36.353984], [-86.285816, 36.348507], [-86.137939, 36.293737], [-86.061262, 36.085614], [-86.017446, 35.959644], [-86.15437, 35.954167], [-86.515848, 36.102045], [-86.592525, 36.244445], [-86.36797, 36.353984]]]}}, {"type": "Feature", "properties": {"name": "Huron", "id": "39077", "FIPS": "39077", "FIPS State": 39, "ST": "OH", "County": "Huron County,OH", "State": "Ohio"}, "geometry": {"type": "Polygon", "coordinates": [[[-82.840821, 41.288707], [-82.342419, 41.28323], [-82.336942, 41.064153], [-82.375281, 41.064153], [-82.435527, 40.992952], [-82.687466, 40.992952], [-82.725805, 40.998429], [-82.829867, 40.998429], [-82.840821, 41.255845], [-82.840821, 41.288707]]]}}, {"type": "Feature", "properties": {"name": "Rapides", "id": "22079", "FIPS": "22079", "FIPS State": 22, "ST": "LA", "County": "Rapides County,LA", "State": "Louisiana"}, "geometry": {"type": "Polygon", "coordinates": [[[-92.721221, 31.517845], [-92.195435, 31.479507], [-92.085896, 31.337106], [-92.283066, 30.964674], [-92.387128, 31.003013], [-92.595251, 30.893474], [-92.660975, 30.898951], [-92.825283, 30.887997], [-92.984114, 31.34806], [-92.721221, 31.517845]]]}}, {"type": "Feature", "properties": {"name": "Saratoga", "id": "36091", "FIPS": "36091", "FIPS State": 36, "ST": "NY", "County": "Saratoga County,NY", "State": "New York"}, "geometry": {"type": "Polygon", "coordinates": [[[-73.886023, 43.397329], [-73.595745, 43.304221], [-73.634084, 42.942743], [-73.677899, 42.783912], [-73.809346, 42.778435], [-74.094147, 42.953697], [-74.099624, 42.981082], [-74.137962, 43.254929], [-74.15987, 43.369944], [-73.886023, 43.397329]]]}}, {"type": "Feature", "properties": {"name": "Whatcom", "id": "53073", "FIPS": "53073", "FIPS State": 53, "ST": "WA", "County": "Whatcom County,WA", "State": "Washington"}, "geometry": {"type": "Polygon", "coordinates": [[[-120.850787, 49.000239], [-120.752202, 48.655192], [-122.329561, 48.644238], [-122.488392, 48.644238], [-122.756762, 49.000239], [-120.850787, 49.000239]]]}}]}