{"type": "FeatureCollection", "crs": {"type": "name", "properties": {"name": "urn:ogc:def:crs:OGC:1.3:CRS84"}}, "features": [{"type": "Feature", "properties": {"name": "Jessamine", "id": "21113", "FIPS": "21113", "FIPS State": 21, "ST": "KY", "County": "Jessamine County,KY", "State": "Kentucky"}, "geometry": {"type": "Polygon", "coordinates": [[[-84.659165, 38.002543], [-84.43461, 37.849189], [-84.527718, 37.767034], [-84.648211, 37.81085], [-84.713934, 37.816327], [-84.708457, 37.860142], [-84.659165, 38.002543]]]}}, {"type": "Feature", "properties": {"name": "Latah", "id": "16057", "FIPS": "16057", "FIPS State": 16, "ST": "ID", "County": "Latah County,ID", "State": "Idaho"}, "geometry": {"type": "Polygon", "coordinates": [[[-117.000498, 47.132602], [-116.332311, 47.023064], [-116.332311, 46.935433], [-116.458281, 46.628724], [-116.644497, 46.61777], [-117.038836, 46.541093], [-117.038836, 47.127126], [-117.000498, 47.132602]]]}}, {"type": "Feature", "properties": {"name": "Washington", "id": "24043", "FIPS": "24043", "FIPS State": 24, "ST": "MD", "County": "Washington County,MD", "State": "Maryland"}, "geometry": {"type": "Polygon", "coordinates": [[[-78.284006, 39.722302], [-78.09779, 39.722302], [-77.467942, 39.722302], [-77.676066, 39.322485], [-77.719881, 39.322485], [-77.823943, 39.492271], [-78.021113, 39.61824], [-78.185421, 39.694917], [-78.333299, 39.634671], [-78.344253, 39.722302], [-78.284006, 39.722302]]]}}, {"type": "Feature", "properties": {"name": "Warren", "id": "39165", "FIPS": "39165", "FIPS State": 39, "ST": "OH", "County": "Warren County,OH", "State": "Ohio"}, "geometry": {"type": "Polygon", "coordinates": [[[-84.36341, 39.590856], [-84.111471, 39.579902], [-83.974547, 39.568948], [-84.007409, 39.256762], [-84.259348, 39.273193], [-84.352456, 39.289624], [-84.36341, 39.590856]]]}}, {"type": "Feature", "properties": {"name": "Mecosta", "id": "26107", "FIPS": "26107", "FIPS State": 26, "ST": "MI", "County": "Mecosta County,MI", "State": "Michigan"}, "geometry": {"type": "Polygon", "coordinates": [[[-85.540952, 43.813577], [-85.086366, 43.813577], [-85.086366, 43.468529], [-85.551906, 43.468529], [-85.56286, 43.468529], [-85.56286, 43.813577], [-85.540952, 43.813577]]]}}, {"type": "Feature", "properties": {"name": "Lake", "id": "18089", "FIPS": "18089", "FIPS State": 18, "ST": "IN", "County": "Lake County,IN", "State": "Indiana"}, "geometry": {"type": "Polygon", "coordinates": [[[-87.222373, 41.6228], [-87.216896, 41.239415], [-87.277142, 41.217507], [-87.529082, 41.168214], [-87.529082, 41.299661], [-87.523605, 41.469446], [-87.523605, 41.710431], [-87.222373, 41.6228]]]}}, {"type": "Feature", "properties": {"name": "Smith", "id": "48423", "FIPS": "48423", "FIPS State": 48, "ST": "TX", "County": "Smith County,TX", "State": "Texas"}, "geometry": {"type": "Polygon", "coordinates": [[[-95.574707, 32.67348], [-95.152983, 32.569418], [-94.988674, 32.536556], [-94.988674, 32.366771], [-94.983197, 32.13674], [-95.459691, 32.13674], [-95.448737, 32.355817], [-95.596615, 32.684434], [-95.574707, 32.67348]]]}}, {"type": "Feature", "properties": {"name": "Shawnee", "id": "20177", "FIPS": "20177", "FIPS State": 20, "ST": "KS", "County": "Shawnee County,KS", "State": "Kansas"}, "geometry": {"type": "Polygon", "coordinates": [[[-95.886893, 39.218424], [-95.591138, 39.218424], [-95.49803, 39.054115], [-95.49803, 38.867899], [-95.667815, 38.867899], [-95.947139, 38.867899], [-96.040247, 39.125316], [-96.03477, 39.218424], [-95.886893, 39.218424]]]}}, {"type": "Feature", "properties": {"name": "Ector", "id": "48135", "FIPS": "48135", "FIPS State": 48, "ST": "TX", "County": "Ector County,TX", "State": "Texas"}, "geometry": {"type": "Polygon", "coordinates": [[[-102.289436, 32.087447], [-102.289436, 31.649292], [-102.316821, 31.649292], [-102.76593, 31.649292], [-102.798791, 31.649292], [-102.798791, 32.087447], [-102.289436, 32.087447]]]}}, {"type": "Feature", "properties": {"name": "Lake", "id": "39085", "FIPS": "39085", "FIPS State": 39, "ST": "OH", "County": "Lake County,OH", "State": "Ohio"}, "geometry": {"type": "Polygon", "coordinates": [[[-81.000569, 41.852832], [-81.006046, 41.715908], [-81.389431, 41.568031], [-81.488016, 41.633754], [-81.000569, 41.852832]]]}}, {"type": "Feature", "properties": {"name": "Baltimore", "id": "24005", "FIPS": "24005", "FIPS State": 24, "ST": "MD", "County": "Baltimore County,MD", "State": "Maryland"}, "geometry": {"type": "Polygon", "coordinates": [[[-76.70117, 39.722302], [-76.569724, 39.722302], [-76.328738, 39.355347], [-76.525908, 39.218424], [-76.651878, 39.371778], [-76.619016, 39.234854], [-76.695693, 39.212947], [-76.881909, 39.34987], [-76.788801, 39.722302], [-76.70117, 39.722302]]]}}, {"type": "Feature", "properties": {"name": "Nolan", "id": "48353", "FIPS": "48353", "FIPS State": 48, "ST": "TX", "County": "Nolan County,TX", "State": "Texas"}, "geometry": {"type": "Polygon", "coordinates": [[[-100.147952, 32.520126], [-100.153429, 32.08197], [-100.235583, 32.08197], [-100.662785, 32.087447], [-100.662785, 32.525602], [-100.147952, 32.520126]]]}}, {"type": "Feature", "properties": {"name": "York", "id": "45091", "FIPS": "45091", "FIPS State": 45, "ST": "SC", "County": "York County,SC", "State": "South Carolina"}, "geometry": {"type": "Polygon", "coordinates": [[[-81.367524, 35.165488], [-81.329185, 35.165488], [-81.044384, 35.149057], [-80.907461, 35.077857], [-80.907461, 35.077857], [-80.896507, 34.820441], [-81.28537, 34.820441], [-81.477062, 34.820441], [-81.455155, 34.836871], [-81.367524, 35.165488]]]}}, {"type": "Feature", "properties": {"name": "Fresno", "id": "06019", "FIPS": "06019", "FIPS State": 6, "ST": "CA", "County": "Fresno County,CA", "State": "California"}, "geometry": {"type": "Polygon", "coordinates": [[[-119.021489, 37.586295], [-118.775026, 37.460326], [-118.358779, 36.742847], [-118.98315, 36.742847], [-119.57466, 36.490907], [-119.958045, 36.403276], [-120.314047, 35.904875], [-120.681002, 36.266353], [-120.91651, 36.742847], [-120.544078, 37.044078], [-120.281185, 36.764754], [-119.821122, 36.846908], [-119.021489, 37.586295]]]}}, {"type": "Feature", "properties": {"name": "Cambria", "id": "42021", "FIPS": "42021", "FIPS State": 42, "ST": "PA", "County": "Cambria County,PA", "State": "Pennsylvania"}, "geometry": {"type": "Polygon", "coordinates": [[[-78.804316, 40.724582], [-78.349729, 40.724582], [-78.6181, 40.324766], [-78.656438, 40.242611], [-79.001485, 40.286427], [-79.056255, 40.286427], [-78.974101, 40.395966], [-78.804316, 40.724582]]]}}, {"type": "Feature", "properties": {"name": "Brown", "id": "27015", "FIPS": "27015", "FIPS State": 27, "ST": "MN", "County": "Brown County,MN", "State": "Minnesota"}, "geometry": {"type": "Polygon", "coordinates": [[[-94.851751, 44.498194], [-94.780551, 44.454379], [-94.36978, 44.262686], [-94.36978, 44.109331], [-94.490273, 44.109331], [-94.857228, 44.109331], [-95.109167, 44.196962], [-94.868182, 44.498194], [-94.851751, 44.498194]]]}}, {"type": "Feature", "properties": {"name": "Spokane", "id": "53063", "FIPS": "53063", "FIPS State": 53, "ST": "WA", "County": "Spokane County,WA", "State": "Washington"}, "geometry": {"type": "Polygon", "coordinates": [[[-117.537238, 48.047251], [-117.438653, 48.047251], [-117.044313, 48.047251], [-117.044313, 47.976051], [-117.038836, 47.368111], [-117.038836, 47.258572], [-117.822039, 47.258572], [-117.822039, 47.822697], [-117.537238, 48.047251]]]}}, {"type": "Feature", "properties": {"name": "Berkeley", "id": "54003", "FIPS": "54003", "FIPS State": 54, "ST": "WV", "County": "Berkeley County,WV", "State": "West Virginia"}, "geometry": {"type": "Polygon", "coordinates": [[[-78.021113, 39.61824], [-77.823943, 39.492271], [-77.823943, 39.492271], [-78.032067, 39.262239], [-78.229237, 39.393686], [-78.021113, 39.61824]]]}}, {"type": "Feature", "properties": {"name": "Phillips", "id": "08095", "FIPS": "08095", "FIPS State": 8, "ST": "CO", "County": "Phillips County,CO", "State": "Colorado"}, "geometry": {"type": "Polygon", "coordinates": [[[-102.327774, 40.74649], [-102.053927, 40.751967], [-102.053927, 40.697198], [-102.053927, 40.439781], [-102.426359, 40.439781], [-102.667345, 40.439781], [-102.650914, 40.751967], [-102.327774, 40.74649]]]}}, {"type": "Feature", "properties": {"name": "Laurel", "id": "21125", "FIPS": "21125", "FIPS State": 21, "ST": "KY", "County": "Laurel County,KY", "State": "Kentucky"}, "geometry": {"type": "Polygon", "coordinates": [[[-84.138855, 37.306971], [-84.138855, 37.317925], [-83.941686, 37.252202], [-83.870485, 37.055032], [-84.089563, 36.956447], [-84.122425, 36.967401], [-84.297687, 36.945493], [-84.357933, 36.961924], [-84.286733, 37.153617], [-84.138855, 37.306971]]]}}, {"type": "Feature", "properties": {"name": "San Miguel", "id": "35047", "FIPS": "35047", "FIPS State": 35, "ST": "NM", "County": "San Miguel County,NM", "State": "New Mexico"}, "geometry": {"type": "Polygon", "coordinates": [[[-104.365196, 35.778905], [-103.976333, 35.800813], [-103.636763, 35.390042], [-104.124211, 35.14358], [-105.290799, 35.21478], [-105.290799, 35.039518], [-105.712524, 35.039518], [-105.718001, 35.872013], [-104.365196, 35.778905]]]}}, {"type": "Feature", "properties": {"name": "Davidson", "id": "47037", "FIPS": "47037", "FIPS State": 47, "ST": "TN", "County": "Davidson County,TN", "State": "Tennessee"}, "geometry": {"type": "Polygon", "coordinates": [[[-86.76231, 36.403276], [-86.756833, 36.403276], [-86.592525, 36.244445], [-86.515848, 36.102045], [-86.619909, 35.970598], [-86.921141, 36.052752], [-87.052588, 36.047275], [-86.915664, 36.381369], [-86.76231, 36.403276]]]}}, {"type": "Feature", "properties": {"name": "Schenectady", "id": "36093", "FIPS": "36093", "FIPS State": 36, "ST": "NY", "County": "Schenectady County,NY", "State": "New York"}, "geometry": {"type": "Polygon", "coordinates": [[[-74.094147, 42.953697], [-73.809346, 42.778435], [-74.181778, 42.729142], [-74.263932, 42.794866], [-74.094147, 42.953697]]]}}, {"type": "Feature", "properties": {"name": "Juneau", "id": "55057", "FIPS": "55057", "FIPS State": 55, "ST": "WI", "County": "Juneau County,WI", "State": "Wisconsin"}, "geometry": {"type": "Polygon", "coordinates": [[[-90.081336, 44.246255], [-89.900597, 44.251732], [-89.785581, 43.638314], [-90.294936, 43.643791], [-90.311367, 43.638314], [-90.311367, 43.731422], [-90.311367, 44.153147], [-90.311367, 44.246255], [-90.081336, 44.246255]]]}}, {"type": "Feature", "properties": {"name": "Jones", "id": "28067", "FIPS": "28067", "FIPS State": 28, "ST": "MS", "County": "Jones County,MS", "State": "Mississippi"}, "geometry": {"type": "Polygon", "coordinates": [[[-88.942132, 31.824554], [-88.942132, 31.435691], [-89.144779, 31.435691], [-89.396718, 31.435691], [-89.402195, 31.797169], [-89.314564, 31.802646], [-88.942132, 31.824554]]]}}, {"type": "Feature", "properties": {"name": "Citrus", "id": "12017", "FIPS": "12017", "FIPS State": 12, "ST": "FL", "County": "Citrus County,FL", "State": "Florida"}, "geometry": {"type": "Polygon", "coordinates": [[[-82.523158, 29.042268], [-82.309557, 28.960114], [-82.265742, 28.669836], [-82.649128, 28.691744], [-82.758666, 28.992976], [-82.534112, 29.042268], [-82.523158, 29.042268]]]}}, {"type": "Feature", "properties": {"name": "Summit", "id": "49043", "FIPS": "49043", "FIPS State": 49, "ST": "UT", "County": "Summit County,UT", "State": "Utah"}, "geometry": {"type": "Polygon", "coordinates": [[[-111.047063, 41.250368], [-111.047063, 40.998429], [-110.05026, 40.998429], [-110.000968, 40.998429], [-110.000968, 40.812213], [-110.148845, 40.812213], [-110.904663, 40.680767], [-111.430449, 40.686244], [-111.550942, 40.609566], [-111.638573, 40.801259], [-111.266141, 41.146307], [-111.047063, 41.250368]]]}}, {"type": "Feature", "properties": {"name": "Canyon", "id": "16027", "FIPS": "16027", "FIPS State": 16, "ST": "ID", "County": "Canyon County,ID", "State": "Idaho"}, "geometry": {"type": "Polygon", "coordinates": [[[-116.97859, 43.8793], [-116.71022, 43.8081], [-116.51305, 43.8081], [-116.51305, 43.28779], [-116.989544, 43.671176], [-117.027882, 43.68213], [-116.97859, 43.8793]]]}}, {"type": "Feature", "properties": {"name": "Medina", "id": "39103", "FIPS": "39103", "FIPS State": 39, "ST": "OH", "County": "Medina County,OH", "State": "Ohio"}, "geometry": {"type": "Polygon", "coordinates": [[[-81.685186, 41.277753], [-81.690663, 40.987475], [-82.079526, 40.992952], [-82.128818, 40.992952], [-82.172634, 41.064153], [-81.876879, 41.277753], [-81.685186, 41.277753]]]}}, {"type": "Feature", "properties": {"name": "Salem", "id": "34033", "FIPS": "34033", "FIPS State": 34, "ST": "NJ", "County": "Salem County,NJ", "State": "New Jersey"}, "geometry": {"type": "Polygon", "coordinates": [[[-75.446951, 39.771595], [-75.063565, 39.568948], [-75.408613, 39.382732], [-75.55649, 39.607286], [-75.561967, 39.629194], [-75.507197, 39.683964], [-75.446951, 39.771595]]]}}, {"type": "Feature", "properties": {"name": "Berks", "id": "42011", "FIPS": "42011", "FIPS State": 42, "ST": "PA", "County": "Berks County,PA", "State": "Pennsylvania"}, "geometry": {"type": "Polygon", "coordinates": [[[-75.890583, 40.67529], [-75.529105, 40.445258], [-75.69889, 40.242611], [-75.874152, 40.13855], [-76.153476, 40.313812], [-76.438277, 40.494551], [-75.890583, 40.67529]]]}}, {"type": "Feature", "properties": {"name": "Clackamas", "id": "41005", "FIPS": "41005", "FIPS State": 41, "ST": "OR", "County": "Clackamas County,OR", "State": "Oregon"}, "geometry": {"type": "Polygon", "coordinates": [[[-122.356945, 45.462136], [-121.820205, 45.462136], [-121.694236, 45.259489], [-121.732574, 44.887057], [-122.395284, 44.887057], [-122.84987, 45.259489], [-122.866301, 45.319735], [-122.745808, 45.434751], [-122.356945, 45.462136]]]}}, {"type": "Feature", "properties": {"name": "Martin", "id": "12085", "FIPS": "12085", "FIPS State": 12, "ST": "FL", "County": "Martin County,FL", "State": "Florida"}, "geometry": {"type": "Polygon", "coordinates": [[[-80.080443, 26.971985], [-80.885553, 26.961031], [-80.677429, 27.207493], [-80.200935, 27.262263], [-80.080443, 26.971985]]]}}, {"type": "Feature", "properties": {"name": "Frederick", "id": "24021", "FIPS": "24021", "FIPS State": 24, "ST": "MD", "County": "Frederick County,MD", "State": "Maryland"}, "geometry": {"type": "Polygon", "coordinates": [[[-77.467942, 39.722302], [-77.456988, 39.722302], [-77.216003, 39.722302], [-77.16671, 39.355347], [-77.16671, 39.355347], [-77.243388, 39.317009], [-77.456988, 39.218424], [-77.676066, 39.322485], [-77.467942, 39.722302]]]}}, {"type": "Feature", "properties": {"name": "Glynn", "id": "13127", "FIPS": "13127", "FIPS State": 13, "ST": "GA", "County": "Glynn County,GA", "State": "Georgia"}, "geometry": {"type": "Polygon", "coordinates": [[[-81.279893, 31.293291], [-81.268939, 31.293291], [-81.444201, 31.013967], [-81.76734, 31.167321], [-81.729002, 31.331629], [-81.62494, 31.452122], [-81.279893, 31.293291]]]}}, {"type": "Feature", "properties": {"name": "Jefferson", "id": "01073", "FIPS": "01073", "FIPS State": 1, "ST": "AL", "County": "Jefferson County,AL", "State": "Alabama"}, "geometry": {"type": "Polygon", "coordinates": [[[-86.685633, 33.796253], [-86.576094, 33.763391], [-86.515848, 33.544313], [-87.025203, 33.248559], [-87.063542, 33.248559], [-87.266188, 33.511452], [-86.954003, 33.812683], [-86.685633, 33.796253]]]}}, {"type": "Feature", "properties": {"name": "Hill", "id": "30041", "FIPS": "30041", "FIPS State": 30, "ST": "MT", "County": "Hill County,MT", "State": "Montana"}, "geometry": {"type": "Polygon", "coordinates": [[[-109.491612, 49.000239], [-109.535428, 48.134883], [-110.389831, 48.304668], [-110.756786, 48.217037], [-110.745832, 49.000239], [-109.491612, 49.000239]]]}}, {"type": "Feature", "properties": {"name": "Tazewell", "id": "17179", "FIPS": "17179", "FIPS State": 17, "ST": "IL", "County": "Tazewell County,IL", "State": "Illinois"}, "geometry": {"type": "Polygon", "coordinates": [[[-89.50078, 40.74649], [-89.270749, 40.593136], [-89.265272, 40.324766], [-89.604842, 40.319289], [-89.89512, 40.434304], [-89.922504, 40.434304], [-89.873212, 40.510982], [-89.555549, 40.74649], [-89.50078, 40.74649]]]}}, {"type": "Feature", "properties": {"name": "Sonoma", "id": "06097", "FIPS": "06097", "FIPS State": 6, "ST": "CA", "County": "Sonoma County,CA", "State": "California"}, "geometry": {"type": "Polygon", "coordinates": [[[-123.074425, 38.851469], [-122.822485, 38.851469], [-122.625315, 38.665253], [-122.406238, 38.155897], [-122.406238, 38.15042], [-122.488392, 38.112082], [-122.844393, 38.27639], [-123.003224, 38.298298], [-123.534488, 38.769315], [-123.074425, 38.851469]]]}}, {"type": "Feature", "properties": {"name": "Brantley", "id": "13025", "FIPS": "13025", "FIPS State": 13, "ST": "GA", "County": "Brantley County,GA", "State": "Georgia"}, "geometry": {"type": "Polygon", "coordinates": [[[-82.041187, 31.369968], [-82.041187, 31.375445], [-81.729002, 31.331629], [-81.76734, 31.167321], [-81.937125, 31.046829], [-81.986418, 31.057782], [-82.134295, 31.00849], [-82.282173, 31.227568], [-82.041187, 31.369968]]]}}, {"type": "Feature", "properties": {"name": "Santa Barbara", "id": "06083", "FIPS": "06083", "FIPS State": 6, "ST": "CA", "County": "Santa Barbara County,CA", "State": "California"}, "geometry": {"type": "Polygon", "coordinates": [[[-120.094969, 35.116195], [-119.470598, 34.902595], [-119.443213, 34.902595], [-119.476075, 34.376808], [-120.64814, 34.579455], [-120.64814, 34.973795], [-120.094969, 35.116195]]]}}, {"type": "Feature", "properties": {"name": "Merced", "id": "06047", "FIPS": "06047", "FIPS State": 6, "ST": "CA", "County": "Merced County,CA", "State": "California"}, "geometry": {"type": "Polygon", "coordinates": [[[-120.385247, 37.635588], [-120.051153, 37.181002], [-120.544078, 37.044078], [-120.91651, 36.742847], [-121.217742, 36.961924], [-121.228696, 37.137186], [-120.385247, 37.635588]]]}}, {"type": "Feature", "properties": {"name": "Pasco", "id": "12101", "FIPS": "12101", "FIPS State": 12, "ST": "FL", "County": "Pasco County,FL", "State": "Florida"}, "geometry": {"type": "Polygon", "coordinates": [[[-82.254788, 28.478144], [-82.057618, 28.478144], [-82.057618, 28.313835], [-82.106911, 28.171435], [-82.649128, 28.171435], [-82.802482, 28.171435], [-82.676512, 28.434328], [-82.254788, 28.478144]]]}}, {"type": "Feature", "properties": {"name": "Williamson", "id": "47187", "FIPS": "47187", "FIPS State": 47, "ST": "TN", "County": "Williamson County,TN", "State": "Tennessee"}, "geometry": {"type": "Polygon", "coordinates": [[[-86.921141, 36.052752], [-86.619909, 35.970598], [-86.685633, 35.707705], [-86.784218, 35.707705], [-87.216896, 35.850105], [-87.205942, 35.959644], [-87.184034, 36.047275], [-87.052588, 36.047275], [-86.921141, 36.052752]]]}}]}