{"type": "FeatureCollection", "crs": {"type": "name", "properties": {"name": "urn:ogc:def:crs:OGC:1.3:CRS84"}}, "features": [{"type": "Feature", "properties": {"name": "Kanawha", "id": "54039", "FIPS": "54039", "FIPS State": 54, "ST": "WV", "County": "Kanawha County,WV", "State": "West Virginia"}, "geometry": {"type": "Polygon", "coordinates": [[[-81.69614, 38.626914], [-81.69614, 38.626914], [-81.520878, 38.610483], [-81.192262, 38.528329], [-81.2306, 38.265436], [-81.2306, 38.265436], [-81.378478, 37.969681], [-81.455155, 37.986112], [-81.756386, 38.20519], [-81.833064, 38.210667], [-81.915218, 38.325682], [-81.69614, 38.626914]]]}}, {"type": "Feature", "properties": {"name": "Webster", "id": "19187", "FIPS": "19187", "FIPS State": 19, "ST": "IA", "County": "Webster County,IA", "State": "Iowa"}, "geometry": {"type": "Polygon", "coordinates": [[[-94.44098, 42.646988], [-93.969963, 42.646988], [-93.969963, 42.559357], [-93.931625, 42.208833], [-94.167133, 42.208833], [-94.397165, 42.208833], [-94.44098, 42.559357], [-94.44098, 42.646988]]]}}, {"type": "Feature", "properties": {"name": "Brown", "id": "55009", "FIPS": "55009", "FIPS State": 55, "ST": "WI", "County": "Brown County,WI", "State": "Wisconsin"}, "geometry": {"type": "Polygon", "coordinates": [[[-88.235607, 44.678933], [-87.989145, 44.678933], [-87.76459, 44.646072], [-87.76459, 44.328409], [-87.885083, 44.328409], [-88.043914, 44.240778], [-88.191791, 44.240778], [-88.246561, 44.585825], [-88.241084, 44.678933], [-88.235607, 44.678933]]]}}, {"type": "Feature", "properties": {"name": "Erie", "id": "42049", "FIPS": "42049", "FIPS State": 42, "ST": "PA", "County": "Erie County,PA", "State": "Pennsylvania"}, "geometry": {"type": "Polygon", "coordinates": [[[-79.76278, 42.252649], [-79.609426, 42.000709], [-79.609426, 41.847355], [-79.708011, 41.852832], [-80.518598, 41.847355], [-80.518598, 41.978802], [-80.518598, 41.978802], [-79.76278, 42.269079], [-79.76278, 42.252649]]]}}, {"type": "Feature", "properties": {"name": "Boone", "id": "29019", "FIPS": "29019", "FIPS State": 29, "ST": "MO", "County": "Boone County,MO", "State": "Missouri"}, "geometry": {"type": "Polygon", "coordinates": [[[-92.430943, 39.251285], [-92.315927, 39.245808], [-92.107804, 39.065069], [-92.222819, 38.643345], [-92.392605, 38.736453], [-92.463805, 38.862422], [-92.496666, 38.922669], [-92.556913, 38.971961], [-92.430943, 39.251285]]]}}, {"type": "Feature", "properties": {"name": "Albany", "id": "56001", "FIPS": "56001", "FIPS State": 56, "ST": "WY", "County": "Albany County,WY", "State": "Wyoming"}, "geometry": {"type": "Polygon", "coordinates": [[[-106.074002, 42.433388], [-105.285322, 42.433388], [-105.279845, 41.655662], [-105.279845, 40.998429], [-106.189017, 40.998429], [-106.320464, 40.998429], [-106.068525, 41.392769], [-106.074002, 42.433388]]]}}, {"type": "Feature", "properties": {"name": "Placer", "id": "06061", "FIPS": "06061", "FIPS State": 6, "ST": "CA", "County": "Placer County,CA", "State": "California"}, "geometry": {"type": "Polygon", "coordinates": [[[-120.149738, 39.317009], [-120.007338, 39.317009], [-120.001861, 39.163654], [-120.001861, 39.114362], [-120.001861, 39.065069], [-121.04248, 38.917192], [-121.141065, 38.714545], [-121.486112, 38.736453], [-121.414912, 38.999346], [-121.277988, 39.032208], [-120.149738, 39.317009]]]}}, {"type": "Feature", "properties": {"name": "Chittenden", "id": "50007", "FIPS": "50007", "FIPS State": 50, "ST": "VT", "County": "Chittenden County,VT", "State": "Vermont"}, "geometry": {"type": "Polygon", "coordinates": [[[-73.22879, 44.722749], [-72.922082, 44.635118], [-72.807066, 44.454379], [-72.954943, 44.164101], [-73.22879, 44.262686], [-73.310944, 44.262686], [-73.338329, 44.547487], [-73.360237, 44.563917], [-73.22879, 44.722749]]]}}, {"type": "Feature", "properties": {"name": "Jackson", "id": "29095", "FIPS": "29095", "FIPS State": 29, "ST": "MO", "County": "Jackson County,MO", "State": "Missouri"}, "geometry": {"type": "Polygon", "coordinates": [[[-94.419073, 39.147223], [-94.210949, 39.20747], [-94.106887, 39.141746], [-94.112364, 38.917192], [-94.117841, 38.835038], [-94.583381, 38.845992], [-94.610765, 38.845992], [-94.605288, 39.043162], [-94.605288, 39.114362], [-94.419073, 39.147223]]]}}, {"type": "Feature", "properties": {"name": "Carroll", "id": "13045", "FIPS": "13045", "FIPS State": 13, "ST": "GA", "County": "Carroll County,GA", "State": "Georgia"}, "geometry": {"type": "Polygon", "coordinates": [[[-85.037074, 33.812683], [-84.90015, 33.779822], [-84.807042, 33.571698], [-84.850858, 33.511452], [-85.015166, 33.423821], [-85.29449, 33.429298], [-85.305444, 33.484067], [-85.338305, 33.653852], [-85.037074, 33.812683]]]}}, {"type": "Feature", "properties": {"name": "Bradford", "id": "12007", "FIPS": "12007", "FIPS State": 12, "ST": "FL", "County": "Bradford County,FL", "State": "Florida"}, "geometry": {"type": "Polygon", "coordinates": [[[-82.145249, 30.143133], [-82.052141, 30.143133], [-82.046664, 29.715932], [-82.052141, 29.715932], [-82.419096, 29.924056], [-82.145249, 30.143133]]]}}, {"type": "Feature", "properties": {"name": "Santa Fe", "id": "35049", "FIPS": "35049", "FIPS State": 35, "ST": "NM", "County": "Santa Fe County,NM", "State": "New Mexico"}, "geometry": {"type": "Polygon", "coordinates": [[[-106.068525, 35.997983], [-105.718001, 35.976075], [-105.718001, 35.872013], [-105.712524, 35.039518], [-106.243787, 35.039518], [-106.243787, 35.21478], [-106.249264, 35.756997], [-106.249264, 35.839151], [-106.249264, 35.855582], [-106.243787, 35.932259], [-106.068525, 35.997983]]]}}, {"type": "Feature", "properties": {"name": "Morgan", "id": "29141", "FIPS": "29141", "FIPS State": 29, "ST": "MO", "County": "Morgan County,MO", "State": "Missouri"}, "geometry": {"type": "Polygon", "coordinates": [[[-93.060791, 38.692637], [-92.841714, 38.681683], [-92.622636, 38.429744], [-92.693836, 38.22162], [-93.077222, 38.259959], [-93.066268, 38.528329], [-93.060791, 38.692637]]]}}, {"type": "Feature", "properties": {"name": "Winnebago", "id": "17201", "FIPS": "17201", "FIPS State": 17, "ST": "IL", "County": "Winnebago County,IL", "State": "Illinois"}, "geometry": {"type": "Polygon", "coordinates": [[[-89.363857, 42.499111], [-88.942132, 42.493634], [-88.942132, 42.154064], [-89.281702, 42.203356], [-89.396718, 42.203356], [-89.402195, 42.499111], [-89.363857, 42.499111]]]}}, {"type": "Feature", "properties": {"name": "Robeson", "id": "37155", "FIPS": "37155", "FIPS State": 37, "ST": "NC", "County": "Robeson County,NC", "State": "North Carolina"}, "geometry": {"type": "Polygon", "coordinates": [[[-79.034347, 34.951887], [-78.9029, 34.836871], [-78.870039, 34.48087], [-79.072686, 34.300131], [-79.450595, 34.623271], [-79.461548, 34.628748], [-79.346533, 34.836871], [-79.034347, 34.951887]]]}}, {"type": "Feature", "properties": {"name": "East Baton Rouge", "id": "22033", "FIPS": "22033", "FIPS State": 22, "ST": "LA", "County": "East Baton Rouge County,LA", "State": "Louisiana"}, "geometry": {"type": "Polygon", "coordinates": [[[-90.864538, 30.718212], [-90.848107, 30.718212], [-90.908354, 30.647012], [-90.891923, 30.34578], [-91.023369, 30.323872], [-91.143862, 30.323872], [-91.297217, 30.647012], [-90.864538, 30.718212]]]}}, {"type": "Feature", "properties": {"name": "Spotsylvania", "id": "51177", "FIPS": "51177", "FIPS State": 51, "ST": "VA", "County": "Spotsylvania County,VA", "State": "Virginia"}, "geometry": {"type": "Polygon", "coordinates": [[[-77.621296, 38.369498], [-77.528188, 38.309252], [-77.446034, 38.281867], [-77.369357, 38.249005], [-77.643204, 37.991589], [-77.68702, 38.00802], [-77.95539, 38.117559], [-77.703451, 38.358544], [-77.621296, 38.369498]]]}}, {"type": "Feature", "properties": {"name": "Kern", "id": "06029", "FIPS": "06029", "FIPS State": 6, "ST": "CA", "County": "Kern County,CA", "State": "California"}, "geometry": {"type": "Polygon", "coordinates": [[[-118.008255, 35.789859], [-117.630346, 35.795336], [-117.668684, 34.820441], [-118.884565, 34.793056], [-119.443213, 34.902595], [-119.470598, 34.902595], [-120.193554, 35.789859], [-119.536321, 35.789859], [-118.008255, 35.789859]]]}}, {"type": "Feature", "properties": {"name": "Mower", "id": "27099", "FIPS": "27099", "FIPS State": 27, "ST": "MN", "County": "Mower County,MN", "State": "Minnesota"}, "geometry": {"type": "Polygon", "coordinates": [[[-92.880052, 43.846438], [-92.688359, 43.846438], [-92.447374, 43.835484], [-92.447374, 43.501391], [-92.551436, 43.501391], [-93.022453, 43.501391], [-93.049837, 43.501391], [-93.049837, 43.846438], [-93.04436, 43.846438], [-92.880052, 43.846438]]]}}, {"type": "Feature", "properties": {"name": "Terry", "id": "48445", "FIPS": "48445", "FIPS State": 48, "ST": "TX", "County": "Terry County,TX", "State": "Texas"}, "geometry": {"type": "Polygon", "coordinates": [[[-102.366113, 33.390959], [-102.075835, 33.390959], [-102.075835, 32.958281], [-102.207282, 32.958281], [-102.596144, 32.958281], [-102.596144, 33.390959], [-102.366113, 33.390959]]]}}, {"type": "Feature", "properties": {"name": "Richland", "id": "45079", "FIPS": "45079", "FIPS State": 45, "ST": "SC", "County": "Richland County,SC", "State": "South Carolina"}, "geometry": {"type": "Polygon", "coordinates": [[[-80.863645, 34.261793], [-80.825307, 34.26727], [-80.617183, 34.097484], [-80.62266, 33.741483], [-81.011523, 33.878407], [-81.340139, 34.196069], [-81.318231, 34.239885], [-80.863645, 34.261793]]]}}, {"type": "Feature", "properties": {"name": "Polk", "id": "19153", "FIPS": "19153", "FIPS State": 19, "ST": "IA", "County": "Polk County,IA", "State": "Iowa"}, "geometry": {"type": "Polygon", "coordinates": [[[-93.772794, 41.863786], [-93.696116, 41.863786], [-93.345592, 41.863786], [-93.329161, 41.507785], [-93.329161, 41.491354], [-93.70707, 41.513262], [-93.789224, 41.513262], [-93.816609, 41.863786], [-93.772794, 41.863786]]]}}, {"type": "Feature", "properties": {"name": "Oneida", "id": "36065", "FIPS": "36065", "FIPS State": 36, "ST": "NY", "County": "Oneida County,NY", "State": "New York"}, "geometry": {"type": "Polygon", "coordinates": [[[-75.112858, 43.616407], [-75.211443, 42.882497], [-75.249781, 42.871543], [-75.885106, 43.156344], [-75.75366, 43.468529], [-75.112858, 43.616407]]]}}, {"type": "Feature", "properties": {"name": "Ontario", "id": "36069", "FIPS": "36069", "FIPS State": 36, "ST": "NY", "County": "Ontario County,NY", "State": "New York"}, "geometry": {"type": "Polygon", "coordinates": [[[-77.122895, 43.013943], [-76.964064, 43.013943], [-76.975017, 42.762004], [-77.36388, 42.575788], [-77.48985, 42.575788], [-77.582958, 42.942743], [-77.369357, 43.035851], [-77.122895, 43.013943]]]}}, {"type": "Feature", "properties": {"name": "Vigo", "id": "18167", "FIPS": "18167", "FIPS State": 18, "ST": "IN", "County": "Vigo County,IN", "State": "Indiana"}, "geometry": {"type": "Polygon", "coordinates": [[[-87.331912, 39.607286], [-87.200465, 39.607286], [-87.238804, 39.256762], [-87.578374, 39.256762], [-87.605759, 39.256762], [-87.529082, 39.47584], [-87.534558, 39.607286], [-87.381204, 39.607286], [-87.331912, 39.607286]]]}}, {"type": "Feature", "properties": {"name": "Cumberland", "id": "23005", "FIPS": "23005", "FIPS State": 23, "ST": "ME", "County": "Cumberland County,ME", "State": "Maine"}, "geometry": {"type": "Polygon", "coordinates": [[[-70.676536, 44.142193], [-70.479366, 44.032654], [-70.035734, 43.977885], [-69.887857, 43.775238], [-70.353397, 43.534253], [-70.780598, 43.813577], [-70.676536, 44.142193]]]}}, {"type": "Feature", "properties": {"name": "Santa Rosa", "id": "12113", "FIPS": "12113", "FIPS State": 12, "ST": "FL", "County": "Santa Rosa County,FL", "State": "Florida"}, "geometry": {"type": "Polygon", "coordinates": [[[-87.162127, 30.997536], [-86.784218, 30.997536], [-86.800648, 30.384119], [-86.921141, 30.373165], [-87.310004, 30.734643], [-87.162127, 30.997536]]]}}, {"type": "Feature", "properties": {"name": "Okaloosa", "id": "12091", "FIPS": "12091", "FIPS State": 12, "ST": "FL", "County": "Okaloosa County,FL", "State": "Florida"}, "geometry": {"type": "Polygon", "coordinates": [[[-86.685633, 30.992059], [-86.389878, 30.992059], [-86.395355, 30.378642], [-86.800648, 30.384119], [-86.784218, 30.997536], [-86.685633, 30.992059]]]}}, {"type": "Feature", "properties": {"name": "Lane", "id": "41039", "FIPS": "41039", "FIPS State": 41, "ST": "OR", "County": "Lane County,OR", "State": "Oregon"}, "geometry": {"type": "Polygon", "coordinates": [[[-124.010981, 44.279117], [-123.775473, 44.284593], [-123.200394, 44.284593], [-121.798297, 44.257209], [-122.000944, 43.616407], [-122.132391, 43.441145], [-123.107286, 43.53973], [-123.140148, 43.780715], [-123.824765, 43.945023], [-124.158859, 43.862869], [-124.115043, 44.27364], [-124.010981, 44.279117]]]}}, {"type": "Feature", "properties": {"name": "Lancaster", "id": "31109", "FIPS": "31109", "FIPS State": 31, "ST": "NE", "County": "Lancaster County,NE", "State": "Nebraska"}, "geometry": {"type": "Polygon", "coordinates": [[[-96.91108, 41.047722], [-96.461971, 41.01486], [-96.461971, 40.784829], [-96.461971, 40.521935], [-96.478402, 40.521935], [-96.91108, 40.521935], [-96.91108, 40.697198], [-96.91108, 41.047722], [-96.91108, 41.047722]]]}}, {"type": "Feature", "properties": {"name": "Stearns", "id": "27145", "FIPS": "27145", "FIPS State": 27, "ST": "MN", "County": "Stearns County,MN", "State": "Minnesota"}, "geometry": {"type": "Polygon", "coordinates": [[[-94.451934, 45.774321], [-94.271195, 45.774321], [-94.150702, 45.560721], [-94.046641, 45.423797], [-94.052118, 45.423797], [-94.260241, 45.281397], [-94.534088, 45.325212], [-94.76412, 45.325212], [-94.884612, 45.412843], [-95.131075, 45.412843], [-95.142029, 45.75789], [-95.142029, 45.774321], [-94.643627, 45.774321], [-94.451934, 45.774321]]]}}, {"type": "Feature", "properties": {"name": "Weber", "id": "49057", "FIPS": "49057", "FIPS State": 49, "ST": "UT", "County": "Weber County,UT", "State": "Utah"}, "geometry": {"type": "Polygon", "coordinates": [[[-111.655004, 41.4092], [-111.512603, 41.425631], [-111.419495, 41.359907], [-111.857651, 41.14083], [-112.011005, 41.151784], [-112.492976, 41.075106], [-111.885035, 41.425631], [-111.655004, 41.4092]]]}}, {"type": "Feature", "properties": {"name": "Greenville", "id": "45045", "FIPS": "45045", "FIPS State": 45, "ST": "SC", "County": "Greenville County,SC", "State": "South Carolina"}, "geometry": {"type": "Polygon", "coordinates": [[[-82.353373, 35.192872], [-82.216449, 35.198349], [-82.145249, 34.787579], [-82.315034, 34.486347], [-82.484819, 34.820441], [-82.621743, 35.066903], [-82.764143, 35.066903], [-82.572451, 35.14358], [-82.353373, 35.192872]]]}}, {"type": "Feature", "properties": {"name": "Franklin", "id": "25011", "FIPS": "25011", "FIPS State": 25, "ST": "MA", "County": "Franklin County,MA", "State": "Massachusetts"}, "geometry": {"type": "Polygon", "coordinates": [[[-73.020667, 42.740096], [-72.927559, 42.740096], [-72.456542, 42.729142], [-72.28128, 42.723665], [-72.314141, 42.345757], [-72.976851, 42.55388], [-73.020667, 42.740096]]]}}, {"type": "Feature", "properties": {"name": "Marshall", "id": "40095", "FIPS": "40095", "FIPS State": 40, "ST": "OK", "County": "Marshall County,OK", "State": "Oklahoma"}, "geometry": {"type": "Polygon", "coordinates": [[[-96.932988, 34.174162], [-96.587941, 34.113915], [-96.587941, 33.894838], [-96.932988, 33.955084], [-96.971327, 34.0701], [-96.932988, 34.174162]]]}}, {"type": "Feature", "properties": {"name": "Alachua", "id": "12001", "FIPS": "12001", "FIPS State": 12, "ST": "FL", "County": "Alachua County,FL", "State": "Florida"}, "geometry": {"type": "Polygon", "coordinates": [[[-82.506727, 29.940487], [-82.419096, 29.924056], [-82.052141, 29.715932], [-82.057618, 29.46947], [-82.408142, 29.485901], [-82.654605, 29.562578], [-82.660082, 29.830948], [-82.528635, 29.940487], [-82.506727, 29.940487]]]}}, {"type": "Feature", "properties": {"name": "Lucas", "id": "39095", "FIPS": "39095", "FIPS State": 39, "ST": "OH", "County": "Lucas County,OH", "State": "Ohio"}, "geometry": {"type": "Polygon", "coordinates": [[[-83.16396, 41.6228], [-83.180391, 41.6228], [-83.415899, 41.617324], [-83.881439, 41.414677], [-83.881439, 41.485877], [-83.881439, 41.721385], [-83.760947, 41.721385], [-83.454238, 41.732339], [-83.16396, 41.6228]]]}}, {"type": "Feature", "properties": {"name": "Dale", "id": "01045", "FIPS": "01045", "FIPS State": 1, "ST": "AL", "County": "Dale County,AL", "State": "Alabama"}, "geometry": {"type": "Polygon", "coordinates": [[[-85.694307, 31.61643], [-85.414983, 31.621907], [-85.414983, 31.315199], [-85.710737, 31.194706], [-85.792891, 31.194706], [-85.787415, 31.61643], [-85.749076, 31.61643], [-85.694307, 31.61643]]]}}, {"type": "Feature", "properties": {"name": "Eau Claire", "id": "55035", "FIPS": "55035", "FIPS State": 55, "ST": "WI", "County": "Eau Claire County,WI", "State": "Wisconsin"}, "geometry": {"type": "Polygon", "coordinates": [[[-91.499863, 44.859672], [-90.924785, 44.859672], [-90.924785, 44.596779], [-91.16577, 44.596779], [-91.286263, 44.596779], [-91.527248, 44.596779], [-91.647741, 44.596779], [-91.647741, 44.68441], [-91.653218, 44.854195], [-91.499863, 44.859672]]]}}, {"type": "Feature", "properties": {"name": "Buchanan", "id": "29021", "FIPS": "29021", "FIPS State": 29, "ST": "MO", "County": "Buchanan County,MO", "State": "Missouri"}, "geometry": {"type": "Polygon", "coordinates": [[[-94.769597, 39.820887], [-94.605288, 39.820887], [-94.599812, 39.749687], [-94.599812, 39.530609], [-95.10369, 39.530609], [-95.054398, 39.623717], [-94.879136, 39.820887], [-94.769597, 39.820887]]]}}, {"type": "Feature", "properties": {"name": "Miami", "id": "39109", "FIPS": "39109", "FIPS State": 39, "ST": "OH", "County": "Miami County,OH", "State": "Ohio"}, "geometry": {"type": "Polygon", "coordinates": [[[-84.22101, 40.198796], [-84.02384, 40.182365], [-84.034794, 40.039965], [-84.051224, 39.881133], [-84.155286, 39.924949], [-84.423656, 39.919472], [-84.43461, 40.198796], [-84.22101, 40.198796]]]}}, {"type": "Feature", "properties": {"name": "Kendall", "id": "17093", "FIPS": "17093", "FIPS State": 17, "ST": "IL", "County": "Kendall County,IL", "State": "Illinois"}, "geometry": {"type": "Polygon", "coordinates": [[[-88.262992, 41.726862], [-88.262992, 41.726862], [-88.252038, 41.463969], [-88.279422, 41.463969], [-88.597085, 41.458492], [-88.602562, 41.633754], [-88.602562, 41.721385], [-88.262992, 41.726862]]]}}, {"type": "Feature", "properties": {"name": "Galveston", "id": "48167", "FIPS": "48167", "FIPS State": 48, "ST": "TX", "County": "Galveston County,TX", "State": "Texas"}, "geometry": {"type": "MultiPolygon", "coordinates": [[[[-94.36978, 29.595439], [-94.36978, 29.557101], [-94.512181, 29.54067], [-94.36978, 29.595439]]], [[[-95.202275, 29.562578], [-95.016059, 29.557101], [-95.120121, 29.07513], [-95.218706, 29.557101], [-95.202275, 29.562578]]]]}}, {"type": "Feature", "properties": {"name": "Franklin", "id": "21073", "FIPS": "21073", "FIPS State": 21, "ST": "KY", "County": "Franklin County,KY", "State": "Kentucky"}, "geometry": {"type": "Polygon", "coordinates": [[[-84.861812, 38.358544], [-84.741319, 38.353067], [-84.724888, 38.194236], [-84.867289, 38.117559], [-84.998735, 38.128512], [-85.02612, 38.128512], [-84.998735, 38.336636], [-84.872765, 38.358544], [-84.861812, 38.358544]]]}}, {"type": "Feature", "properties": {"name": "Jessamine", "id": "21113", "FIPS": "21113", "FIPS State": 21, "ST": "KY", "County": "Jessamine County,KY", "State": "Kentucky"}, "geometry": {"type": "Polygon", "coordinates": [[[-84.659165, 38.002543], [-84.43461, 37.849189], [-84.527718, 37.767034], [-84.648211, 37.81085], [-84.713934, 37.816327], [-84.708457, 37.860142], [-84.659165, 38.002543]]]}}]}