{"type": "FeatureCollection", "crs": {"type": "name", "properties": {"name": "urn:ogc:def:crs:OGC:1.3:CRS84"}}, "features": [{"type": "Feature", "properties": {"name": "Indian River", "id": "12061", "FIPS": "12061", "FIPS State": 12, "ST": "FL", "County": "Indian River County,FL", "State": "Florida"}, "geometry": {"type": "Polygon", "coordinates": [[[-80.321428, 27.558018], [-80.677429, 27.558018], [-80.792445, 27.645649], [-80.874599, 27.640172], [-80.869122, 27.820911], [-80.447398, 27.859249], [-80.321428, 27.558018]]]}}, {"type": "Feature", "properties": {"name": "Washtenaw", "id": "26161", "FIPS": "26161", "FIPS State": 26, "ST": "MI", "County": "Washtenaw County,MI", "State": "Michigan"}, "geometry": {"type": "Polygon", "coordinates": [[[-83.552823, 42.433388], [-83.541869, 42.082863], [-83.7719, 42.082863], [-84.133379, 42.07191], [-84.133379, 42.422434], [-83.662362, 42.433388], [-83.552823, 42.433388]]]}}, {"type": "Feature", "properties": {"name": "Albany", "id": "36001", "FIPS": "36001", "FIPS State": 36, "ST": "NY", "County": "Albany County,NY", "State": "New York"}, "geometry": {"type": "Polygon", "coordinates": [[[-73.809346, 42.778435], [-73.677899, 42.783912], [-73.781961, 42.466249], [-74.252978, 42.406003], [-74.181778, 42.729142], [-73.809346, 42.778435]]]}}, {"type": "Feature", "properties": {"name": "Franklin", "id": "53021", "FIPS": "53021", "FIPS State": 53, "ST": "WA", "County": "Franklin County,WA", "State": "Washington"}, "geometry": {"type": "Polygon", "coordinates": [[[-119.213182, 46.738263], [-118.210901, 46.738263], [-118.216378, 46.590385], [-118.227332, 46.595862], [-118.698349, 46.371308], [-119.043396, 46.190569], [-119.454167, 46.678016], [-119.372013, 46.738263], [-119.213182, 46.738263]]]}}, {"type": "Feature", "properties": {"name": "Summit", "id": "39153", "FIPS": "39153", "FIPS State": 39, "ST": "OH", "County": "Summit County,OH", "State": "Ohio"}, "geometry": {"type": "Polygon", "coordinates": [[[-81.537309, 41.348953], [-81.389431, 41.348953], [-81.394908, 40.987475], [-81.646848, 40.916275], [-81.690663, 40.987475], [-81.685186, 41.277753], [-81.537309, 41.348953]]]}}, {"type": "Feature", "properties": {"name": "Scott", "id": "19163", "FIPS": "19163", "FIPS State": 19, "ST": "IA", "County": "Scott County,IA", "State": "Iowa"}, "geometry": {"type": "Polygon", "coordinates": [[[-90.798815, 41.770678], [-90.316844, 41.726862], [-90.787861, 41.453015], [-90.8974, 41.595416], [-90.8974, 41.770678], [-90.798815, 41.770678]]]}}, {"type": "Feature", "properties": {"name": "Horry", "id": "45051", "FIPS": "45051", "FIPS State": 45, "ST": "SC", "County": "Horry County,SC", "State": "South Carolina"}, "geometry": {"type": "Polygon", "coordinates": [[[-79.078163, 34.294654], [-79.072686, 34.300131], [-78.650961, 33.94413], [-78.541422, 33.851022], [-79.001485, 33.571698], [-79.187701, 33.703145], [-79.127455, 34.256316], [-79.078163, 34.294654]]]}}, {"type": "Feature", "properties": {"name": "Rockingham", "id": "33015", "FIPS": "33015", "FIPS State": 33, "ST": "NH", "County": "Rockingham County,NH", "State": "New Hampshire"}, "geometry": {"type": "Polygon", "coordinates": [[[-71.246138, 43.276836], [-70.818936, 43.123482], [-70.703921, 43.057759], [-70.818936, 42.871543], [-70.917521, 42.887974], [-71.246138, 42.740096], [-71.394015, 43.008466], [-71.246138, 43.276836]]]}}, {"type": "Feature", "properties": {"name": "Johnson", "id": "20091", "FIPS": "20091", "FIPS State": 20, "ST": "KS", "County": "Johnson County,KS", "State": "Kansas"}, "geometry": {"type": "Polygon", "coordinates": [[[-94.90652, 38.988392], [-94.605288, 39.043162], [-94.610765, 38.845992], [-94.610765, 38.736453], [-94.966767, 38.736453], [-95.054398, 38.736453], [-95.054398, 38.982915], [-94.90652, 38.988392]]]}}, {"type": "Feature", "properties": {"name": "Rockland", "id": "36087", "FIPS": "36087", "FIPS State": 36, "ST": "NY", "County": "Rockland County,NY", "State": "New York"}, "geometry": {"type": "Polygon", "coordinates": [[[-73.984608, 41.321569], [-73.8915, 40.998429], [-74.21464, 41.135353], [-74.236547, 41.14083], [-73.979131, 41.327046], [-73.984608, 41.321569]]]}}, {"type": "Feature", "properties": {"name": "Lancaster", "id": "42071", "FIPS": "42071", "FIPS State": 42, "ST": "PA", "County": "Lancaster County,PA", "State": "Pennsylvania"}, "geometry": {"type": "Polygon", "coordinates": [[[-76.306831, 40.253565], [-76.153476, 40.313812], [-75.874152, 40.13855], [-76.137046, 39.722302], [-76.235631, 39.722302], [-76.241107, 39.722302], [-76.723078, 40.122119], [-76.564247, 40.198796], [-76.306831, 40.253565]]]}}, {"type": "Feature", "properties": {"name": "Lorain", "id": "39093", "FIPS": "39093", "FIPS State": 39, "ST": "OH", "County": "Lorain County,OH", "State": "Ohio"}, "geometry": {"type": "Polygon", "coordinates": [[[-81.969987, 41.507785], [-81.876879, 41.277753], [-82.172634, 41.064153], [-82.336942, 41.064153], [-82.342419, 41.28323], [-82.347896, 41.431108], [-81.969987, 41.507785]]]}}, {"type": "Feature", "properties": {"name": "Gregg", "id": "48183", "FIPS": "48183", "FIPS State": 48, "ST": "TX", "County": "Gregg County,TX", "State": "Texas"}, "geometry": {"type": "Polygon", "coordinates": [[[-94.703873, 32.651572], [-94.577904, 32.394156], [-94.988674, 32.366771], [-94.988674, 32.536556], [-94.703873, 32.651572]]]}}, {"type": "Feature", "properties": {"name": "Anoka", "id": "27003", "FIPS": "27003", "FIPS State": 27, "ST": "MN", "County": "Anoka County,MN", "State": "Minnesota"}, "geometry": {"type": "Polygon", "coordinates": [[[-93.159376, 45.412843], [-93.016976, 45.412843], [-93.016976, 45.297827], [-93.022453, 45.122565], [-93.230576, 45.122565], [-93.2251, 45.034934], [-93.5099, 45.243058], [-93.5099, 45.412843], [-93.159376, 45.412843]]]}}, {"type": "Feature", "properties": {"name": "Hamilton", "id": "39061", "FIPS": "39061", "FIPS State": 39, "ST": "OH", "County": "Hamilton County,OH", "State": "Ohio"}, "geometry": {"type": "Polygon", "coordinates": [[[-84.598918, 39.306055], [-84.352456, 39.289624], [-84.259348, 39.273193], [-84.319594, 39.021254], [-84.50581, 39.092454], [-84.620826, 39.076023], [-84.817996, 39.103408], [-84.817996, 39.306055], [-84.598918, 39.306055]]]}}, {"type": "Feature", "properties": {"name": "Macomb", "id": "26099", "FIPS": "26099", "FIPS State": 26, "ST": "MI", "County": "Macomb County,MI", "State": "Michigan"}, "geometry": {"type": "Polygon", "coordinates": [[[-82.742236, 42.898928], [-82.703897, 42.685327], [-82.868205, 42.449818], [-82.879159, 42.449818], [-83.081806, 42.449818], [-83.098237, 42.887974], [-82.983221, 42.893451], [-82.742236, 42.898928]]]}}, {"type": "Feature", "properties": {"name": "El Paso", "id": "48141", "FIPS": "48141", "FIPS State": 48, "ST": "TX", "County": "El Paso County,TX", "State": "Texas"}, "geometry": {"type": "Polygon", "coordinates": [[[-105.997324, 31.999816], [-105.997324, 31.386399], [-106.528588, 31.786216], [-106.375233, 31.999816], [-105.997324, 31.999816]]]}}, {"type": "Feature", "properties": {"name": "Stanislaus", "id": "06099", "FIPS": "06099", "FIPS State": 6, "ST": "CA", "County": "Stanislaus County,CA", "State": "California"}, "geometry": {"type": "Polygon", "coordinates": [[[-120.921987, 37.805373], [-120.927464, 38.07922], [-120.653617, 37.832758], [-120.385247, 37.635588], [-120.385247, 37.635588], [-121.228696, 37.137186], [-121.475158, 37.482234], [-121.469681, 37.482234], [-120.921987, 37.805373]]]}}, {"type": "Feature", "properties": {"name": "Bucks", "id": "42017", "FIPS": "42017", "FIPS State": 42, "ST": "PA", "County": "Bucks County,PA", "State": "Pennsylvania"}, "geometry": {"type": "Polygon", "coordinates": [[[-75.195012, 40.609566], [-75.189535, 40.593136], [-74.943073, 40.341196], [-74.723995, 40.149503], [-74.975934, 40.050919], [-75.014273, 40.13855], [-75.48529, 40.417874], [-75.331935, 40.538366], [-75.195012, 40.609566]]]}}, {"type": "Feature", "properties": {"name": "Lackawanna", "id": "42069", "FIPS": "42069", "FIPS State": 42, "ST": "PA", "County": "Lackawanna County,PA", "State": "Pennsylvania"}, "geometry": {"type": "Polygon", "coordinates": [[[-75.720798, 41.644708], [-75.463382, 41.639231], [-75.507197, 41.233938], [-75.600305, 41.162737], [-75.835814, 41.425631], [-75.720798, 41.644708]]]}}, {"type": "Feature", "properties": {"name": "Loudoun", "id": "51107", "FIPS": "51107", "FIPS State": 51, "ST": "VA", "County": "Loudoun County,VA", "State": "Virginia"}, "geometry": {"type": "Polygon", "coordinates": [[[-77.719881, 39.322485], [-77.676066, 39.322485], [-77.456988, 39.218424], [-77.331019, 39.059592], [-77.533665, 38.845992], [-77.654158, 38.944577], [-77.960867, 39.015777], [-77.82942, 39.130793], [-77.719881, 39.322485]]]}}, {"type": "Feature", "properties": {"name": "Morris", "id": "34027", "FIPS": "34027", "FIPS State": 34, "ST": "NJ", "County": "Morris County,NJ", "State": "New Jersey"}, "geometry": {"type": "Polygon", "coordinates": [[[-74.504917, 41.08606], [-74.269409, 40.899844], [-74.28584, 40.894367], [-74.373471, 40.741013], [-74.461102, 40.67529], [-74.718518, 40.719105], [-74.723995, 40.719105], [-74.888303, 40.790306], [-74.76781, 40.910798], [-74.504917, 41.08606]]]}}, {"type": "Feature", "properties": {"name": "Westchester", "id": "36119", "FIPS": "36119", "FIPS State": 36, "ST": "NY", "County": "Westchester County,NY", "State": "New York"}, "geometry": {"type": "Polygon", "coordinates": [[[-73.661469, 41.35443], [-73.546453, 41.365384], [-73.655992, 40.987475], [-73.781961, 40.883413], [-73.918885, 40.916275], [-73.8915, 40.998429], [-73.984608, 41.321569], [-73.661469, 41.35443]]]}}, {"type": "Feature", "properties": {"name": "Montgomery", "id": "42091", "FIPS": "42091", "FIPS State": 42, "ST": "PA", "County": "Montgomery County,PA", "State": "Pennsylvania"}, "geometry": {"type": "Polygon", "coordinates": [[[-75.490767, 40.423351], [-75.48529, 40.417874], [-75.014273, 40.13855], [-75.025227, 40.133073], [-75.277166, 39.974241], [-75.353843, 40.056395], [-75.35932, 40.067349], [-75.676983, 40.242611], [-75.69889, 40.242611], [-75.529105, 40.445258], [-75.490767, 40.423351]]]}}, {"type": "Feature", "properties": {"name": "Hampden", "id": "25013", "FIPS": "25013", "FIPS State": 25, "ST": "MA", "County": "Hampden County,MA", "State": "Massachusetts"}, "geometry": {"type": "Polygon", "coordinates": [[[-72.998759, 42.312895], [-72.221033, 42.247172], [-72.133402, 42.028094], [-72.511311, 42.033571], [-73.009713, 42.039048], [-73.053528, 42.039048], [-72.998759, 42.312895], [-72.998759, 42.312895]]]}}, {"type": "Feature", "properties": {"name": "Rock Island", "id": "17161", "FIPS": "17161", "FIPS State": 17, "ST": "IL", "County": "Rock Island County,IL", "State": "Illinois"}, "geometry": {"type": "Polygon", "coordinates": [[[-90.240167, 41.781632], [-90.185398, 41.584462], [-90.43186, 41.327046], [-91.050754, 41.332523], [-91.072662, 41.332523], [-91.072662, 41.332523], [-90.787861, 41.453015], [-90.316844, 41.726862], [-90.240167, 41.781632]]]}}, {"type": "Feature", "properties": {"name": "Allen", "id": "18003", "FIPS": "18003", "FIPS State": 18, "ST": "IN", "County": "Allen County,IN", "State": "Indiana"}, "geometry": {"type": "Polygon", "coordinates": [[[-84.845381, 41.272276], [-84.801565, 41.272276], [-84.801565, 41.250368], [-84.801565, 40.987475], [-84.801565, 40.921752], [-84.878242, 40.921752], [-85.075412, 40.916275], [-85.108274, 40.916275], [-85.338305, 40.916275], [-85.332828, 41.003906], [-85.305444, 41.266799], [-85.190428, 41.266799], [-84.845381, 41.272276]]]}}, {"type": "Feature", "properties": {"name": "Arapahoe", "id": "08005", "FIPS": "08005", "FIPS State": 8, "ST": "CO", "County": "Arapahoe County,CO", "State": "Colorado"}, "geometry": {"type": "Polygon", "coordinates": [[[-104.830736, 39.738733], [-103.707963, 39.738733], [-103.707963, 39.568948], [-103.71344, 39.568948], [-104.195411, 39.563471], [-104.660951, 39.563471], [-104.989567, 39.568948], [-105.049814, 39.563471], [-105.055291, 39.623717], [-105.055291, 39.629194], [-105.055291, 39.629194], [-104.885506, 39.738733], [-104.830736, 39.738733]]]}}, {"type": "Feature", "properties": {"name": "Bernalillo", "id": "35001", "FIPS": "35001", "FIPS State": 35, "ST": "NM", "County": "Bernalillo County,NM", "State": "New Mexico"}, "geometry": {"type": "Polygon", "coordinates": [[[-107.196774, 35.220257], [-106.243787, 35.21478], [-106.243787, 35.039518], [-106.413572, 34.869733], [-107.065328, 34.957364], [-107.196774, 35.220257]]]}}, {"type": "Feature", "properties": {"name": "Delaware", "id": "42045", "FIPS": "42045", "FIPS State": 42, "ST": "PA", "County": "Delaware County,PA", "State": "Pennsylvania"}, "geometry": {"type": "Polygon", "coordinates": [[[-75.353843, 40.056395], [-75.277166, 39.974241], [-75.211443, 39.864703], [-75.414089, 39.804456], [-75.578398, 39.837318], [-75.594828, 39.837318], [-75.594828, 39.837318], [-75.35932, 40.067349], [-75.353843, 40.056395]]]}}, {"type": "Feature", "properties": {"name": "Chester", "id": "42029", "FIPS": "42029", "FIPS State": 42, "ST": "PA", "County": "Chester County,PA", "State": "Pennsylvania"}, "geometry": {"type": "Polygon", "coordinates": [[[-75.676983, 40.242611], [-75.35932, 40.067349], [-75.594828, 39.837318], [-75.786521, 39.722302], [-75.808429, 39.722302], [-76.137046, 39.722302], [-75.874152, 40.13855], [-75.69889, 40.242611], [-75.676983, 40.242611]]]}}, {"type": "Feature", "properties": {"name": "Mercer", "id": "34021", "FIPS": "34021", "FIPS State": 34, "ST": "NJ", "County": "Mercer County,NJ", "State": "New Jersey"}, "geometry": {"type": "Polygon", "coordinates": [[[-74.800672, 40.417874], [-74.745903, 40.423351], [-74.619933, 40.374058], [-74.48301, 40.253565], [-74.587071, 40.13855], [-74.702087, 40.182365], [-74.723995, 40.149503], [-74.943073, 40.341196], [-74.800672, 40.417874]]]}}, {"type": "Feature", "properties": {"name": "Camden", "id": "34007", "FIPS": "34007", "FIPS State": 34, "ST": "NJ", "County": "Camden County,NJ", "State": "New Jersey"}, "geometry": {"type": "Polygon", "coordinates": [[[-75.030704, 39.990672], [-74.734949, 39.727779], [-74.877349, 39.607286], [-75.140242, 39.88661], [-75.058088, 39.990672], [-75.030704, 39.990672]]]}}, {"type": "Feature", "properties": {"name": "Solano", "id": "06095", "FIPS": "06095", "FIPS State": 6, "ST": "CA", "County": "Solano County,CA", "State": "California"}, "geometry": {"type": "Polygon", "coordinates": [[[-121.738051, 38.539283], [-121.590174, 38.314728], [-121.864021, 38.068266], [-122.269314, 38.062789], [-122.406238, 38.15042], [-122.406238, 38.155897], [-122.105006, 38.511898], [-121.738051, 38.539283]]]}}, {"type": "Feature", "properties": {"name": "Douglas", "id": "31055", "FIPS": "31055", "FIPS State": 31, "ST": "NE", "County": "Douglas County,NE", "State": "Nebraska"}, "geometry": {"type": "Polygon", "coordinates": [[[-96.461971, 41.392769], [-96.330525, 41.392769], [-95.936185, 41.392769], [-95.925231, 41.190122], [-95.936185, 41.190122], [-96.325048, 41.190122], [-96.472925, 41.392769], [-96.461971, 41.392769]]]}}, {"type": "Feature", "properties": {"name": "Luzerne", "id": "42079", "FIPS": "42079", "FIPS State": 42, "ST": "PA", "County": "Luzerne County,PA", "State": "Pennsylvania"}, "geometry": {"type": "Polygon", "coordinates": [[[-75.835814, 41.425631], [-75.835814, 41.425631], [-75.600305, 41.162737], [-75.649598, 41.124399], [-75.687936, 41.129876], [-75.994645, 40.910798], [-76.208246, 40.949137], [-76.312308, 41.310615], [-76.284923, 41.376338], [-75.835814, 41.425631]]]}}, {"type": "Feature", "properties": {"name": "Pima", "id": "04019", "FIPS": "04019", "FIPS State": 4, "ST": "AZ", "County": "Pima County,AZ", "State": "Arizona"}, "geometry": {"type": "Polygon", "coordinates": [[[-110.696539, 32.514649], [-110.450077, 32.514649], [-110.450077, 32.427018], [-110.450077, 31.731446], [-110.789647, 31.731446], [-111.364726, 31.424737], [-113.336425, 32.038155], [-113.336425, 32.503695], [-112.202698, 32.509172], [-110.696539, 32.514649]]]}}, {"type": "Feature", "properties": {"name": "Snohomish", "id": "53061", "FIPS": "53061", "FIPS State": 53, "ST": "WA", "County": "Snohomish County,WA", "State": "Washington"}, "geometry": {"type": "Polygon", "coordinates": [[[-121.836636, 48.299191], [-121.004141, 48.293714], [-121.119157, 47.778881], [-121.234173, 47.778881], [-122.395284, 47.778881], [-122.395284, 48.227991], [-122.406238, 48.249898], [-122.378853, 48.299191], [-121.836636, 48.299191]]]}}, {"type": "Feature", "properties": {"name": "Passaic", "id": "34031", "FIPS": "34031", "FIPS State": 34, "ST": "NJ", "County": "Passaic County,NJ", "State": "New Jersey"}, "geometry": {"type": "Polygon", "coordinates": [[[-74.367994, 41.201076], [-74.236547, 41.14083], [-74.21464, 41.135353], [-74.132485, 40.81769], [-74.269409, 40.899844], [-74.504917, 41.08606], [-74.367994, 41.201076]]]}}, {"type": "Feature", "properties": {"name": "Washington", "id": "41067", "FIPS": "41067", "FIPS State": 41, "ST": "OR", "County": "Washington County,OR", "State": "Oregon"}, "geometry": {"type": "Polygon", "coordinates": [[[-123.134671, 45.779798], [-122.926547, 45.725029], [-122.745808, 45.434751], [-122.866301, 45.319735], [-123.063471, 45.401889], [-123.463287, 45.434751], [-123.359225, 45.779798], [-123.134671, 45.779798]]]}}, {"type": "Feature", "properties": {"name": "Pierce", "id": "53053", "FIPS": "53053", "FIPS State": 53, "ST": "WA", "County": "Pierce County,WA", "State": "Washington"}, "geometry": {"type": "Polygon", "coordinates": [[[-122.800578, 47.406449], [-122.537684, 47.400973], [-122.537684, 47.357157], [-122.417192, 47.318818], [-121.38205, 47.088787], [-121.45325, 46.782078], [-122.203591, 46.760171], [-122.822485, 47.192849], [-122.800578, 47.406449]]]}}, {"type": "Feature", "properties": {"name": "El Dorado", "id": "06017", "FIPS": "06017", "FIPS State": 6, "ST": "CA", "County": "El Dorado County,CA", "State": "California"}, "geometry": {"type": "Polygon", "coordinates": [[[-120.001861, 39.065069], [-119.903276, 38.933623], [-120.073061, 38.703591], [-121.026049, 38.506421], [-121.141065, 38.714545], [-121.04248, 38.917192], [-120.001861, 39.065069]]]}}, {"type": "Feature", "properties": {"name": "Bristol", "id": "25005", "FIPS": "25005", "FIPS State": 25, "ST": "MA", "County": "Bristol County,MA", "State": "Massachusetts"}, "geometry": {"type": "Polygon", "coordinates": [[[-71.08183, 42.093817], [-71.08183, 42.093817], [-70.840844, 41.628277], [-71.120168, 41.496831], [-71.196845, 41.67757], [-71.22423, 41.710431], [-71.317338, 41.776155], [-71.383061, 41.984279], [-71.08183, 42.093817]]]}}, {"type": "Feature", "properties": {"name": "Prince William", "id": "51153", "FIPS": "51153", "FIPS State": 51, "ST": "VA", "County": "Prince William County,VA", "State": "Virginia"}, "geometry": {"type": "Polygon", "coordinates": [[[-77.654158, 38.944577], [-77.533665, 38.845992], [-77.22148, 38.637868], [-77.303634, 38.506421], [-77.533665, 38.555714], [-77.654158, 38.944577]]]}}, {"type": "Feature", "properties": {"name": "New Castle", "id": "10003", "FIPS": "10003", "FIPS State": 10, "ST": "DE", "County": "New Castle County,DE", "State": "Delaware"}, "geometry": {"type": "Polygon", "coordinates": [[[-75.414089, 39.804456], [-75.446951, 39.771595], [-75.507197, 39.683964], [-75.512674, 39.366301], [-75.616736, 39.311532], [-75.759137, 39.295101], [-75.764614, 39.377255], [-75.786521, 39.722302], [-75.594828, 39.837318], [-75.594828, 39.837318], [-75.578398, 39.837318], [-75.414089, 39.804456]]]}}]}