{"type": "FeatureCollection", "crs": {"type": "name", "properties": {"name": "urn:ogc:def:crs:OGC:1.3:CRS84"}}, "features": [{"type": "Feature", "properties": {"name": "Bell", "id": "21013", "FIPS": "21013", "FIPS State": 21, "ST": "KY", "County": "Bell County,KY", "State": "Kentucky"}, "geometry": {"type": "Polygon", "coordinates": [[[-83.509007, 36.940016], [-83.492576, 36.896201], [-83.459715, 36.666169], [-83.673316, 36.600446], [-83.930732, 36.589492], [-83.875962, 36.688077], [-83.591161, 36.956447], [-83.509007, 36.940016]]]}}, {"type": "Feature", "properties": {"name": "Whitfield", "id": "13313", "FIPS": "13313", "FIPS State": 13, "ST": "GA", "County": "Whitfield County,GA", "State": "Georgia"}, "geometry": {"type": "Polygon", "coordinates": [[[-84.976827, 34.990226], [-84.812519, 34.990226], [-84.916581, 34.634225], [-85.048028, 34.623271], [-85.146612, 34.765671], [-84.982304, 34.990226], [-84.976827, 34.990226]]]}}, {"type": "Feature", "properties": {"name": "Montezuma", "id": "08083", "FIPS": "08083", "FIPS State": 8, "ST": "CO", "County": "Montezuma County,CO", "State": "Colorado"}, "geometry": {"type": "Polygon", "coordinates": [[[-107.9745, 37.641065], [-108.379794, 37.000263], [-109.042503, 37.000263], [-109.042503, 37.482234], [-107.9745, 37.641065]]]}}, {"type": "Feature", "properties": {"name": "Polk", "id": "48373", "FIPS": "48373", "FIPS State": 48, "ST": "TX", "County": "Polk County,TX", "State": "Texas"}, "geometry": {"type": "Polygon", "coordinates": [[[-94.813412, 31.13446], [-94.561473, 31.057782], [-94.545042, 30.526519], [-94.731258, 30.488181], [-94.851751, 30.493658], [-95.202275, 30.822274], [-94.840797, 31.145414], [-94.813412, 31.13446]]]}}, {"type": "Feature", "properties": {"name": "Pointe Coupee", "id": "22077", "FIPS": "22077", "FIPS State": 22, "ST": "LA", "County": "Pointe Coupee County,LA", "State": "Louisiana"}, "geometry": {"type": "Polygon", "coordinates": [[[-91.762756, 31.00849], [-91.751803, 31.019444], [-91.658695, 30.992059], [-91.664172, 30.970151], [-91.330078, 30.657966], [-91.483432, 30.499135], [-91.521771, 30.499135], [-91.70251, 30.499135], [-91.75728, 30.499135], [-91.817526, 30.849659], [-91.762756, 31.00849]]]}}, {"type": "Feature", "properties": {"name": "Maui", "id": "15009", "FIPS": "15009", "FIPS State": 15, "ST": "HI", "County": "Maui County,HI", "State": "Hawaii"}, "geometry": {"type": "Polygon", "coordinates": [[[-156.587823, 21.029505], [-156.00179, 20.793996], [-156.379699, 20.580396], [-156.587823, 21.029505]]]}}, {"type": "Feature", "properties": {"name": "Colbert", "id": "01033", "FIPS": "01033", "FIPS State": 1, "ST": "AL", "County": "Colbert County,AL", "State": "Alabama"}, "geometry": {"type": "Polygon", "coordinates": [[[-88.098683, 34.891641], [-87.42502, 34.798533], [-87.529082, 34.568501], [-88.142499, 34.579455], [-88.098683, 34.891641]]]}}, {"type": "Feature", "properties": {"name": "Decatur", "id": "18031", "FIPS": "18031", "FIPS State": 18, "ST": "IN", "County": "Decatur County,IN", "State": "Indiana"}, "geometry": {"type": "Polygon", "coordinates": [[[-85.299967, 39.453932], [-85.29449, 39.267716], [-85.442367, 39.196516], [-85.68883, 39.130793], [-85.683353, 39.34987], [-85.628583, 39.453932], [-85.299967, 39.453932]]]}}, {"type": "Feature", "properties": {"name": "Hickman", "id": "47081", "FIPS": "47081", "FIPS State": 47, "ST": "TN", "County": "Hickman County,TN", "State": "Tennessee"}, "geometry": {"type": "Polygon", "coordinates": [[[-87.512651, 35.992506], [-87.205942, 35.959644], [-87.216896, 35.850105], [-87.337389, 35.658412], [-87.660528, 35.60912], [-87.720774, 35.795336], [-87.715298, 35.839151], [-87.534558, 35.992506], [-87.512651, 35.992506]]]}}, {"type": "Feature", "properties": {"name": "Fayette", "id": "47047", "FIPS": "47047", "FIPS State": 47, "ST": "TN", "County": "Fayette County,TN", "State": "Tennessee"}, "geometry": {"type": "Polygon", "coordinates": [[[-89.550073, 35.400996], [-89.473395, 35.400996], [-89.183118, 35.395519], [-89.199548, 34.995703], [-89.352903, 34.995703], [-89.643181, 34.995703], [-89.632227, 35.373611], [-89.550073, 35.400996]]]}}, {"type": "Feature", "properties": {"name": "Monroe", "id": "12087", "FIPS": "12087", "FIPS State": 12, "ST": "FL", "County": "Monroe County,FL", "State": "Florida"}, "geometry": {"type": "Polygon", "coordinates": [[[-80.874599, 25.805397], [-80.858168, 25.175549], [-81.077246, 25.120779], [-81.345616, 25.805397], [-80.874599, 25.805397]]]}}, {"type": "Feature", "properties": {"name": "Tuolumne", "id": "06109", "FIPS": "06109", "FIPS State": 6, "ST": "CA", "County": "Tuolumne County,CA", "State": "California"}, "geometry": {"type": "Polygon", "coordinates": [[[-120.045677, 38.424267], [-120.018292, 38.435221], [-119.640383, 38.325682], [-119.267951, 37.73965], [-119.30629, 37.777988], [-120.084015, 37.827281], [-120.385247, 37.635588], [-120.653617, 37.832758], [-120.045677, 38.424267]]]}}, {"type": "Feature", "properties": {"name": "Clark", "id": "21049", "FIPS": "21049", "FIPS State": 21, "ST": "KY", "County": "Clark County,KY", "State": "Kentucky"}, "geometry": {"type": "Polygon", "coordinates": [[[-84.078609, 38.117559], [-83.96907, 37.931343], [-83.990978, 37.914912], [-84.001932, 37.838235], [-84.078609, 37.854665], [-84.270302, 37.914912], [-84.336025, 37.893004], [-84.286733, 38.068266], [-84.078609, 38.117559]]]}}, {"type": "Feature", "properties": {"name": "Lenoir", "id": "37107", "FIPS": "37107", "FIPS State": 37, "ST": "NC", "County": "Lenoir County,NC", "State": "North Carolina"}, "geometry": {"type": "Polygon", "coordinates": [[[-77.446034, 35.379088], [-77.391265, 35.34075], [-77.473419, 35.231211], [-77.730835, 35.006656], [-77.834897, 35.176442], [-77.807512, 35.368135], [-77.473419, 35.428381], [-77.446034, 35.379088]]]}}, {"type": "Feature", "properties": {"name": "Blair", "id": "42013", "FIPS": "42013", "FIPS State": 42, "ST": "PA", "County": "Blair County,PA", "State": "Pennsylvania"}, "geometry": {"type": "Polygon", "coordinates": [[[-78.360683, 40.735536], [-78.114221, 40.741013], [-78.256622, 40.297381], [-78.6181, 40.324766], [-78.349729, 40.724582], [-78.360683, 40.735536]]]}}, {"type": "Feature", "properties": {"name": "Coles", "id": "17029", "FIPS": "17029", "FIPS State": 17, "ST": "IL", "County": "Coles County,IL", "State": "Illinois"}, "geometry": {"type": "Polygon", "coordinates": [[[-88.065822, 39.651102], [-87.967237, 39.683964], [-87.96176, 39.481317], [-88.011052, 39.377255], [-88.142499, 39.377255], [-88.471115, 39.371778], [-88.471115, 39.448455], [-88.471115, 39.651102], [-88.065822, 39.651102]]]}}, {"type": "Feature", "properties": {"name": "Whitley", "id": "18183", "FIPS": "18183", "FIPS State": 18, "ST": "IN", "County": "Whitley County,IN", "State": "Indiana"}, "geometry": {"type": "Polygon", "coordinates": [[[-85.650491, 41.294184], [-85.305444, 41.266799], [-85.332828, 41.003906], [-85.376644, 41.003906], [-85.645014, 41.003906], [-85.683353, 41.047722], [-85.650491, 41.294184]]]}}, {"type": "Feature", "properties": {"name": "Sussex", "id": "10005", "FIPS": "10005", "FIPS State": 10, "ST": "DE", "County": "Sussex County,DE", "State": "Delaware"}, "geometry": {"type": "Polygon", "coordinates": [[[-75.047134, 38.451652], [-75.342889, 38.451652], [-75.69889, 38.561191], [-75.709844, 38.637868], [-75.720798, 38.829561], [-75.310028, 38.944577], [-75.047134, 38.451652]]]}}, {"type": "Feature", "properties": {"name": "Lincoln", "id": "29113", "FIPS": "29113", "FIPS State": 29, "ST": "MO", "County": "Lincoln County,MO", "State": "Missouri"}, "geometry": {"type": "Polygon", "coordinates": [[[-91.149339, 39.229378], [-90.722138, 39.223901], [-90.667368, 38.933623], [-90.957646, 38.873376], [-91.111001, 38.895284], [-91.264355, 38.993869], [-91.258878, 39.141746], [-91.149339, 39.229378]]]}}, {"type": "Feature", "properties": {"name": "Dallas", "id": "19049", "FIPS": "19049", "FIPS State": 19, "ST": "IA", "County": "Dallas County,IA", "State": "Iowa"}, "geometry": {"type": "Polygon", "coordinates": [[[-93.816609, 41.863786], [-93.789224, 41.513262], [-93.822086, 41.507785], [-94.24381, 41.502308], [-94.282149, 41.863786], [-94.161656, 41.863786], [-93.816609, 41.863786]]]}}, {"type": "Feature", "properties": {"name": "Etowah", "id": "01055", "FIPS": "01055", "FIPS State": 1, "ST": "AL", "County": "Etowah County,AL", "State": "Alabama"}, "geometry": {"type": "Polygon", "coordinates": [[[-86.105077, 34.201546], [-85.842184, 34.201546], [-85.738122, 33.966038], [-86.066738, 33.840068], [-86.291293, 33.982469], [-86.324155, 33.938653], [-86.302247, 34.097484], [-86.105077, 34.201546]]]}}, {"type": "Feature", "properties": {"name": "Lewis", "id": "36049", "FIPS": "36049", "FIPS State": 36, "ST": "NY", "County": "Lewis County,NY", "State": "New York"}, "geometry": {"type": "Polygon", "coordinates": [[[-75.446951, 44.21887], [-75.167627, 44.098377], [-75.112858, 43.616407], [-75.75366, 43.468529], [-75.775568, 43.687607], [-75.446951, 44.21887]]]}}, {"type": "Feature", "properties": {"name": "Effingham", "id": "13103", "FIPS": "13103", "FIPS State": 13, "ST": "GA", "County": "Effingham County,GA", "State": "Georgia"}, "geometry": {"type": "Polygon", "coordinates": [[[-81.389431, 32.596803], [-81.279893, 32.558464], [-81.148446, 32.224371], [-81.1594, 32.229848], [-81.389431, 32.098401], [-81.42777, 32.235325], [-81.433247, 32.240802], [-81.548263, 32.487264], [-81.389431, 32.596803]]]}}, {"type": "Feature", "properties": {"name": "Jasper", "id": "18073", "FIPS": "18073", "FIPS State": 18, "ST": "IN", "County": "Jasper County,IN", "State": "Indiana"}, "geometry": {"type": "Polygon", "coordinates": [[[-87.036157, 41.255845], [-86.932095, 41.239415], [-86.932095, 41.173691], [-86.932095, 40.910798], [-87.096403, 40.735536], [-87.266188, 40.735536], [-87.277142, 41.21203], [-87.277142, 41.217507], [-87.216896, 41.239415], [-87.036157, 41.255845]]]}}, {"type": "Feature", "properties": {"name": "Fauquier", "id": "51061", "FIPS": "51061", "FIPS State": 51, "ST": "VA", "County": "Fauquier County,VA", "State": "Virginia"}, "geometry": {"type": "Polygon", "coordinates": [[[-77.960867, 39.015777], [-77.654158, 38.944577], [-77.533665, 38.555714], [-77.637727, 38.407836], [-77.933482, 38.698114], [-78.130652, 38.862422], [-78.004682, 38.977438], [-77.960867, 39.015777]]]}}, {"type": "Feature", "properties": {"name": "Hunt", "id": "48231", "FIPS": "48231", "FIPS State": 48, "ST": "TX", "County": "Hunt County,TX", "State": "Texas"}, "geometry": {"type": "Polygon", "coordinates": [[[-95.859508, 33.40739], [-95.859508, 33.221174], [-95.864985, 32.980189], [-95.936185, 32.837788], [-96.062155, 32.837788], [-96.078585, 32.837788], [-96.297663, 32.843265], [-96.297663, 32.980189], [-96.297663, 33.35262], [-95.859508, 33.40739]]]}}, {"type": "Feature", "properties": {"name": "Ransom", "id": "38073", "FIPS": "38073", "FIPS State": 38, "ST": "ND", "County": "Ransom County,ND", "State": "North Dakota"}, "geometry": {"type": "Polygon", "coordinates": [[[-97.957176, 46.628724], [-97.683329, 46.628724], [-97.278035, 46.628724], [-97.278035, 46.283677], [-98.006468, 46.283677], [-98.033853, 46.283677], [-98.033853, 46.628724], [-97.957176, 46.628724]]]}}, {"type": "Feature", "properties": {"name": "Houghton", "id": "26061", "FIPS": "26061", "FIPS State": 26, "ST": "MI", "County": "Houghton County,MI", "State": "Michigan"}, "geometry": {"type": "Polygon", "coordinates": [[[-88.383484, 47.285957], [-88.23013, 47.198326], [-88.449208, 46.94091], [-88.679239, 46.4206], [-88.712101, 46.4206], [-88.991425, 46.4206], [-88.931178, 47.034018], [-88.514931, 47.285957], [-88.383484, 47.285957]]]}}, {"type": "Feature", "properties": {"name": "Washington", "id": "12133", "FIPS": "12133", "FIPS State": 12, "ST": "FL", "County": "Washington County,FL", "State": "Florida"}, "geometry": {"type": "Polygon", "coordinates": [[[-85.601199, 30.833228], [-85.43689, 30.570335], [-85.990061, 30.389596], [-85.842184, 30.701781], [-85.601199, 30.833228]]]}}, {"type": "Feature", "properties": {"name": "Union", "id": "42119", "FIPS": "42119", "FIPS State": 42, "ST": "PA", "County": "Union County,PA", "State": "Pennsylvania"}, "geometry": {"type": "Polygon", "coordinates": [[[-77.144803, 41.069629], [-76.89834, 41.14083], [-76.799755, 40.883413], [-76.854525, 40.88889], [-77.358403, 40.806736], [-77.36388, 40.845075], [-77.144803, 41.042245], [-77.144803, 41.069629]]]}}, {"type": "Feature", "properties": {"name": "Newton", "id": "29145", "FIPS": "29145", "FIPS State": 29, "ST": "MO", "County": "Newton County,MO", "State": "Missouri"}, "geometry": {"type": "Polygon", "coordinates": [[[-94.616242, 37.055032], [-94.616242, 37.055032], [-94.057594, 37.049555], [-94.063071, 36.929063], [-94.068548, 36.748324], [-94.539565, 36.764754], [-94.616242, 36.764754], [-94.616242, 37.000263], [-94.616242, 37.055032]]]}}, {"type": "Feature", "properties": {"name": "Tioga", "id": "42117", "FIPS": "42117", "FIPS State": 42, "ST": "PA", "County": "Tioga County,PA", "State": "Pennsylvania"}, "geometry": {"type": "Polygon", "coordinates": [[[-76.925725, 42.000709], [-76.876433, 41.595416], [-77.599389, 41.540646], [-77.610343, 42.000709], [-76.964064, 42.000709], [-76.925725, 42.000709]]]}}, {"type": "Feature", "properties": {"name": "York", "id": "51199", "FIPS": "51199", "FIPS State": 51, "ST": "VA", "County": "York County,VA", "State": "Virginia"}, "geometry": {"type": "Polygon", "coordinates": [[[-76.657355, 37.378172], [-76.498524, 37.241248], [-76.399939, 37.164571], [-76.394462, 37.104325], [-76.4328, 37.093371], [-76.55877, 37.213863], [-76.591632, 37.213863], [-76.679263, 37.268633], [-76.728555, 37.306971], [-76.657355, 37.378172]]]}}, {"type": "Feature", "properties": {"name": "Wise", "id": "48497", "FIPS": "48497", "FIPS State": 48, "ST": "TX", "County": "Wise County,TX", "State": "Texas"}, "geometry": {"type": "Polygon", "coordinates": [[[-97.50259, 33.434775], [-97.486159, 33.434775], [-97.382097, 33.429298], [-97.398528, 32.991142], [-97.535452, 32.996619], [-97.546405, 32.996619], [-97.924314, 33.002096], [-97.918837, 33.434775], [-97.50259, 33.434775]]]}}, {"type": "Feature", "properties": {"name": "Shelby", "id": "39149", "FIPS": "39149", "FIPS State": 39, "ST": "OH", "County": "Shelby County,OH", "State": "Ohio"}, "geometry": {"type": "Polygon", "coordinates": [[[-84.105994, 40.483597], [-84.001932, 40.483597], [-84.012886, 40.275473], [-84.02384, 40.182365], [-84.22101, 40.198796], [-84.43461, 40.198796], [-84.43461, 40.35215], [-84.43461, 40.35215], [-84.105994, 40.483597]]]}}, {"type": "Feature", "properties": {"name": "Macon", "id": "17115", "FIPS": "17115", "FIPS State": 17, "ST": "IL", "County": "Macon County,IL", "State": "Illinois"}, "geometry": {"type": "Polygon", "coordinates": [[[-88.805209, 40.056395], [-88.744962, 40.056395], [-88.744962, 39.793502], [-88.761393, 39.793502], [-88.810686, 39.651102], [-89.024286, 39.656579], [-89.215979, 39.81541], [-89.215979, 39.919472], [-89.144779, 40.050919], [-88.805209, 40.056395]]]}}, {"type": "Feature", "properties": {"name": "Cottonwood", "id": "27033", "FIPS": "27033", "FIPS State": 27, "ST": "MN", "County": "Cottonwood County,MN", "State": "Minnesota"}, "geometry": {"type": "Polygon", "coordinates": [[[-95.459691, 44.196962], [-95.109167, 44.196962], [-94.857228, 44.109331], [-94.857228, 43.846438], [-95.114644, 43.846438], [-95.454214, 43.846438], [-95.465168, 43.846438], [-95.459691, 44.196962]]]}}, {"type": "Feature", "properties": {"name": "Clay", "id": "29047", "FIPS": "29047", "FIPS State": 29, "ST": "MO", "County": "Clay County,MO", "State": "Missouri"}, "geometry": {"type": "Polygon", "coordinates": [[[-94.56695, 39.453932], [-94.210949, 39.453932], [-94.210949, 39.20747], [-94.419073, 39.147223], [-94.605288, 39.114362], [-94.599812, 39.158177], [-94.599812, 39.453932], [-94.56695, 39.453932]]]}}, {"type": "Feature", "properties": {"name": "Wyoming", "id": "42131", "FIPS": "42131", "FIPS State": 42, "ST": "PA", "County": "Wyoming County,PA", "State": "Pennsylvania"}, "geometry": {"type": "Polygon", "coordinates": [[[-76.2192, 41.540646], [-76.115138, 41.650185], [-75.720798, 41.644708], [-75.835814, 41.425631], [-75.835814, 41.425631], [-76.284923, 41.376338], [-76.2192, 41.540646]]]}}, {"type": "Feature", "properties": {"name": "Dubuque", "id": "19061", "FIPS": "19061", "FIPS State": 19, "ST": "IA", "County": "Dubuque County,IA", "State": "Iowa"}, "geometry": {"type": "Polygon", "coordinates": [[[-90.8974, 42.657942], [-90.8974, 42.674373], [-90.639984, 42.510065], [-90.475675, 42.384095], [-90.8974, 42.296464], [-91.127431, 42.296464], [-91.132908, 42.646988], [-90.8974, 42.657942]]]}}, {"type": "Feature", "properties": {"name": "Wilson", "id": "37195", "FIPS": "37195", "FIPS State": 37, "ST": "NC", "County": "Wilson County,NC", "State": "North Carolina"}, "geometry": {"type": "Polygon", "coordinates": [[[-77.82942, 35.866536], [-77.659635, 35.674843], [-77.697974, 35.652935], [-77.823943, 35.570781], [-78.064929, 35.587212], [-78.190898, 35.729613], [-77.82942, 35.866536], [-77.82942, 35.866536]]]}}, {"type": "Feature", "properties": {"name": "Roane", "id": "47145", "FIPS": "47145", "FIPS State": 47, "ST": "TN", "County": "Roane County,TN", "State": "Tennessee"}, "geometry": {"type": "Polygon", "coordinates": [[[-84.582488, 35.641982], [-84.620826, 35.641982], [-84.724888, 35.75152], [-84.768704, 35.80629], [-84.779657, 35.822721], [-84.681073, 35.910352], [-84.341502, 36.047275], [-84.270302, 35.910352], [-84.264825, 35.899398], [-84.582488, 35.641982]]]}}, {"type": "Feature", "properties": {"name": "Clark", "id": "39023", "FIPS": "39023", "FIPS State": 39, "ST": "OH", "County": "Clark County,OH", "State": "Ohio"}, "geometry": {"type": "Polygon", "coordinates": [[[-84.034794, 40.039965], [-83.514484, 40.01258], [-83.645931, 39.771595], [-84.029317, 39.848272], [-84.051224, 39.848272], [-84.051224, 39.881133], [-84.034794, 40.039965]]]}}, {"type": "Feature", "properties": {"name": "Waupaca", "id": "55135", "FIPS": "55135", "FIPS State": 55, "ST": "WI", "County": "Waupaca County,WI", "State": "Wisconsin"}, "geometry": {"type": "Polygon", "coordinates": [[[-89.221456, 44.678933], [-88.608039, 44.591302], [-88.739485, 44.240778], [-88.887363, 44.240778], [-89.226933, 44.246255], [-89.221456, 44.678933]]]}}]}