{"type": "FeatureCollection", "crs": {"type": "name", "properties": {"name": "urn:ogc:def:crs:OGC:1.3:CRS84"}}, "features": [{"type": "Feature", "properties": {"name": "Daviess", "id": "21059", "FIPS": "21059", "FIPS State": 21, "ST": "KY", "County": "Daviess County,KY", "State": "Kentucky"}, "geometry": {"type": "Polygon", "coordinates": [[[-87.266188, 37.876573], [-86.981388, 37.931343], [-86.822556, 37.73965], [-87.036157, 37.558911], [-87.408589, 37.68488], [-87.304527, 37.898481], [-87.266188, 37.876573]]]}}, {"type": "Feature", "properties": {"name": "Cheyenne", "id": "31033", "FIPS": "31033", "FIPS State": 31, "ST": "NE", "County": "Cheyenne County,NE", "State": "Nebraska"}, "geometry": {"type": "Polygon", "coordinates": [[[-102.754976, 41.436584], [-102.634483, 41.436584], [-102.612575, 41.222984], [-102.623529, 41.003906], [-102.650914, 41.003906], [-103.384824, 41.003906], [-103.379347, 41.392769], [-103.368393, 41.436584], [-102.754976, 41.436584]]]}}, {"type": "Feature", "properties": {"name": "Sequoyah", "id": "40135", "FIPS": "40135", "FIPS State": 40, "ST": "OK", "County": "Sequoyah County,OK", "State": "Oklahoma"}, "geometry": {"type": "Polygon", "coordinates": [[[-94.851751, 35.636505], [-94.807935, 35.636505], [-94.473842, 35.636505], [-94.430026, 35.395519], [-94.430026, 35.379088], [-94.813412, 35.324319], [-95.048921, 35.461243], [-95.125598, 35.636505], [-94.851751, 35.636505]]]}}, {"type": "Feature", "properties": {"name": "Chelan", "id": "53007", "FIPS": "53007", "FIPS State": 53, "ST": "WA", "County": "Chelan County,WA", "State": "Washington"}, "geometry": {"type": "Polygon", "coordinates": [[[-120.702909, 48.529222], [-119.870414, 47.95962], [-120.319524, 47.455742], [-120.094969, 47.264049], [-121.11368, 47.598142], [-121.119157, 47.778881], [-121.004141, 48.293714], [-120.702909, 48.529222]]]}}, {"type": "Feature", "properties": {"name": "Amador", "id": "06005", "FIPS": "06005", "FIPS State": 6, "ST": "CA", "County": "Amador County,CA", "State": "California"}, "geometry": {"type": "Polygon", "coordinates": [[[-120.073061, 38.698114], [-120.073061, 38.511898], [-120.993187, 38.227097], [-121.026049, 38.298298], [-121.026049, 38.506421], [-120.073061, 38.703591], [-120.073061, 38.698114]]]}}, {"type": "Feature", "properties": {"name": "Lebanon", "id": "42075", "FIPS": "42075", "FIPS State": 42, "ST": "PA", "County": "Lebanon County,PA", "State": "Pennsylvania"}, "geometry": {"type": "Polygon", "coordinates": [[[-76.536862, 40.554797], [-76.438277, 40.494551], [-76.153476, 40.313812], [-76.306831, 40.253565], [-76.564247, 40.198796], [-76.536862, 40.554797]]]}}, {"type": "Feature", "properties": {"name": "Genesee", "id": "36037", "FIPS": "36037", "FIPS State": 36, "ST": "NY", "County": "Genesee County,NY", "State": "New York"}, "geometry": {"type": "Polygon", "coordinates": [[[-77.906097, 43.128959], [-77.911574, 42.986559], [-77.95539, 42.860589], [-78.09779, 42.871543], [-78.464745, 42.866066], [-78.464745, 43.09062], [-78.464745, 43.128959], [-77.999205, 43.134436], [-77.906097, 43.128959]]]}}, {"type": "Feature", "properties": {"name": "Wood", "id": "54107", "FIPS": "54107", "FIPS State": 54, "ST": "WV", "County": "Wood County,WV", "State": "West Virginia"}, "geometry": {"type": "Polygon", "coordinates": [[[-81.373001, 39.344393], [-81.241554, 39.267716], [-81.296323, 39.185562], [-81.42777, 39.13627], [-81.581124, 39.026731], [-81.739956, 39.092454], [-81.745433, 39.097931], [-81.756386, 39.180085], [-81.723525, 39.218424], [-81.373001, 39.344393]]]}}, {"type": "Feature", "properties": {"name": "Warren", "id": "34041", "FIPS": "34041", "FIPS State": 34, "ST": "NJ", "County": "Warren County,NJ", "State": "New Jersey"}, "geometry": {"type": "Polygon", "coordinates": [[[-74.96498, 41.091537], [-74.76781, 40.910798], [-74.888303, 40.790306], [-75.189535, 40.593136], [-75.195012, 40.609566], [-75.118335, 40.965568], [-74.96498, 41.097014], [-74.96498, 41.091537]]]}}, {"type": "Feature", "properties": {"name": "Davis", "id": "49011", "FIPS": "49011", "FIPS State": 49, "ST": "UT", "County": "Davis County,UT", "State": "Utah"}, "geometry": {"type": "Polygon", "coordinates": [[[-112.011005, 41.151784], [-111.857651, 41.14083], [-111.737158, 40.861506], [-111.98362, 40.921752], [-112.262944, 40.773875], [-112.492976, 41.075106], [-112.011005, 41.151784]]]}}, {"type": "Feature", "properties": {"name": "Baldwin", "id": "13009", "FIPS": "13009", "FIPS State": 13, "ST": "GA", "County": "Baldwin County,GA", "State": "Georgia"}, "geometry": {"type": "Polygon", "coordinates": [[[-83.273499, 33.188312], [-83.054421, 33.078773], [-83.076329, 32.947327], [-83.355653, 32.925419], [-83.426853, 33.182835], [-83.273499, 33.188312]]]}}, {"type": "Feature", "properties": {"name": "Campbell", "id": "56005", "FIPS": "56005", "FIPS State": 56, "ST": "WY", "County": "Campbell County,WY", "State": "Wyoming"}, "geometry": {"type": "Polygon", "coordinates": [[[-106.024709, 44.991119], [-105.088152, 45.002073], [-105.077198, 44.175055], [-105.077198, 43.495914], [-106.019232, 43.495914], [-106.008278, 44.563917], [-106.024709, 44.991119]]]}}, {"type": "Feature", "properties": {"name": "Santa Cruz", "id": "06087", "FIPS": "06087", "FIPS State": 6, "ST": "CA", "County": "Santa Cruz County,CA", "State": "California"}, "geometry": {"type": "Polygon", "coordinates": [[[-122.154299, 37.285064], [-121.57922, 36.901678], [-121.644943, 36.896201], [-121.699712, 36.918109], [-121.809251, 36.852385], [-122.291222, 37.109802], [-122.154299, 37.285064]]]}}, {"type": "Feature", "properties": {"name": "Geary", "id": "20061", "FIPS": "20061", "FIPS State": 20, "ST": "KS", "County": "Geary County,KS", "State": "Kansas"}, "geometry": {"type": "Polygon", "coordinates": [[[-96.943942, 39.218424], [-96.50031, 39.043162], [-96.50031, 38.867899], [-96.686526, 38.867899], [-96.889173, 38.867899], [-96.96585, 39.130793], [-96.960373, 39.218424], [-96.943942, 39.218424]]]}}, {"type": "Feature", "properties": {"name": "Randolph", "id": "37151", "FIPS": "37151", "FIPS State": 37, "ST": "NC", "County": "Randolph County,NC", "State": "North Carolina"}, "geometry": {"type": "Polygon", "coordinates": [[[-80.036627, 35.921306], [-79.543702, 35.899398], [-79.543702, 35.844628], [-79.554656, 35.516012], [-79.768257, 35.510535], [-80.064012, 35.505058], [-80.047581, 35.921306], [-80.036627, 35.921306]]]}}, {"type": "Feature", "properties": {"name": "Stevens", "id": "20189", "FIPS": "20189", "FIPS State": 20, "ST": "KS", "County": "Stevens County,KS", "State": "Kansas"}, "geometry": {"type": "Polygon", "coordinates": [[[-101.528141, 37.389126], [-101.089986, 37.389126], [-101.068078, 37.389126], [-101.068078, 37.000263], [-101.555526, 36.994786], [-101.555526, 37.389126], [-101.528141, 37.389126]]]}}, {"type": "Feature", "properties": {"name": "Delaware", "id": "39041", "FIPS": "39041", "FIPS State": 39, "ST": "OH", "County": "Delaware County,OH", "State": "Ohio"}, "geometry": {"type": "Polygon", "coordinates": [[[-83.246114, 40.445258], [-83.02156, 40.434304], [-82.742236, 40.346673], [-82.75319, 40.275473], [-82.764143, 40.127596], [-83.03799, 40.13855], [-83.169437, 40.144027], [-83.246114, 40.445258]]]}}, {"type": "Feature", "properties": {"name": "Northumberland", "id": "42097", "FIPS": "42097", "FIPS State": 42, "ST": "PA", "County": "Northumberland County,PA", "State": "Pennsylvania"}, "geometry": {"type": "Polygon", "coordinates": [[[-76.799755, 41.173691], [-76.734032, 41.173691], [-76.525908, 40.883413], [-76.378031, 40.773875], [-76.70117, 40.658859], [-76.947633, 40.625997], [-76.936679, 40.636951], [-76.799755, 40.883413], [-76.89834, 41.14083], [-76.799755, 41.173691]]]}}, {"type": "Feature", "properties": {"name": "Washington", "id": "50023", "FIPS": "50023", "FIPS State": 50, "ST": "VT", "County": "Washington County,VT", "State": "Vermont"}, "geometry": {"type": "Polygon", "coordinates": [[[-72.42368, 44.503671], [-72.368911, 44.202439], [-72.434634, 44.153147], [-72.741343, 44.027177], [-72.954943, 44.164101], [-72.807066, 44.454379], [-72.434634, 44.503671], [-72.42368, 44.503671]]]}}, {"type": "Feature", "properties": {"name": "Knox", "id": "17095", "FIPS": "17095", "FIPS State": 17, "ST": "IL", "County": "Knox County,IL", "State": "Illinois"}, "geometry": {"type": "Polygon", "coordinates": [[[-90.207305, 41.151784], [-89.982751, 41.151784], [-89.988228, 40.976521], [-89.988228, 40.713628], [-90.442814, 40.713628], [-90.437337, 41.064153], [-90.437337, 41.151784], [-90.207305, 41.151784]]]}}, {"type": "Feature", "properties": {"name": "Muscatine", "id": "19139", "FIPS": "19139", "FIPS State": 19, "ST": "IA", "County": "Muscatine County,IA", "State": "Iowa"}, "geometry": {"type": "Polygon", "coordinates": [[[-91.30817, 41.595416], [-90.8974, 41.595416], [-90.787861, 41.453015], [-91.072662, 41.332523], [-91.368417, 41.425631], [-91.368417, 41.600893], [-91.30817, 41.595416]]]}}, {"type": "Feature", "properties": {"name": "Buffalo", "id": "31019", "FIPS": "31019", "FIPS State": 31, "ST": "NE", "County": "Buffalo County,NE", "State": "Nebraska"}, "geometry": {"type": "Polygon", "coordinates": [[[-99.052564, 41.047722], [-98.745855, 41.047722], [-98.723948, 41.047722], [-98.723948, 40.697198], [-98.723948, 40.691721], [-98.953979, 40.653382], [-99.178534, 40.658859], [-99.419519, 40.669813], [-99.424996, 41.047722], [-99.205918, 41.047722], [-99.052564, 41.047722]]]}}, {"type": "Feature", "properties": {"name": "Taney", "id": "29213", "FIPS": "29213", "FIPS State": 29, "ST": "MO", "County": "Taney County,MO", "State": "Missouri"}, "geometry": {"type": "Polygon", "coordinates": [[[-93.301777, 36.819524], [-92.907437, 36.80857], [-92.765037, 36.80857], [-92.770513, 36.496384], [-92.852668, 36.496384], [-93.066268, 36.496384], [-93.2963, 36.496384], [-93.312731, 36.496384], [-93.301777, 36.819524]]]}}, {"type": "Feature", "properties": {"name": "Ochiltree", "id": "48357", "FIPS": "48357", "FIPS State": 48, "ST": "TX", "County": "Ochiltree County,TX", "State": "Texas"}, "geometry": {"type": "Polygon", "coordinates": [[[-100.805185, 36.501861], [-100.547769, 36.501861], [-100.547769, 36.058229], [-100.947585, 36.058229], [-101.084509, 36.058229], [-101.084509, 36.501861], [-100.953062, 36.501861], [-100.805185, 36.501861]]]}}, {"type": "Feature", "properties": {"name": "Riley", "id": "20161", "FIPS": "20161", "FIPS State": 20, "ST": "KS", "County": "Riley County,KS", "State": "Kansas"}, "geometry": {"type": "Polygon", "coordinates": [[[-96.692003, 39.568948], [-96.582464, 39.568948], [-96.390771, 39.174608], [-96.50031, 39.043162], [-96.943942, 39.218424], [-96.960373, 39.218424], [-96.960373, 39.568948], [-96.807019, 39.568948], [-96.692003, 39.568948]]]}}, {"type": "Feature", "properties": {"name": "Catawba", "id": "37035", "FIPS": "37035", "FIPS State": 37, "ST": "NC", "County": "Catawba County,NC", "State": "North Carolina"}, "geometry": {"type": "Polygon", "coordinates": [[[-81.192262, 35.822721], [-81.110107, 35.778905], [-80.96223, 35.548874], [-81.488016, 35.570781], [-81.531832, 35.570781], [-81.362047, 35.767951], [-81.334662, 35.795336], [-81.192262, 35.822721]]]}}, {"type": "Feature", "properties": {"name": "Lassen", "id": "06035", "FIPS": "06035", "FIPS State": 6, "ST": "CA", "County": "Lassen County,CA", "State": "California"}, "geometry": {"type": "Polygon", "coordinates": [[[-120.943895, 41.184645], [-120.001861, 41.184645], [-120.001861, 39.722302], [-120.149738, 39.705871], [-120.209985, 40.08378], [-121.119157, 40.445258], [-121.327281, 40.445258], [-121.332757, 41.184645], [-120.943895, 41.184645]]]}}, {"type": "Feature", "properties": {"name": "Boone", "id": "18011", "FIPS": "18011", "FIPS State": 18, "ST": "IN", "County": "Boone County,IN", "State": "Indiana"}, "geometry": {"type": "Polygon", "coordinates": [[[-86.242001, 40.182365], [-86.242001, 39.924949], [-86.324155, 39.924949], [-86.433693, 39.924949], [-86.696587, 39.924949], [-86.696587, 40.176888], [-86.242001, 40.182365]]]}}, {"type": "Feature", "properties": {"name": "Allegany", "id": "24001", "FIPS": "24001", "FIPS State": 24, "ST": "MD", "County": "Allegany County,MD", "State": "Maryland"}, "geometry": {"type": "Polygon", "coordinates": [[[-78.809792, 39.722302], [-78.382591, 39.722302], [-78.344253, 39.722302], [-78.333299, 39.634671], [-78.470222, 39.514178], [-78.656438, 39.536086], [-78.738592, 39.623717], [-79.067209, 39.47584], [-78.930285, 39.722302], [-78.809792, 39.722302]]]}}, {"type": "Feature", "properties": {"name": "Washington", "id": "16087", "FIPS": "16087", "FIPS State": 16, "ST": "ID", "County": "Washington County,ID", "State": "Idaho"}, "geometry": {"type": "Polygon", "coordinates": [[[-116.901913, 44.843241], [-116.299449, 44.443425], [-116.452804, 44.153147], [-116.896436, 44.153147], [-117.219575, 44.301024], [-116.901913, 44.843241]]]}}, {"type": "Feature", "properties": {"name": "Outagamie", "id": "55087", "FIPS": "55087", "FIPS State": 55, "ST": "WI", "County": "Outagamie County,WI", "State": "Wisconsin"}, "geometry": {"type": "Polygon", "coordinates": [[[-88.575177, 44.591302], [-88.246561, 44.585825], [-88.191791, 44.240778], [-88.405392, 44.246255], [-88.471115, 44.246255], [-88.739485, 44.240778], [-88.608039, 44.591302], [-88.575177, 44.591302]]]}}, {"type": "Feature", "properties": {"name": "Sevier", "id": "47155", "FIPS": "47155", "FIPS State": 47, "ST": "TN", "County": "Sevier County,TN", "State": "Tennessee"}, "geometry": {"type": "Polygon", "coordinates": [[[-83.678792, 36.030844], [-83.673316, 36.036321], [-83.311837, 35.893921], [-83.257068, 35.713182], [-83.257068, 35.696751], [-83.662362, 35.570781], [-83.793808, 35.888444], [-83.678792, 36.030844]]]}}, {"type": "Feature", "properties": {"name": "Buena Vista", "id": "19021", "FIPS": "19021", "FIPS State": 19, "ST": "IA", "County": "Buena Vista County,IA", "State": "Iowa"}, "geometry": {"type": "Polygon", "coordinates": [[[-95.251567, 42.909881], [-94.911997, 42.909881], [-94.911997, 42.559357], [-95.388491, 42.559357], [-95.388491, 42.909881], [-95.251567, 42.909881]]]}}, {"type": "Feature", "properties": {"name": "Chesterfield", "id": "51041", "FIPS": "51041", "FIPS State": 51, "ST": "VA", "County": "Chesterfield County,VA", "State": "Virginia"}, "geometry": {"type": "Polygon", "coordinates": [[[-77.654158, 37.564388], [-77.593912, 37.553434], [-77.41865, 37.449372], [-77.248864, 37.383649], [-77.270772, 37.323402], [-77.281726, 37.312448], [-77.298157, 37.312448], [-77.298157, 37.312448], [-77.336496, 37.312448], [-77.374834, 37.246725], [-77.402219, 37.241248], [-77.402219, 37.235771], [-77.41865, 37.235771], [-77.446034, 37.224817], [-77.648681, 37.263156], [-77.856805, 37.41651], [-77.654158, 37.564388]]]}}, {"type": "Feature", "properties": {"name": "Boone", "id": "21015", "FIPS": "21015", "FIPS State": 21, "ST": "KY", "County": "Boone County,KY", "State": "Kentucky"}, "geometry": {"type": "Polygon", "coordinates": [[[-84.620826, 39.076023], [-84.615349, 38.802176], [-84.659165, 38.774791], [-84.779657, 38.856946], [-84.796088, 38.856946], [-84.872765, 38.900761], [-84.878242, 39.032208], [-84.817996, 39.103408], [-84.620826, 39.076023]]]}}, {"type": "Feature", "properties": {"name": "Madison", "id": "01089", "FIPS": "01089", "FIPS State": 1, "ST": "AL", "County": "Madison County,AL", "State": "Alabama"}, "geometry": {"type": "Polygon", "coordinates": [[[-86.784218, 34.990226], [-86.318678, 34.990226], [-86.313201, 34.990226], [-86.329632, 34.601363], [-86.548709, 34.546593], [-86.789695, 34.55207], [-86.784218, 34.990226]]]}}, {"type": "Feature", "properties": {"name": "Hancock", "id": "39063", "FIPS": "39063", "FIPS State": 39, "ST": "OH", "County": "Hancock County,OH", "State": "Ohio"}, "geometry": {"type": "Polygon", "coordinates": [[[-83.881439, 41.168214], [-83.421376, 41.168214], [-83.421376, 40.992952], [-83.514484, 40.81769], [-83.574731, 40.81769], [-83.881439, 40.81769], [-83.881439, 40.921752], [-83.881439, 41.168214]]]}}, {"type": "Feature", "properties": {"name": "Anderson", "id": "48001", "FIPS": "48001", "FIPS State": 48, "ST": "TX", "County": "Anderson County,TX", "State": "Texas"}, "geometry": {"type": "Polygon", "coordinates": [[[-95.42683, 32.08197], [-95.273475, 31.594523], [-95.623999, 31.54523], [-95.739015, 31.501415], [-95.728061, 31.643815], [-95.788308, 31.61643], [-96.051201, 32.005293], [-95.42683, 32.08197]]]}}, {"type": "Feature", "properties": {"name": "Kitsap", "id": "53035", "FIPS": "53035", "FIPS State": 53, "ST": "WA", "County": "Kitsap County,WA", "State": "Washington"}, "geometry": {"type": "Polygon", "coordinates": [[[-122.482915, 47.510511], [-122.537684, 47.400973], [-122.800578, 47.406449], [-122.948455, 47.603619], [-122.751285, 47.740543], [-122.482915, 47.510511]]]}}, {"type": "Feature", "properties": {"name": "Blaine", "id": "40011", "FIPS": "40011", "FIPS State": 40, "ST": "OK", "County": "Blaine County,OK", "State": "Oklahoma"}, "geometry": {"type": "Polygon", "coordinates": [[[-98.488439, 36.162291], [-98.209115, 36.162291], [-98.209115, 35.724136], [-98.313177, 35.548874], [-98.587024, 35.548874], [-98.625363, 35.548874], [-98.63084, 35.811767], [-98.636317, 36.162291], [-98.488439, 36.162291]]]}}, {"type": "Feature", "properties": {"name": "Washington", "id": "47179", "FIPS": "47179", "FIPS State": 47, "ST": "TN", "County": "Washington County,TN", "State": "Tennessee"}, "geometry": {"type": "Polygon", "coordinates": [[[-82.473866, 36.441615], [-82.298603, 36.397799], [-82.342419, 36.255399], [-82.594358, 36.096568], [-82.632697, 36.419707], [-82.703897, 36.408753], [-82.681989, 36.430661], [-82.473866, 36.441615]]]}}, {"type": "Feature", "properties": {"name": "Henrico", "id": "51087", "FIPS": "51087", "FIPS State": 51, "ST": "VA", "County": "Henrico County,VA", "State": "Virginia"}, "geometry": {"type": "Polygon", "coordinates": [[[-77.63225, 37.706788], [-77.226957, 37.537003], [-77.177664, 37.493187], [-77.248864, 37.383649], [-77.41865, 37.449372], [-77.473419, 37.597249], [-77.593912, 37.553434], [-77.654158, 37.564388], [-77.63225, 37.706788]]]}}, {"type": "Feature", "properties": {"name": "Florence", "id": "45041", "FIPS": "45041", "FIPS State": 45, "ST": "SC", "County": "Florence County,SC", "State": "South Carolina"}, "geometry": {"type": "Polygon", "coordinates": [[[-79.658718, 34.305608], [-79.631334, 34.300131], [-79.549179, 34.228931], [-79.324625, 33.80173], [-79.83398, 33.883884], [-79.877796, 33.883884], [-79.976381, 33.94413], [-79.998289, 34.048192], [-80.074966, 34.08653], [-79.658718, 34.305608]]]}}, {"type": "Feature", "properties": {"name": "Ottawa", "id": "26139", "FIPS": "26139", "FIPS State": 26, "ST": "MI", "County": "Ottawa County,MI", "State": "Michigan"}, "geometry": {"type": "Polygon", "coordinates": [[[-85.792891, 43.205636], [-85.781938, 42.767481], [-86.044831, 42.767481], [-86.209139, 42.767481], [-86.269385, 43.118005], [-85.792891, 43.205636]]]}}]}