{"type": "FeatureCollection", "crs": {"type": "name", "properties": {"name": "urn:ogc:def:crs:OGC:1.3:CRS84"}}, "features": [{"type": "Feature", "properties": {"name": "Culpeper", "id": "51047", "FIPS": "51047", "FIPS State": 51, "ST": "VA", "County": "Culpeper County,VA", "State": "Virginia"}, "geometry": {"type": "Polygon", "coordinates": [[[-77.933482, 38.698114], [-77.637727, 38.407836], [-77.621296, 38.369498], [-77.703451, 38.358544], [-77.895143, 38.391406], [-78.092313, 38.309252], [-78.229237, 38.533806], [-77.933482, 38.698114]]]}}, {"type": "Feature", "properties": {"name": "Clermont", "id": "39025", "FIPS": "39025", "FIPS State": 39, "ST": "OH", "County": "Clermont County,OH", "State": "Ohio"}, "geometry": {"type": "Polygon", "coordinates": [[[-84.259348, 39.273193], [-84.007409, 39.256762], [-83.990978, 39.256762], [-84.051224, 38.769315], [-84.231963, 38.829561], [-84.231963, 38.873376], [-84.319594, 39.021254], [-84.259348, 39.273193]]]}}, {"type": "Feature", "properties": {"name": "Lehigh", "id": "42077", "FIPS": "42077", "FIPS State": 42, "ST": "PA", "County": "Lehigh County,PA", "State": "Pennsylvania"}, "geometry": {"type": "Polygon", "coordinates": [[[-75.611259, 40.784829], [-75.331935, 40.538366], [-75.48529, 40.417874], [-75.490767, 40.423351], [-75.529105, 40.445258], [-75.890583, 40.67529], [-75.759137, 40.735536], [-75.611259, 40.784829]]]}}, {"type": "Feature", "properties": {"name": "Douglas", "id": "08035", "FIPS": "08035", "FIPS State": 8, "ST": "CO", "County": "Douglas County,CO", "State": "Colorado"}, "geometry": {"type": "Polygon", "coordinates": [[[-104.989567, 39.568948], [-104.660951, 39.563471], [-104.660951, 39.130793], [-104.995044, 39.130793], [-105.033383, 39.130793], [-105.329138, 39.130793], [-105.049814, 39.563471], [-104.989567, 39.568948]]]}}, {"type": "Feature", "properties": {"name": "Atlantic", "id": "34001", "FIPS": "34001", "FIPS State": 34, "ST": "NJ", "County": "Atlantic County,NJ", "State": "New Jersey"}, "geometry": {"type": "Polygon", "coordinates": [[[-74.734949, 39.727779], [-74.417286, 39.557994], [-74.313224, 39.497748], [-74.548733, 39.295101], [-74.860918, 39.322485], [-74.986888, 39.514178], [-74.877349, 39.607286], [-74.734949, 39.727779]]]}}, {"type": "Feature", "properties": {"name": "Fayette", "id": "18041", "FIPS": "18041", "FIPS State": 18, "ST": "IN", "County": "Fayette County,IN", "State": "Indiana"}, "geometry": {"type": "Polygon", "coordinates": [[[-85.22329, 39.788025], [-85.037074, 39.716825], [-85.037074, 39.525132], [-85.23972, 39.525132], [-85.299967, 39.525132], [-85.299967, 39.788025], [-85.22329, 39.788025]]]}}, {"type": "Feature", "properties": {"name": "Monterey", "id": "06053", "FIPS": "06053", "FIPS State": 6, "ST": "CA", "County": "Monterey County,CA", "State": "California"}, "geometry": {"type": "Polygon", "coordinates": [[[-121.699712, 36.918109], [-121.644943, 36.896201], [-121.31085, 36.501861], [-120.681002, 36.266353], [-120.314047, 35.904875], [-120.215462, 35.789859], [-121.343711, 35.795336], [-121.896882, 36.315645], [-121.809251, 36.852385], [-121.699712, 36.918109]]]}}, {"type": "Feature", "properties": {"name": "Hidalgo", "id": "48215", "FIPS": "48215", "FIPS State": 48, "ST": "TX", "County": "Hidalgo County,TX", "State": "Texas"}, "geometry": {"type": "Polygon", "coordinates": [[[-98.318654, 26.785769], [-97.984561, 26.780292], [-97.957176, 26.610507], [-97.864068, 26.347614], [-97.864068, 26.051859], [-98.587024, 26.254506], [-98.318654, 26.785769]]]}}, {"type": "Feature", "properties": {"name": "Johnson", "id": "18081", "FIPS": "18081", "FIPS State": 18, "ST": "IN", "County": "Johnson County,IN", "State": "Indiana"}, "geometry": {"type": "Polygon", "coordinates": [[[-85.97363, 39.640148], [-85.951723, 39.640148], [-85.951723, 39.34987], [-86.083169, 39.344393], [-86.252954, 39.344393], [-86.247477, 39.634671], [-85.97363, 39.640148]]]}}, {"type": "Feature", "properties": {"name": "Jefferson", "id": "54037", "FIPS": "54037", "FIPS State": 54, "ST": "WV", "County": "Jefferson County,WV", "State": "West Virginia"}, "geometry": {"type": "Polygon", "coordinates": [[[-77.823943, 39.492271], [-77.823943, 39.492271], [-77.719881, 39.322485], [-77.82942, 39.130793], [-78.032067, 39.262239], [-77.823943, 39.492271]]]}}, {"type": "Feature", "properties": {"name": "Thurston", "id": "53067", "FIPS": "53067", "FIPS State": 53, "ST": "WA", "County": "Thurston County,WA", "State": "Washington"}, "geometry": {"type": "Polygon", "coordinates": [[[-122.904639, 47.15451], [-122.822485, 47.192849], [-122.203591, 46.760171], [-123.162056, 46.793032], [-123.200394, 47.08331], [-122.904639, 47.15451]]]}}, {"type": "Feature", "properties": {"name": "Coconino", "id": "04005", "FIPS": "04005", "FIPS State": 4, "ST": "AZ", "County": "Coconino County,AZ", "State": "Arizona"}, "geometry": {"type": "Polygon", "coordinates": [[[-110.751309, 37.00574], [-110.751309, 34.261793], [-111.556419, 34.469916], [-111.775497, 34.979272], [-112.334144, 34.973795], [-112.438206, 35.258596], [-113.336425, 35.526966], [-113.352855, 36.047275], [-112.629899, 36.392322], [-112.542268, 37.000263], [-111.414018, 37.000263], [-110.751309, 37.00574]]]}}, {"type": "Feature", "properties": {"name": "Kaufman", "id": "48257", "FIPS": "48257", "FIPS State": 48, "ST": "TX", "County": "Kaufman County,TX", "State": "Texas"}, "geometry": {"type": "Polygon", "coordinates": [[[-96.297663, 32.843265], [-96.078585, 32.837788], [-96.078585, 32.355817], [-96.215509, 32.361294], [-96.451017, 32.361294], [-96.527695, 32.54751], [-96.516741, 32.81588], [-96.297663, 32.843265]]]}}, {"type": "Feature", "properties": {"name": "Hampshire", "id": "25015", "FIPS": "25015", "FIPS State": 25, "ST": "MA", "County": "Hampshire County,MA", "State": "Massachusetts"}, "geometry": {"type": "Polygon", "coordinates": [[[-72.976851, 42.55388], [-72.314141, 42.345757], [-72.221033, 42.247172], [-72.998759, 42.312895], [-72.998759, 42.312895], [-72.976851, 42.55388]]]}}, {"type": "Feature", "properties": {"name": "Accomack", "id": "51001", "FIPS": "51001", "FIPS State": 51, "ST": "VA", "County": "Accomack County,VA", "State": "Virginia"}, "geometry": {"type": "MultiPolygon", "coordinates": [[[[-75.397659, 38.013497], [-75.244304, 38.029928], [-75.666029, 37.465803], [-75.939876, 37.547957], [-75.671506, 37.95325], [-75.622213, 37.991589], [-75.397659, 38.013497]]], [[[-76.016553, 37.95325], [-75.994645, 37.95325], [-76.043938, 37.95325], [-76.016553, 37.95325]]]]}}, {"type": "Feature", "properties": {"name": "Minnehaha", "id": "46099", "FIPS": "46099", "FIPS State": 46, "ST": "SD", "County": "Minnehaha County,SD", "State": "South Dakota"}, "geometry": {"type": "Polygon", "coordinates": [[[-96.489356, 43.846438], [-96.451017, 43.851915], [-96.451017, 43.501391], [-96.598895, 43.501391], [-96.779634, 43.501391], [-96.922034, 43.501391], [-97.130158, 43.501391], [-97.130158, 43.846438], [-96.889173, 43.846438], [-96.489356, 43.846438]]]}}, {"type": "Feature", "properties": {"name": "Fulton", "id": "36035", "FIPS": "36035", "FIPS State": 36, "ST": "NY", "County": "Fulton County,NY", "State": "New York"}, "geometry": {"type": "Polygon", "coordinates": [[[-74.713041, 43.28779], [-74.137962, 43.254929], [-74.099624, 42.981082], [-74.581595, 42.997512], [-74.762334, 43.046805], [-74.713041, 43.28779]]]}}, {"type": "Feature", "properties": {"name": "Lafayette", "id": "22055", "FIPS": "22055", "FIPS State": 22, "ST": "LA", "County": "Lafayette County,LA", "State": "Louisiana"}, "geometry": {"type": "Polygon", "coordinates": [[[-92.053034, 30.378642], [-91.987311, 30.367688], [-91.948972, 30.071933], [-91.965403, 30.033595], [-92.250204, 30.143133], [-92.283066, 30.14861], [-92.140665, 30.296488], [-92.053034, 30.378642]]]}}, {"type": "Feature", "properties": {"name": "Williamson", "id": "48491", "FIPS": "48491", "FIPS State": 48, "ST": "TX", "County": "Williamson County,TX", "State": "Texas"}, "geometry": {"type": "Polygon", "coordinates": [[[-97.831206, 30.904428], [-97.316374, 30.751074], [-97.157543, 30.455319], [-97.332805, 30.40055], [-97.371143, 30.41698], [-97.973607, 30.625104], [-98.050284, 30.625104], [-97.831206, 30.904428]]]}}, {"type": "Feature", "properties": {"name": "Chautauqua", "id": "36013", "FIPS": "36013", "FIPS State": 36, "ST": "NY", "County": "Chautauqua County,NY", "State": "New York"}, "geometry": {"type": "Polygon", "coordinates": [[[-79.138409, 42.570311], [-79.061732, 42.537449], [-79.061732, 42.000709], [-79.609426, 42.000709], [-79.76278, 42.252649], [-79.76278, 42.269079], [-79.138409, 42.570311], [-79.138409, 42.570311]]]}}, {"type": "Feature", "properties": {"name": "Le Sueur", "id": "27079", "FIPS": "27079", "FIPS State": 27, "ST": "MN", "County": "Le Sueur County,MN", "State": "Minnesota"}, "geometry": {"type": "Polygon", "coordinates": [[[-93.701593, 44.54201], [-93.526331, 44.54201], [-93.526331, 44.196962], [-93.679686, 44.196962], [-93.767317, 44.196962], [-94.013779, 44.240778], [-93.931625, 44.454379], [-93.909717, 44.54201], [-93.701593, 44.54201]]]}}, {"type": "Feature", "properties": {"name": "Aiken", "id": "45003", "FIPS": "45003", "FIPS State": 45, "ST": "SC", "County": "Aiken County,SC", "State": "South Carolina"}, "geometry": {"type": "Polygon", "coordinates": [[[-81.57017, 33.878407], [-81.186785, 33.653852], [-81.373001, 33.489544], [-81.756386, 33.199266], [-81.849494, 33.248559], [-82.013803, 33.53336], [-81.652325, 33.812683], [-81.57017, 33.878407]]]}}, {"type": "Feature", "properties": {"name": "Hamilton", "id": "18057", "FIPS": "18057", "FIPS State": 18, "ST": "IN", "County": "Hamilton County,IN", "State": "Indiana"}, "geometry": {"type": "Polygon", "coordinates": [[[-85.875046, 40.220704], [-85.864092, 40.220704], [-85.864092, 39.94138], [-85.935292, 39.924949], [-86.110554, 39.924949], [-86.242001, 39.924949], [-86.242001, 40.182365], [-86.242001, 40.215227], [-85.875046, 40.220704]]]}}, {"type": "Feature", "properties": {"name": "Washoe", "id": "32031", "FIPS": "32031", "FIPS State": 32, "ST": "NV", "County": "Washoe County,NV", "State": "Nevada"}, "geometry": {"type": "Polygon", "coordinates": [[[-119.361059, 41.995232], [-119.32272, 41.995232], [-119.311766, 40.960091], [-119.224135, 40.001626], [-119.191274, 39.629194], [-119.196751, 39.623717], [-119.284382, 39.623717], [-119.689675, 39.519655], [-119.711583, 39.251285], [-120.001861, 39.163654], [-120.007338, 39.317009], [-120.001861, 39.442978], [-120.001861, 39.722302], [-120.001861, 41.184645], [-120.001861, 41.995232], [-119.361059, 41.995232]]]}}, {"type": "Feature", "properties": {"name": "Mahoning", "id": "39099", "FIPS": "39099", "FIPS State": 39, "ST": "OH", "County": "Mahoning County,OH", "State": "Ohio"}, "geometry": {"type": "Polygon", "coordinates": [[[-80.786968, 41.135353], [-80.518598, 41.135353], [-80.518598, 41.124399], [-80.518598, 40.899844], [-80.858168, 40.927229], [-81.0882, 40.905321], [-81.0882, 40.987475], [-81.000569, 41.135353], [-80.786968, 41.135353]]]}}, {"type": "Feature", "properties": {"name": "Shelby", "id": "47157", "FIPS": "47157", "FIPS State": 47, "ST": "TN", "County": "Shelby County,TN", "State": "Tennessee"}, "geometry": {"type": "Polygon", "coordinates": [[[-89.774627, 35.406473], [-89.632227, 35.373611], [-89.643181, 34.995703], [-89.725335, 34.995703], [-89.829396, 34.995703], [-90.311367, 34.995703], [-90.075859, 35.384565], [-89.774627, 35.406473]]]}}, {"type": "Feature", "properties": {"name": "York", "id": "42133", "FIPS": "42133", "FIPS State": 42, "ST": "PA", "County": "York County,PA", "State": "Pennsylvania"}, "geometry": {"type": "Polygon", "coordinates": [[[-76.903817, 40.220704], [-76.860002, 40.226181], [-76.723078, 40.122119], [-76.241107, 39.722302], [-76.569724, 39.722302], [-76.70117, 39.722302], [-76.788801, 39.722302], [-76.996925, 39.722302], [-77.139326, 40.067349], [-76.903817, 40.220704]]]}}, {"type": "Feature", "properties": {"name": "Plymouth", "id": "25023", "FIPS": "25023", "FIPS State": 25, "ST": "MA", "County": "Plymouth County,MA", "State": "Massachusetts"}, "geometry": {"type": "Polygon", "coordinates": [[[-70.901091, 42.269079], [-70.906568, 42.269079], [-70.824413, 42.263602], [-70.780598, 42.252649], [-70.539613, 41.809016], [-70.643674, 41.715908], [-70.840844, 41.628277], [-71.08183, 42.093817], [-70.901091, 42.269079]]]}}, {"type": "Feature", "properties": {"name": "Grafton", "id": "33009", "FIPS": "33009", "FIPS State": 33, "ST": "NH", "County": "Grafton County,NH", "State": "New Hampshire"}, "geometry": {"type": "Polygon", "coordinates": [[[-71.837647, 44.350317], [-71.766447, 44.405086], [-71.415923, 44.213393], [-71.530939, 43.764284], [-71.728109, 43.561637], [-71.81574, 43.545207], [-71.936232, 43.528776], [-72.330572, 43.599976], [-72.204602, 43.769761], [-72.040294, 44.153147], [-71.837647, 44.350317]]]}}, {"type": "Feature", "properties": {"name": "Collier", "id": "12021", "FIPS": "12021", "FIPS State": 12, "ST": "FL", "County": "Collier County,FL", "State": "Florida"}, "geometry": {"type": "Polygon", "coordinates": [[[-81.564693, 26.511922], [-80.880076, 26.259983], [-80.874599, 25.980659], [-80.874599, 25.805397], [-81.345616, 25.805397], [-81.679709, 25.843735], [-81.844017, 26.331183], [-81.564693, 26.511922]]]}}, {"type": "Feature", "properties": {"name": "Wicomico", "id": "24045", "FIPS": "24045", "FIPS State": 24, "ST": "MD", "County": "Wicomico County,MD", "State": "Maryland"}, "geometry": {"type": "Polygon", "coordinates": [[[-75.813906, 38.489991], [-75.69889, 38.561191], [-75.342889, 38.451652], [-75.611259, 38.27639], [-75.62769, 38.281867], [-75.863199, 38.238051], [-75.923445, 38.265436], [-75.813906, 38.489991]]]}}, {"type": "Feature", "properties": {"name": "El Paso", "id": "08041", "FIPS": "08041", "FIPS State": 8, "ST": "CO", "County": "El Paso County,CO", "State": "Colorado"}, "geometry": {"type": "Polygon", "coordinates": [[[-104.995044, 39.130793], [-104.660951, 39.130793], [-104.053011, 39.130793], [-104.053011, 38.867899], [-104.053011, 38.522852], [-104.940275, 38.517375], [-104.940275, 38.648822], [-105.033383, 39.130793], [-104.995044, 39.130793]]]}}, {"type": "Feature", "properties": {"name": "Tulare", "id": "06107", "FIPS": "06107", "FIPS State": 6, "ST": "CA", "County": "Tulare County,CA", "State": "California"}, "geometry": {"type": "Polygon", "coordinates": [[[-118.358779, 36.742847], [-118.008255, 35.789859], [-119.536321, 35.789859], [-119.57466, 36.490907], [-118.98315, 36.742847], [-118.358779, 36.742847]]]}}, {"type": "Feature", "properties": {"name": "Gloucester", "id": "34015", "FIPS": "34015", "FIPS State": 34, "ST": "NJ", "County": "Gloucester County,NJ", "State": "New Jersey"}, "geometry": {"type": "Polygon", "coordinates": [[[-75.211443, 39.864703], [-75.140242, 39.88661], [-74.877349, 39.607286], [-74.986888, 39.514178], [-75.058088, 39.568948], [-75.063565, 39.568948], [-75.446951, 39.771595], [-75.414089, 39.804456], [-75.211443, 39.864703]]]}}, {"type": "Feature", "properties": {"name": "Marathon", "id": "55073", "FIPS": "55073", "FIPS State": 55, "ST": "WI", "County": "Marathon County,WI", "State": "Wisconsin"}, "geometry": {"type": "Polygon", "coordinates": [[[-90.196352, 45.122565], [-90.042997, 45.122565], [-89.424103, 45.117088], [-89.221456, 45.029457], [-89.221456, 44.678933], [-89.347426, 44.678933], [-89.845827, 44.68441], [-90.207305, 44.68441], [-90.316844, 44.68441], [-90.316844, 45.034934], [-90.196352, 45.122565]]]}}, {"type": "Feature", "properties": {"name": "Duval", "id": "12031", "FIPS": "12031", "FIPS State": 12, "ST": "FL", "County": "Duval County,FL", "State": "Florida"}, "geometry": {"type": "Polygon", "coordinates": [[[-81.608509, 30.586766], [-81.444201, 30.510088], [-81.378478, 30.252672], [-81.389431, 30.252672], [-81.679709, 30.121226], [-81.701617, 30.192426], [-82.052141, 30.186949], [-82.046664, 30.27458], [-81.608509, 30.586766]]]}}, {"type": "Feature", "properties": {"name": "Scott", "id": "27139", "FIPS": "27139", "FIPS State": 27, "ST": "MN", "County": "Scott County,MN", "State": "Minnesota"}, "geometry": {"type": "Polygon", "coordinates": [[[-93.433223, 44.81038], [-93.329161, 44.788472], [-93.279869, 44.54201], [-93.301777, 44.54201], [-93.526331, 44.54201], [-93.701593, 44.54201], [-93.909717, 44.54201], [-93.767317, 44.640595], [-93.520854, 44.804903], [-93.433223, 44.81038]]]}}, {"type": "Feature", "properties": {"name": "Floyd", "id": "18043", "FIPS": "18043", "FIPS State": 18, "ST": "IN", "County": "Floyd County,IN", "State": "Indiana"}, "geometry": {"type": "Polygon", "coordinates": [[[-86.011969, 38.41879], [-85.995538, 38.41879], [-85.792891, 38.287344], [-85.90243, 38.177805], [-86.033877, 38.41879], [-86.011969, 38.41879]]]}}, {"type": "Feature", "properties": {"name": "Dakota", "id": "27037", "FIPS": "27037", "FIPS State": 27, "ST": "MN", "County": "Dakota County,MN", "State": "Minnesota"}, "geometry": {"type": "Polygon", "coordinates": [[[-93.088176, 44.919919], [-93.016976, 44.892534], [-92.803375, 44.744656], [-92.732175, 44.711795], [-93.038884, 44.470809], [-93.279869, 44.54201], [-93.329161, 44.788472], [-93.175807, 44.887057], [-93.088176, 44.919919]]]}}, {"type": "Feature", "properties": {"name": "Charleston", "id": "45019", "FIPS": "45019", "FIPS State": 45, "ST": "SC", "County": "Charleston County,SC", "State": "South Carolina"}, "geometry": {"type": "Polygon", "coordinates": [[[-79.49441, 33.188312], [-79.445118, 33.215697], [-79.291763, 33.111635], [-80.250228, 32.531079], [-80.403582, 32.859696], [-80.151643, 33.024004], [-79.927088, 32.821357], [-79.49441, 33.188312]]]}}, {"type": "Feature", "properties": {"name": "Somerset", "id": "34035", "FIPS": "34035", "FIPS State": 34, "ST": "NJ", "County": "Somerset County,NJ", "State": "New Jersey"}, "geometry": {"type": "Polygon", "coordinates": [[[-74.718518, 40.719105], [-74.461102, 40.67529], [-74.461102, 40.598613], [-74.619933, 40.374058], [-74.745903, 40.423351], [-74.723995, 40.719105], [-74.718518, 40.719105]]]}}, {"type": "Feature", "properties": {"name": "Butler", "id": "42019", "FIPS": "42019", "FIPS State": 42, "ST": "PA", "County": "Butler County,PA", "State": "Pennsylvania"}, "geometry": {"type": "Polygon", "coordinates": [[[-79.998289, 41.173691], [-79.697057, 41.173691], [-79.69158, 41.168214], [-79.69158, 40.669813], [-80.146166, 40.67529], [-80.15712, 40.856029], [-80.096873, 41.069629], [-79.998289, 41.173691]]]}}, {"type": "Feature", "properties": {"name": "Waukesha", "id": "55133", "FIPS": "55133", "FIPS State": 55, "ST": "WI", "County": "Waukesha County,WI", "State": "Wisconsin"}, "geometry": {"type": "Polygon", "coordinates": [[[-88.536839, 43.194682], [-88.416346, 43.194682], [-88.065822, 43.194682], [-88.071299, 42.844158], [-88.306807, 42.844158], [-88.542316, 42.844158], [-88.536839, 43.194682]]]}}, {"type": "Feature", "properties": {"name": "Indian River", "id": "12061", "FIPS": "12061", "FIPS State": 12, "ST": "FL", "County": "Indian River County,FL", "State": "Florida"}, "geometry": {"type": "Polygon", "coordinates": [[[-80.321428, 27.558018], [-80.677429, 27.558018], [-80.792445, 27.645649], [-80.874599, 27.640172], [-80.869122, 27.820911], [-80.447398, 27.859249], [-80.321428, 27.558018]]]}}]}