{"type": "FeatureCollection", "crs": {"type": "name", "properties": {"name": "urn:ogc:def:crs:OGC:1.3:CRS84"}}, "features": [{"type": "Feature", "properties": {"name": "Williamson", "id": "47187", "FIPS": "47187", "FIPS State": 47, "ST": "TN", "County": "Williamson County,TN", "State": "Tennessee"}, "geometry": {"type": "Polygon", "coordinates": [[[-86.921141, 36.052752], [-86.619909, 35.970598], [-86.685633, 35.707705], [-86.784218, 35.707705], [-87.216896, 35.850105], [-87.205942, 35.959644], [-87.184034, 36.047275], [-87.052588, 36.047275], [-86.921141, 36.052752]]]}}, {"type": "Feature", "properties": {"name": "Vanderburgh", "id": "18163", "FIPS": "18163", "FIPS State": 18, "ST": "IN", "County": "Vanderburgh County,IN", "State": "Indiana"}, "geometry": {"type": "Polygon", "coordinates": [[[-87.687913, 38.166851], [-87.468835, 38.166851], [-87.452404, 37.942297], [-87.698867, 37.898481], [-87.687913, 38.166851]]]}}, {"type": "Feature", "properties": {"name": "Putnam", "id": "36079", "FIPS": "36079", "FIPS State": 36, "ST": "NY", "County": "Putnam County,NY", "State": "New York"}, "geometry": {"type": "Polygon", "coordinates": [[[-73.530022, 41.529692], [-73.546453, 41.365384], [-73.661469, 41.35443], [-73.984608, 41.321569], [-73.979131, 41.327046], [-73.979131, 41.436584], [-73.530022, 41.529692]]]}}, {"type": "Feature", "properties": {"name": "Sheboygan", "id": "55117", "FIPS": "55117", "FIPS State": 55, "ST": "WI", "County": "Sheboygan County,WI", "State": "Wisconsin"}, "geometry": {"type": "Polygon", "coordinates": [[[-87.770067, 43.890254], [-87.731728, 43.890254], [-87.791975, 43.545207], [-87.923421, 43.545207], [-88.038437, 43.53973], [-88.15893, 43.545207], [-88.164407, 43.890254], [-88.043914, 43.890254], [-87.770067, 43.890254]]]}}, {"type": "Feature", "properties": {"name": "Mercer", "id": "39107", "FIPS": "39107", "FIPS State": 39, "ST": "OH", "County": "Mercer County,OH", "State": "Ohio"}, "geometry": {"type": "Polygon", "coordinates": [[[-84.774181, 40.730059], [-84.456518, 40.686244], [-84.43461, 40.35215], [-84.43461, 40.35215], [-84.456518, 40.35215], [-84.801565, 40.35215], [-84.801565, 40.571228], [-84.801565, 40.730059], [-84.774181, 40.730059]]]}}, {"type": "Feature", "properties": {"name": "Harford", "id": "24025", "FIPS": "24025", "FIPS State": 24, "ST": "MD", "County": "Harford County,MD", "State": "Maryland"}, "geometry": {"type": "Polygon", "coordinates": [[[-76.241107, 39.722302], [-76.235631, 39.722302], [-76.076799, 39.541563], [-76.328738, 39.355347], [-76.569724, 39.722302], [-76.241107, 39.722302]]]}}, {"type": "Feature", "properties": {"name": "Cumberland", "id": "42041", "FIPS": "42041", "FIPS State": 42, "ST": "PA", "County": "Cumberland County,PA", "State": "Pennsylvania"}, "geometry": {"type": "Polygon", "coordinates": [[[-77.122895, 40.297381], [-76.914771, 40.330243], [-76.860002, 40.226181], [-76.903817, 40.220704], [-77.139326, 40.067349], [-77.473419, 39.946857], [-77.615819, 40.198796], [-77.122895, 40.297381]]]}}, {"type": "Feature", "properties": {"name": "Butler", "id": "39017", "FIPS": "39017", "FIPS State": 39, "ST": "OH", "County": "Butler County,OH", "State": "Ohio"}, "geometry": {"type": "Polygon", "coordinates": [[[-84.478426, 39.590856], [-84.36341, 39.590856], [-84.352456, 39.289624], [-84.598918, 39.306055], [-84.817996, 39.306055], [-84.817996, 39.519655], [-84.812519, 39.568948], [-84.478426, 39.590856]]]}}, {"type": "Feature", "properties": {"name": "Crawford", "id": "42039", "FIPS": "42039", "FIPS State": 42, "ST": "PA", "County": "Crawford County,PA", "State": "Pennsylvania"}, "geometry": {"type": "Polygon", "coordinates": [[[-79.708011, 41.852832], [-79.609426, 41.847355], [-79.614903, 41.6228], [-79.998289, 41.491354], [-80.003765, 41.491354], [-80.518598, 41.491354], [-80.518598, 41.502308], [-80.518598, 41.847355], [-79.708011, 41.852832]]]}}, {"type": "Feature", "properties": {"name": "Kent", "id": "10001", "FIPS": "10001", "FIPS State": 10, "ST": "DE", "County": "Kent County,DE", "State": "Delaware"}, "geometry": {"type": "Polygon", "coordinates": [[[-75.616736, 39.311532], [-75.512674, 39.366301], [-75.310028, 38.944577], [-75.720798, 38.829561], [-75.748183, 39.141746], [-75.75366, 39.245808], [-75.759137, 39.295101], [-75.616736, 39.311532]]]}}, {"type": "Feature", "properties": {"name": "Johnson", "id": "19103", "FIPS": "19103", "FIPS State": 19, "ST": "IA", "County": "Johnson County,IA", "State": "Iowa"}, "geometry": {"type": "Polygon", "coordinates": [[[-91.664172, 41.863786], [-91.368417, 41.858309], [-91.368417, 41.600893], [-91.368417, 41.425631], [-91.483432, 41.425631], [-91.790141, 41.513262], [-91.82848, 41.513262], [-91.833957, 41.863786], [-91.664172, 41.863786]]]}}, {"type": "Feature", "properties": {"name": "Henry", "id": "13151", "FIPS": "13151", "FIPS State": 13, "ST": "GA", "County": "Henry County,GA", "State": "Georgia"}, "geometry": {"type": "Polygon", "coordinates": [[[-84.226487, 33.637421], [-84.182671, 33.648375], [-84.045747, 33.527883], [-83.925255, 33.451205], [-84.100517, 33.297851], [-84.352456, 33.35262], [-84.281256, 33.648375], [-84.226487, 33.637421]]]}}, {"type": "Feature", "properties": {"name": "Coffee", "id": "47031", "FIPS": "47031", "FIPS State": 47, "ST": "TN", "County": "Coffee County,TN", "State": "Tennessee"}, "geometry": {"type": "Polygon", "coordinates": [[[-86.209139, 35.702228], [-85.984584, 35.658412], [-85.875046, 35.521489], [-85.913384, 35.291457], [-86.214616, 35.346227], [-86.263908, 35.335273], [-86.258431, 35.41195], [-86.258431, 35.41195], [-86.247477, 35.631028], [-86.209139, 35.702228]]]}}, {"type": "Feature", "properties": {"name": "Kent", "id": "26081", "FIPS": "26081", "FIPS State": 26, "ST": "MI", "County": "Kent County,MI", "State": "Michigan"}, "geometry": {"type": "Polygon", "coordinates": [[[-85.524521, 43.293267], [-85.310921, 43.118005], [-85.310921, 42.767481], [-85.546429, 42.767481], [-85.781938, 42.767481], [-85.792891, 43.205636], [-85.792891, 43.293267], [-85.56286, 43.293267], [-85.524521, 43.293267]]]}}, {"type": "Feature", "properties": {"name": "Gilmer", "id": "13123", "FIPS": "13123", "FIPS State": 13, "ST": "GA", "County": "Gilmer County,GA", "State": "Georgia"}, "geometry": {"type": "Polygon", "coordinates": [[[-84.620826, 34.853302], [-84.199102, 34.617794], [-84.346979, 34.563024], [-84.653688, 34.546593], [-84.653688, 34.584932], [-84.620826, 34.853302]]]}}, {"type": "Feature", "properties": {"name": "Lake", "id": "12069", "FIPS": "12069", "FIPS State": 12, "ST": "FL", "County": "Lake County,FL", "State": "Florida"}, "geometry": {"type": "Polygon", "coordinates": [[[-81.641371, 29.277777], [-81.367524, 28.87796], [-81.411339, 28.784852], [-81.542786, 28.784852], [-81.657801, 28.346697], [-81.959033, 28.346697], [-81.953556, 28.960114], [-81.641371, 29.277777]]]}}, {"type": "Feature", "properties": {"name": "Leon", "id": "12073", "FIPS": "12073", "FIPS State": 12, "ST": "FL", "County": "Leon County,FL", "State": "Florida"}, "geometry": {"type": "Polygon", "coordinates": [[[-84.084086, 30.674397], [-84.007409, 30.674397], [-84.073132, 30.27458], [-84.303164, 30.301965], [-84.713934, 30.301965], [-84.648211, 30.389596], [-84.281256, 30.685351], [-84.084086, 30.674397]]]}}, {"type": "Feature", "properties": {"name": "Jefferson", "id": "22051", "FIPS": "22051", "FIPS State": 22, "ST": "LA", "County": "Jefferson County,LA", "State": "Louisiana"}, "geometry": {"type": "Polygon", "coordinates": [[[-90.278506, 30.230764], [-90.245644, 30.225288], [-90.103244, 30.192426], [-90.010136, 29.896671], [-89.977274, 29.447562], [-90.032043, 29.431131], [-90.229213, 29.694024], [-90.278506, 30.230764]]]}}, {"type": "Feature", "properties": {"name": "Bay", "id": "12005", "FIPS": "12005", "FIPS State": 12, "ST": "FL", "County": "Bay County,FL", "State": "Florida"}, "geometry": {"type": "Polygon", "coordinates": [[[-85.382121, 30.564858], [-85.387598, 30.20338], [-85.387598, 29.924056], [-85.995538, 30.269103], [-85.990061, 30.389596], [-85.43689, 30.570335], [-85.382121, 30.564858]]]}}, {"type": "Feature", "properties": {"name": "Muscogee", "id": "13215", "FIPS": "13215", "FIPS State": 13, "ST": "GA", "County": "Muscogee County,GA", "State": "Georgia"}, "geometry": {"type": "Polygon", "coordinates": [[[-85.02612, 32.607757], [-84.692026, 32.585849], [-84.692026, 32.520126], [-84.982304, 32.372248], [-84.998735, 32.509172], [-85.080889, 32.607757], [-85.02612, 32.607757]]]}}, {"type": "Feature", "properties": {"name": "Kane", "id": "17089", "FIPS": "17089", "FIPS State": 17, "ST": "IL", "County": "Kane County,IL", "State": "Illinois"}, "geometry": {"type": "Polygon", "coordinates": [[[-88.454684, 42.154064], [-88.235607, 42.154064], [-88.262992, 41.984279], [-88.262992, 41.726862], [-88.602562, 41.721385], [-88.586131, 42.154064], [-88.454684, 42.154064]]]}}, {"type": "Feature", "properties": {"name": "Volusia", "id": "12127", "FIPS": "12127", "FIPS State": 12, "ST": "FL", "County": "Volusia County,FL", "State": "Florida"}, "geometry": {"type": "Polygon", "coordinates": [[[-81.110107, 29.425654], [-81.10463, 29.425654], [-80.732199, 28.790329], [-80.989615, 28.615067], [-81.367524, 28.87796], [-81.641371, 29.277777], [-81.679709, 29.327069], [-81.433247, 29.39827], [-81.110107, 29.425654]]]}}, {"type": "Feature", "properties": {"name": "Larimer", "id": "08069", "FIPS": "08069", "FIPS State": 8, "ST": "CO", "County": "Larimer County,CO", "State": "Colorado"}, "geometry": {"type": "Polygon", "coordinates": [[[-105.279845, 40.998429], [-104.945752, 40.998429], [-105.055291, 40.264519], [-105.340092, 40.259042], [-105.652277, 40.259042], [-105.854924, 40.483597], [-106.189017, 40.998429], [-105.279845, 40.998429]]]}}, {"type": "Feature", "properties": {"name": "Porter", "id": "18127", "FIPS": "18127", "FIPS State": 18, "ST": "IN", "County": "Porter County,IN", "State": "Indiana"}, "geometry": {"type": "Polygon", "coordinates": [[[-86.932095, 41.710431], [-86.932095, 41.239415], [-87.036157, 41.255845], [-87.216896, 41.239415], [-87.222373, 41.6228], [-86.932095, 41.710431]]]}}, {"type": "Feature", "properties": {"name": "Broome", "id": "36007", "FIPS": "36007", "FIPS State": 36, "ST": "NY", "County": "Broome County,NY", "State": "New York"}, "geometry": {"type": "Polygon", "coordinates": [[[-75.863199, 42.416957], [-75.419566, 42.192402], [-75.35932, 42.000709], [-75.479813, 42.000709], [-75.48529, 42.000709], [-75.890583, 42.000709], [-76.104184, 42.000709], [-76.131569, 42.41148], [-75.863199, 42.416957]]]}}, {"type": "Feature", "properties": {"name": "Cumberland", "id": "34011", "FIPS": "34011", "FIPS State": 34, "ST": "NJ", "County": "Cumberland County,NJ", "State": "New Jersey"}, "geometry": {"type": "Polygon", "coordinates": [[[-75.058088, 39.568948], [-74.986888, 39.514178], [-74.860918, 39.322485], [-74.915688, 39.180085], [-75.408613, 39.382732], [-75.063565, 39.568948], [-75.058088, 39.568948]]]}}, {"type": "Feature", "properties": {"name": "Ada", "id": "16001", "FIPS": "16001", "FIPS State": 16, "ST": "ID", "County": "Ada County,ID", "State": "Idaho"}, "geometry": {"type": "Polygon", "coordinates": [[[-116.51305, 43.8081], [-116.283018, 43.8081], [-115.97631, 43.589022], [-116.266588, 43.112528], [-116.51305, 43.28779], [-116.51305, 43.8081]]]}}, {"type": "Feature", "properties": {"name": "Cameron", "id": "48061", "FIPS": "48061", "FIPS State": 48, "ST": "TX", "County": "Cameron County,TX", "State": "Texas"}, "geometry": {"type": "Polygon", "coordinates": [[[-97.864068, 26.347614], [-97.382097, 26.413337], [-97.371143, 25.838258], [-97.864068, 26.051859], [-97.864068, 26.347614]]]}}, {"type": "Feature", "properties": {"name": "York", "id": "23031", "FIPS": "23031", "FIPS State": 23, "ST": "ME", "County": "York County,ME", "State": "Maine"}, "geometry": {"type": "Polygon", "coordinates": [[[-70.780598, 43.813577], [-70.353397, 43.534253], [-70.703921, 43.057759], [-70.818936, 43.123482], [-70.961337, 43.53973], [-70.988722, 43.791669], [-70.780598, 43.813577]]]}}, {"type": "Feature", "properties": {"name": "Kenosha", "id": "55059", "FIPS": "55059", "FIPS State": 55, "ST": "WI", "County": "Kenosha County,WI", "State": "Wisconsin"}, "geometry": {"type": "Polygon", "coordinates": [[[-88.027483, 42.668896], [-87.808406, 42.668896], [-87.802929, 42.493634], [-88.202745, 42.493634], [-88.219176, 42.493634], [-88.306807, 42.493634], [-88.306807, 42.60865], [-88.027483, 42.668896]]]}}, {"type": "Feature", "properties": {"name": "Collin", "id": "48085", "FIPS": "48085", "FIPS State": 48, "ST": "TX", "County": "Collin County,TX", "State": "Texas"}, "geometry": {"type": "Polygon", "coordinates": [[[-96.834403, 33.40739], [-96.834403, 33.40739], [-96.385294, 33.396436], [-96.297663, 33.35262], [-96.297663, 32.980189], [-96.440064, 32.980189], [-96.516741, 32.980189], [-96.845357, 32.985665], [-96.834403, 33.40739]]]}}, {"type": "Feature", "properties": {"name": "Geauga", "id": "39055", "FIPS": "39055", "FIPS State": 39, "ST": "OH", "County": "Geauga County,OH", "State": "Ohio"}, "geometry": {"type": "Polygon", "coordinates": [[[-81.006046, 41.715908], [-81.000569, 41.502308], [-81.000569, 41.348953], [-81.389431, 41.348953], [-81.389431, 41.568031], [-81.006046, 41.715908]]]}}, {"type": "Feature", "properties": {"name": "Shiawassee", "id": "26155", "FIPS": "26155", "FIPS State": 26, "ST": "MI", "County": "Shiawassee County,MI", "State": "Michigan"}, "geometry": {"type": "Polygon", "coordinates": [[[-83.941686, 43.134436], [-83.930732, 43.134436], [-83.925255, 42.778435], [-84.160763, 42.778435], [-84.270302, 42.778435], [-84.36341, 42.778435], [-84.368887, 43.118005], [-84.368887, 43.128959], [-83.941686, 43.134436]]]}}, {"type": "Feature", "properties": {"name": "Montgomery", "id": "47125", "FIPS": "47125", "FIPS State": 47, "ST": "TN", "County": "Montgomery County,TN", "State": "Tennessee"}, "geometry": {"type": "Polygon", "coordinates": [[[-87.112834, 36.644262], [-87.118311, 36.458046], [-87.288096, 36.321122], [-87.512651, 36.332076], [-87.594805, 36.364938], [-87.63862, 36.638785], [-87.337389, 36.644262], [-87.112834, 36.644262]]]}}, {"type": "Feature", "properties": {"name": "Sussex", "id": "34037", "FIPS": "34037", "FIPS State": 34, "ST": "NJ", "County": "Sussex County,NJ", "State": "New Jersey"}, "geometry": {"type": "Polygon", "coordinates": [[[-74.367994, 41.201076], [-74.504917, 41.08606], [-74.76781, 40.910798], [-74.96498, 41.091537], [-74.96498, 41.097014], [-74.992365, 41.091537], [-74.69661, 41.359907], [-74.367994, 41.201076]]]}}, {"type": "Feature", "properties": {"name": "Monmouth", "id": "34025", "FIPS": "34025", "FIPS State": 34, "ST": "NJ", "County": "Monmouth County,NJ", "State": "New Jersey"}, "geometry": {"type": "Polygon", "coordinates": [[[-74.0339, 40.100211], [-74.406332, 40.171411], [-74.55421, 40.078303], [-74.587071, 40.13855], [-74.48301, 40.253565], [-74.225593, 40.450735], [-74.0339, 40.100211]]]}}, {"type": "Feature", "properties": {"name": "Dutchess", "id": "36027", "FIPS": "36027", "FIPS State": 36, "ST": "NY", "County": "Dutchess County,NY", "State": "New York"}, "geometry": {"type": "Polygon", "coordinates": [[[-73.929839, 42.077386], [-73.49716, 42.050002], [-73.486206, 42.050002], [-73.519068, 41.666616], [-73.530022, 41.529692], [-73.979131, 41.436584], [-73.951746, 41.589939], [-73.929839, 42.077386]]]}}, {"type": "Feature", "properties": {"name": "Lee", "id": "12071", "FIPS": "12071", "FIPS State": 12, "ST": "FL", "County": "Lee County,FL", "State": "Florida"}, "geometry": {"type": "Polygon", "coordinates": [[[-82.063095, 26.769338], [-81.564693, 26.769338], [-81.564693, 26.511922], [-81.844017, 26.331183], [-82.063095, 26.769338]]]}}, {"type": "Feature", "properties": {"name": "Oklahoma", "id": "40109", "FIPS": "40109", "FIPS State": 40, "ST": "OK", "County": "Oklahoma County,OK", "State": "Oklahoma"}, "geometry": {"type": "Polygon", "coordinates": [[[-97.672375, 35.724136], [-97.141112, 35.724136], [-97.141112, 35.466719], [-97.141112, 35.379088], [-97.425913, 35.379088], [-97.672375, 35.379088], [-97.672375, 35.724136]]]}}, {"type": "Feature", "properties": {"name": "San Mateo", "id": "06081", "FIPS": "06081", "FIPS State": 6, "ST": "CA", "County": "San Mateo County,CA", "State": "California"}, "geometry": {"type": "Polygon", "coordinates": [[[-122.428146, 37.706788], [-122.389807, 37.706788], [-122.11596, 37.504141], [-122.083098, 37.476757], [-122.154299, 37.285064], [-122.291222, 37.109802], [-122.504823, 37.706788], [-122.428146, 37.706788]]]}}, {"type": "Feature", "properties": {"name": "Baldwin", "id": "01003", "FIPS": "01003", "FIPS State": 1, "ST": "AL", "County": "Baldwin County,AL", "State": "Alabama"}, "geometry": {"type": "Polygon", "coordinates": [[[-87.76459, 31.298768], [-87.616713, 31.243998], [-87.600282, 30.997536], [-87.518128, 30.280057], [-88.005575, 30.685351], [-87.972714, 31.161844], [-87.945329, 31.194706], [-87.76459, 31.298768]]]}}, {"type": "Feature", "properties": {"name": "Mobile", "id": "01097", "FIPS": "01097", "FIPS State": 1, "ST": "AL", "County": "Mobile County,AL", "State": "Alabama"}, "geometry": {"type": "Polygon", "coordinates": [[[-87.972714, 31.161844], [-88.005575, 30.685351], [-88.394438, 30.367688], [-88.410869, 30.734643], [-88.4273, 30.997536], [-88.432777, 31.112552], [-87.972714, 31.161844]]]}}, {"type": "Feature", "properties": {"name": "Cumberland", "id": "37051", "FIPS": "37051", "FIPS State": 37, "ST": "NC", "County": "Cumberland County,NC", "State": "North Carolina"}, "geometry": {"type": "Polygon", "coordinates": [[[-78.952193, 35.21478], [-78.6181, 35.247642], [-78.49213, 34.858779], [-78.9029, 34.836871], [-79.034347, 34.951887], [-79.10007, 35.176442], [-79.094593, 35.192872], [-78.952193, 35.21478]]]}}, {"type": "Feature", "properties": {"name": "Marion", "id": "18097", "FIPS": "18097", "FIPS State": 18, "ST": "IN", "County": "Marion County,IN", "State": "Indiana"}, "geometry": {"type": "Polygon", "coordinates": [[[-86.110554, 39.924949], [-85.935292, 39.924949], [-85.951723, 39.694917], [-85.951723, 39.640148], [-85.97363, 39.640148], [-86.247477, 39.634671], [-86.324155, 39.629194], [-86.324155, 39.924949], [-86.242001, 39.924949], [-86.110554, 39.924949]]]}}, {"type": "Feature", "properties": {"name": "Culpeper", "id": "51047", "FIPS": "51047", "FIPS State": 51, "ST": "VA", "County": "Culpeper County,VA", "State": "Virginia"}, "geometry": {"type": "Polygon", "coordinates": [[[-77.933482, 38.698114], [-77.637727, 38.407836], [-77.621296, 38.369498], [-77.703451, 38.358544], [-77.895143, 38.391406], [-78.092313, 38.309252], [-78.229237, 38.533806], [-77.933482, 38.698114]]]}}]}