{"type": "FeatureCollection", "crs": {"type": "name", "properties": {"name": "urn:ogc:def:crs:OGC:1.3:CRS84"}}, "features": [{"type": "Feature", "properties": {"name": "Waupaca", "id": "55135", "FIPS": "55135", "FIPS State": 55, "ST": "WI", "County": "Waupaca County,WI", "State": "Wisconsin"}, "geometry": {"type": "Polygon", "coordinates": [[[-89.221456, 44.678933], [-88.608039, 44.591302], [-88.739485, 44.240778], [-88.887363, 44.240778], [-89.226933, 44.246255], [-89.221456, 44.678933]]]}}, {"type": "Feature", "properties": {"name": "Hendricks", "id": "18063", "FIPS": "18063", "FIPS State": 18, "ST": "IN", "County": "Hendricks County,IN", "State": "Indiana"}, "geometry": {"type": "Polygon", "coordinates": [[[-86.433693, 39.924949], [-86.324155, 39.924949], [-86.324155, 39.629194], [-86.658248, 39.601809], [-86.696587, 39.864703], [-86.696587, 39.924949], [-86.433693, 39.924949]]]}}, {"type": "Feature", "properties": {"name": "Jackson", "id": "17077", "FIPS": "17077", "FIPS State": 17, "ST": "IL", "County": "Jackson County,IL", "State": "Illinois"}, "geometry": {"type": "Polygon", "coordinates": [[[-89.566503, 37.95325], [-89.177641, 37.947773], [-89.150256, 37.860142], [-89.155733, 37.602726], [-89.522688, 37.569865], [-89.676042, 37.805373], [-89.593888, 37.95325], [-89.566503, 37.95325]]]}}, {"type": "Feature", "properties": {"name": "West Feliciana", "id": "22125", "FIPS": "22125", "FIPS State": 22, "ST": "LA", "County": "West Feliciana County,LA", "State": "Louisiana"}, "geometry": {"type": "MultiPolygon", "coordinates": [[[[-91.724418, 31.046829], [-91.658695, 30.992059], [-91.751803, 31.019444], [-91.724418, 31.046829]]], [[[-91.636787, 30.997536], [-91.176724, 30.997536], [-91.302693, 30.652489], [-91.330078, 30.657966], [-91.664172, 30.970151], [-91.636787, 30.997536]]]]}}, {"type": "Feature", "properties": {"name": "Franklin", "id": "42055", "FIPS": "42055", "FIPS State": 42, "ST": "PA", "County": "Franklin County,PA", "State": "Pennsylvania"}, "geometry": {"type": "Polygon", "coordinates": [[[-77.670589, 40.291904], [-77.615819, 40.198796], [-77.473419, 39.946857], [-77.456988, 39.722302], [-77.467942, 39.722302], [-78.09779, 39.722302], [-77.862282, 40.061872], [-77.703451, 40.264519], [-77.670589, 40.291904]]]}}, {"type": "Feature", "properties": {"name": "Lafourche", "id": "22057", "FIPS": "22057", "FIPS State": 22, "ST": "LA", "County": "Lafourche County,LA", "State": "Louisiana"}, "geometry": {"type": "Polygon", "coordinates": [[[-90.727615, 29.913102], [-90.656414, 29.891194], [-90.541399, 29.891194], [-90.229213, 29.694024], [-90.032043, 29.431131], [-90.064905, 29.212054], [-90.086813, 29.162761], [-90.409952, 29.195623], [-90.815246, 29.776178], [-91.006939, 29.715932], [-90.886446, 29.907625], [-90.727615, 29.913102]]]}}, {"type": "Feature", "properties": {"name": "Rawlins", "id": "20153", "FIPS": "20153", "FIPS State": 20, "ST": "KS", "County": "Rawlins County,KS", "State": "Kansas"}, "geometry": {"type": "Polygon", "coordinates": [[[-101.325494, 40.001626], [-100.761369, 40.001626], [-100.739462, 40.001626], [-100.739462, 39.568948], [-101.391218, 39.568948], [-101.413125, 39.568948], [-101.413125, 40.001626], [-101.325494, 40.001626]]]}}, {"type": "Feature", "properties": {"name": "Nevada", "id": "06057", "FIPS": "06057", "FIPS State": 6, "ST": "CA", "County": "Nevada County,CA", "State": "California"}, "geometry": {"type": "Polygon", "coordinates": [[[-120.555032, 39.508701], [-120.001861, 39.442978], [-120.007338, 39.317009], [-120.149738, 39.317009], [-121.277988, 39.032208], [-121.020572, 39.393686], [-120.555032, 39.508701]]]}}, {"type": "Feature", "properties": {"name": "Spartanburg", "id": "45083", "FIPS": "45083", "FIPS State": 45, "ST": "SC", "County": "Spartanburg County,SC", "State": "South Carolina"}, "geometry": {"type": "Polygon", "coordinates": [[[-82.216449, 35.198349], [-81.969987, 35.187396], [-81.876879, 35.181919], [-81.712571, 34.913548], [-81.712571, 34.913548], [-81.854971, 34.595886], [-82.145249, 34.787579], [-82.216449, 35.198349]]]}}, {"type": "Feature", "properties": {"name": "Nottoway", "id": "51135", "FIPS": "51135", "FIPS State": 51, "ST": "VA", "County": "Nottoway County,VA", "State": "Virginia"}, "geometry": {"type": "Polygon", "coordinates": [[[-78.229237, 37.296018], [-77.796559, 37.191956], [-77.889666, 36.989309], [-78.004682, 37.022171], [-78.240191, 37.120755], [-78.229237, 37.296018]]]}}, {"type": "Feature", "properties": {"name": "Houston", "id": "48225", "FIPS": "48225", "FIPS State": 48, "ST": "TX", "County": "Houston County,TX", "State": "Texas"}, "geometry": {"type": "Polygon", "coordinates": [[[-95.623999, 31.54523], [-95.273475, 31.594523], [-95.005105, 31.424737], [-94.955813, 31.386399], [-95.432306, 31.057782], [-95.618522, 30.931813], [-95.7664, 31.096121], [-95.739015, 31.501415], [-95.623999, 31.54523]]]}}, {"type": "Feature", "properties": {"name": "Adams", "id": "28001", "FIPS": "28001", "FIPS State": 28, "ST": "MS", "County": "Adams County,MS", "State": "Mississippi"}, "geometry": {"type": "Polygon", "coordinates": [[[-91.319124, 31.758831], [-91.154816, 31.610953], [-91.160293, 31.34806], [-91.264355, 31.369968], [-91.587494, 31.189229], [-91.379371, 31.731446], [-91.346509, 31.753354], [-91.319124, 31.758831]]]}}, {"type": "Feature", "properties": {"name": "Cass", "id": "38017", "FIPS": "38017", "FIPS State": 38, "ST": "ND", "County": "Cass County,ND", "State": "North Dakota"}, "geometry": {"type": "Polygon", "coordinates": [[[-97.453297, 47.236664], [-96.834403, 47.236664], [-96.828926, 47.149033], [-96.790588, 46.628724], [-97.278035, 46.628724], [-97.683329, 46.628724], [-97.705237, 47.242141], [-97.453297, 47.236664]]]}}, {"type": "Feature", "properties": {"name": "Imperial", "id": "06025", "FIPS": "06025", "FIPS State": 6, "ST": "CA", "County": "Imperial County,CA", "State": "California"}, "geometry": {"type": "Polygon", "coordinates": [[[-114.733044, 33.434775], [-114.628982, 33.434775], [-114.513967, 33.029481], [-114.72209, 32.717295], [-116.107756, 32.61871], [-116.085849, 33.423821], [-114.733044, 33.434775]]]}}, {"type": "Feature", "properties": {"name": "Clarke", "id": "13059", "FIPS": "13059", "FIPS State": 13, "ST": "GA", "County": "Clarke County,GA", "State": "Georgia"}, "geometry": {"type": "Polygon", "coordinates": [[[-83.36113, 34.042715], [-83.257068, 33.998899], [-83.273499, 33.845545], [-83.530915, 33.960561], [-83.536392, 33.966038], [-83.36113, 34.042715]]]}}, {"type": "Feature", "properties": {"name": "Yankton", "id": "46135", "FIPS": "46135", "FIPS State": 46, "ST": "SD", "County": "Yankton County,SD", "State": "South Dakota"}, "geometry": {"type": "Polygon", "coordinates": [[[-97.343759, 43.167298], [-97.157543, 43.085144], [-97.16302, 42.800343], [-97.486159, 42.849635], [-97.634037, 42.849635], [-97.639513, 43.167298], [-97.398528, 43.167298], [-97.343759, 43.167298]]]}}, {"type": "Feature", "properties": {"name": "Taos", "id": "35055", "FIPS": "35055", "FIPS State": 35, "ST": "NM", "County": "Taos County,NM", "State": "New Mexico"}, "geometry": {"type": "Polygon", "coordinates": [[[-105.219599, 36.994786], [-105.340092, 36.260876], [-105.531785, 36.014414], [-105.958986, 36.353984], [-106.008278, 36.994786], [-105.718001, 36.994786], [-105.219599, 36.994786]]]}}, {"type": "Feature", "properties": {"name": "Franklin", "id": "31061", "FIPS": "31061", "FIPS State": 31, "ST": "NE", "County": "Franklin County,NE", "State": "Nebraska"}, "geometry": {"type": "Polygon", "coordinates": [[[-99.11281, 40.35215], [-98.729425, 40.35215], [-98.723948, 40.001626], [-99.068995, 40.001626], [-99.123764, 40.001626], [-99.178534, 40.001626], [-99.178534, 40.35215], [-99.11281, 40.35215]]]}}, {"type": "Feature", "properties": {"name": "Montgomery", "id": "51121", "FIPS": "51121", "FIPS State": 51, "ST": "VA", "County": "Montgomery County,VA", "State": "Virginia"}, "geometry": {"type": "Polygon", "coordinates": [[[-80.261182, 37.339833], [-80.179028, 37.115279], [-80.545983, 36.983832], [-80.578844, 37.087894], [-80.529552, 37.131709], [-80.606229, 37.246725], [-80.430967, 37.312448], [-80.261182, 37.339833]]]}}, {"type": "Feature", "properties": {"name": "Russell", "id": "01113", "FIPS": "01113", "FIPS State": 1, "ST": "AL", "County": "Russell County,AL", "State": "Alabama"}, "geometry": {"type": "Polygon", "coordinates": [[[-85.020643, 32.509172], [-84.998735, 32.509172], [-84.982304, 32.372248], [-84.922058, 32.229848], [-85.053504, 32.06554], [-85.354736, 32.147694], [-85.409506, 32.147694], [-85.431413, 32.235325], [-85.431413, 32.410587], [-85.020643, 32.509172]]]}}, {"type": "Feature", "properties": {"name": "Polk", "id": "41053", "FIPS": "41053", "FIPS State": 41, "ST": "OR", "County": "Polk County,OR", "State": "Oregon"}, "geometry": {"type": "Polygon", "coordinates": [[[-123.622119, 45.07875], [-123.068948, 45.073273], [-123.145625, 44.750133], [-123.151102, 44.722749], [-123.561872, 44.722749], [-123.600211, 44.722749], [-123.72618, 45.045888], [-123.72618, 45.07875], [-123.622119, 45.07875]]]}}, {"type": "Feature", "properties": {"name": "Warren", "id": "47177", "FIPS": "47177", "FIPS State": 47, "ST": "TN", "County": "Warren County,TN", "State": "Tennessee"}, "geometry": {"type": "Polygon", "coordinates": [[[-85.683353, 35.833674], [-85.601199, 35.795336], [-85.557383, 35.532443], [-85.606675, 35.532443], [-85.875046, 35.521489], [-85.984584, 35.658412], [-85.885999, 35.839151], [-85.683353, 35.833674]]]}}, {"type": "Feature", "properties": {"name": "Hoke", "id": "37093", "FIPS": "37093", "FIPS State": 37, "ST": "NC", "County": "Hoke County,NC", "State": "North Carolina"}, "geometry": {"type": "Polygon", "coordinates": [[[-79.127455, 35.165488], [-79.10007, 35.176442], [-79.034347, 34.951887], [-79.346533, 34.836871], [-79.461548, 35.044995], [-79.127455, 35.165488]]]}}, {"type": "Feature", "properties": {"name": "Codington", "id": "46029", "FIPS": "46029", "FIPS State": 46, "ST": "SD", "County": "Codington County,SD", "State": "South Dakota"}, "geometry": {"type": "Polygon", "coordinates": [[[-97.23422, 45.14995], [-97.228743, 45.14995], [-96.883696, 44.974688], [-96.883696, 44.804903], [-97.491636, 44.804903], [-97.491636, 45.14995], [-97.23422, 45.14995]]]}}, {"type": "Feature", "properties": {"name": "New Hanover", "id": "37129", "FIPS": "37129", "FIPS State": 37, "ST": "NC", "County": "New Hanover County,NC", "State": "North Carolina"}, "geometry": {"type": "Polygon", "coordinates": [[[-77.960867, 34.376808], [-77.714404, 34.294654], [-77.938959, 33.927699], [-78.032067, 34.332993], [-77.960867, 34.376808]]]}}, {"type": "Feature", "properties": {"name": "Union", "id": "39159", "FIPS": "39159", "FIPS State": 39, "ST": "OH", "County": "Union County,OH", "State": "Ohio"}, "geometry": {"type": "Polygon", "coordinates": [[[-83.273499, 40.505505], [-83.246114, 40.445258], [-83.169437, 40.144027], [-83.207776, 40.105688], [-83.50353, 40.111165], [-83.552823, 40.231658], [-83.519961, 40.505505], [-83.415899, 40.505505], [-83.273499, 40.505505]]]}}, {"type": "Feature", "properties": {"name": "Lubbock", "id": "48303", "FIPS": "48303", "FIPS State": 48, "ST": "TX", "County": "Lubbock County,TX", "State": "Texas"}, "geometry": {"type": "Polygon", "coordinates": [[[-101.571957, 33.829114], [-101.561003, 33.829114], [-101.555526, 33.396436], [-102.075835, 33.390959], [-102.086789, 33.823637], [-101.571957, 33.829114]]]}}, {"type": "Feature", "properties": {"name": "Grundy", "id": "47061", "FIPS": "47061", "FIPS State": 47, "ST": "TN", "County": "Grundy County,TN", "State": "Tennessee"}, "geometry": {"type": "Polygon", "coordinates": [[[-85.590245, 35.521489], [-85.557383, 35.318842], [-85.601199, 35.307888], [-85.875046, 35.225734], [-85.913384, 35.291457], [-85.875046, 35.521489], [-85.606675, 35.532443], [-85.590245, 35.521489]]]}}, {"type": "Feature", "properties": {"name": "Christian", "id": "21047", "FIPS": "21047", "FIPS State": 21, "ST": "KY", "County": "Christian County,KY", "State": "Kentucky"}, "geometry": {"type": "Polygon", "coordinates": [[[-87.682436, 37.14814], [-87.331912, 37.159094], [-87.260711, 37.071463], [-87.260711, 37.071463], [-87.337389, 36.644262], [-87.63862, 36.638785], [-87.69339, 36.638785], [-87.731728, 37.000263], [-87.682436, 37.14814]]]}}, {"type": "Feature", "properties": {"name": "Russell", "id": "51167", "FIPS": "51167", "FIPS State": 51, "ST": "VA", "County": "Russell County,VA", "State": "Virginia"}, "geometry": {"type": "Polygon", "coordinates": [[[-81.898787, 37.142663], [-81.778294, 36.956447], [-81.838541, 36.929063], [-82.331465, 36.709985], [-82.408142, 36.874293], [-82.325988, 36.972878], [-82.150726, 37.044078], [-81.898787, 37.142663]]]}}, {"type": "Feature", "properties": {"name": "Cheboygan", "id": "26031", "FIPS": "26031", "FIPS State": 26, "ST": "MI", "County": "Cheboygan County,MI", "State": "Michigan"}, "geometry": {"type": "Polygon", "coordinates": [[[-84.730365, 45.779798], [-84.730365, 45.785275], [-84.204579, 45.626444], [-84.248394, 45.199243], [-84.368887, 45.199243], [-84.735842, 45.204719], [-84.730365, 45.286874], [-84.730365, 45.779798]]]}}, {"type": "Feature", "properties": {"name": "Penobscot", "id": "23019", "FIPS": "23019", "FIPS State": 23, "ST": "ME", "County": "Penobscot County,ME", "State": "Maine"}, "geometry": {"type": "Polygon", "coordinates": [[[-68.513145, 46.382262], [-68.43099, 45.577151], [-68.047605, 45.637398], [-68.058559, 45.254012], [-68.814376, 44.68441], [-69.268962, 44.722749], [-69.356593, 45.073273], [-68.776038, 45.243058], [-68.819853, 46.393216], [-68.513145, 46.382262]]]}}, {"type": "Feature", "properties": {"name": "Yadkin", "id": "37197", "FIPS": "37197", "FIPS State": 37, "ST": "NC", "County": "Yadkin County,NC", "State": "North Carolina"}, "geometry": {"type": "Polygon", "coordinates": [[[-80.452875, 36.238968], [-80.49669, 36.047275], [-80.69386, 36.052752], [-80.880076, 36.058229], [-80.874599, 36.238968], [-80.452875, 36.238968]]]}}, {"type": "Feature", "properties": {"name": "Marion", "id": "54049", "FIPS": "54049", "FIPS State": 54, "ST": "WV", "County": "Marion County,WV", "State": "West Virginia"}, "geometry": {"type": "Polygon", "coordinates": [[[-80.398105, 39.634671], [-79.938042, 39.453932], [-80.195458, 39.393686], [-80.49669, 39.470363], [-80.398105, 39.634671]]]}}, {"type": "Feature", "properties": {"name": "Gadsden", "id": "12039", "FIPS": "12039", "FIPS State": 12, "ST": "FL", "County": "Gadsden County,FL", "State": "Florida"}, "geometry": {"type": "Polygon", "coordinates": [[[-84.867289, 30.712735], [-84.861812, 30.712735], [-84.379841, 30.690827], [-84.281256, 30.685351], [-84.648211, 30.389596], [-84.933012, 30.608673], [-84.867289, 30.712735]]]}}, {"type": "Feature", "properties": {"name": "Burleigh", "id": "38015", "FIPS": "38015", "FIPS State": 38, "ST": "ND", "County": "Burleigh County,ND", "State": "North Dakota"}, "geometry": {"type": "Polygon", "coordinates": [[[-100.608015, 47.329772], [-100.115091, 47.329772], [-100.082229, 46.634201], [-100.586107, 46.634201], [-100.662785, 46.634201], [-100.936632, 46.984725], [-100.964016, 47.15451], [-100.673738, 47.329772], [-100.608015, 47.329772]]]}}, {"type": "Feature", "properties": {"name": "Routt", "id": "08107", "FIPS": "08107", "FIPS State": 8, "ST": "CO", "County": "Routt County,CO", "State": "Colorado"}, "geometry": {"type": "Polygon", "coordinates": [[[-107.317267, 41.003906], [-106.857204, 41.003906], [-106.654557, 40.445258], [-106.627173, 39.924949], [-107.032466, 39.919472], [-107.037943, 40.089257], [-107.109143, 40.226181], [-107.43776, 40.220704], [-107.317267, 41.003906]]]}}, {"type": "Feature", "properties": {"name": "Emanuel", "id": "13107", "FIPS": "13107", "FIPS State": 13, "ST": "GA", "County": "Emanuel County,GA", "State": "Georgia"}, "geometry": {"type": "Polygon", "coordinates": [[[-82.315034, 32.837788], [-82.145249, 32.810403], [-82.002849, 32.607757], [-82.030233, 32.536556], [-82.23288, 32.317479], [-82.408142, 32.355817], [-82.550543, 32.498218], [-82.649128, 32.514649], [-82.435527, 32.761111], [-82.315034, 32.837788]]]}}, {"type": "Feature", "properties": {"name": "Warren", "id": "28149", "FIPS": "28149", "FIPS State": 28, "ST": "MS", "County": "Warren County,MS", "State": "Mississippi"}, "geometry": {"type": "Polygon", "coordinates": [[[-91.045277, 32.574895], [-90.722138, 32.61871], [-90.552353, 32.509172], [-90.727615, 32.224371], [-91.028846, 32.114832], [-91.028846, 32.120309], [-91.050754, 32.125786], [-91.121954, 32.213417], [-91.067185, 32.563941], [-91.045277, 32.574895]]]}}, {"type": "Feature", "properties": {"name": "Jefferson", "id": "42065", "FIPS": "42065", "FIPS State": 42, "ST": "PA", "County": "Jefferson County,PA", "State": "Pennsylvania"}, "geometry": {"type": "Polygon", "coordinates": [[[-78.95767, 41.370861], [-78.711208, 41.201076], [-78.804316, 40.905321], [-79.215086, 40.910798], [-79.215086, 41.053199], [-79.209609, 41.332523], [-79.094593, 41.343476], [-78.95767, 41.370861]]]}}, {"type": "Feature", "properties": {"name": "Hinds", "id": "28049", "FIPS": "28049", "FIPS State": 28, "ST": "MS", "County": "Hinds County,MS", "State": "Mississippi"}, "geometry": {"type": "Polygon", "coordinates": [[[-90.486629, 32.542033], [-90.448291, 32.574895], [-90.064905, 32.399633], [-90.229213, 32.049109], [-90.716661, 32.049109], [-90.727615, 32.224371], [-90.552353, 32.509172], [-90.486629, 32.542033]]]}}, {"type": "Feature", "properties": {"name": "Berrien", "id": "26021", "FIPS": "26021", "FIPS State": 26, "ST": "MI", "County": "Berrien County,MI", "State": "Michigan"}, "geometry": {"type": "Polygon", "coordinates": [[[-86.302247, 42.241695], [-86.22557, 42.07191], [-86.22557, 41.759724], [-86.521325, 41.759724], [-86.822556, 41.759724], [-86.362493, 42.241695], [-86.302247, 42.241695]]]}}, {"type": "Feature", "properties": {"name": "Midland", "id": "26111", "FIPS": "26111", "FIPS State": 26, "ST": "MI", "County": "Midland County,MI", "State": "Michigan"}, "geometry": {"type": "Polygon", "coordinates": [[[-84.368887, 43.830007], [-84.16624, 43.82453], [-84.16624, 43.567114], [-84.368887, 43.468529], [-84.609872, 43.468529], [-84.604395, 43.813577], [-84.368887, 43.830007]]]}}, {"type": "Feature", "properties": {"name": "Madison", "id": "05087", "FIPS": "05087", "FIPS State": 5, "ST": "AR", "County": "Madison County,AR", "State": "Arkansas"}, "geometry": {"type": "Polygon", "coordinates": [[[-93.816609, 36.304691], [-93.477039, 36.123952], [-93.520854, 35.762474], [-93.696116, 35.767951], [-93.909717, 35.762474], [-93.964486, 35.762474], [-93.887809, 36.233491], [-93.816609, 36.304691]]]}}]}