{"type": "FeatureCollection", "crs": {"type": "name", "properties": {"name": "urn:ogc:def:crs:OGC:1.3:CRS84"}}, "features": [{"type": "Feature", "properties": {"name": "Lowndes", "id": "13185", "FIPS": "13185", "FIPS State": 13, "ST": "GA", "County": "Lowndes County,GA", "State": "Georgia"}, "geometry": {"type": "Polygon", "coordinates": [[[-83.383038, 31.030398], [-83.295407, 31.024921], [-83.196822, 31.024921], [-83.02156, 30.849659], [-83.136575, 30.625104], [-83.311837, 30.636058], [-83.355653, 30.636058], [-83.476146, 31.030398], [-83.383038, 31.030398]]]}}, {"type": "Feature", "properties": {"name": "Macon", "id": "13193", "FIPS": "13193", "FIPS State": 13, "ST": "GA", "County": "Macon County,GA", "State": "Georgia"}, "geometry": {"type": "MultiPolygon", "coordinates": [[[[-84.001932, 32.531079], [-84.007409, 32.520126], [-84.051224, 32.520126], [-84.051224, 32.520126], [-84.001932, 32.531079]]], [[[-84.018363, 32.503695], [-83.848578, 32.465356], [-83.848578, 32.290094], [-84.029317, 32.169601], [-84.182671, 32.229848], [-84.253871, 32.372248], [-84.051224, 32.520126], [-84.018363, 32.503695]]]]}}, {"type": "Feature", "properties": {"name": "Bryan", "id": "13029", "FIPS": "13029", "FIPS State": 13, "ST": "GA", "County": "Bryan County,GA", "State": "Georgia"}, "geometry": {"type": "Polygon", "coordinates": [[[-81.42777, 32.235325], [-81.389431, 32.098401], [-81.153923, 31.725969], [-81.197738, 31.725969], [-81.707094, 32.087447], [-81.718048, 32.087447], [-81.783771, 32.153171], [-81.433247, 32.240802], [-81.42777, 32.235325]]]}}, {"type": "Feature", "properties": {"name": "Wayne", "id": "37191", "FIPS": "37191", "FIPS State": 37, "ST": "NC", "County": "Wayne County,NC", "State": "North Carolina"}, "geometry": {"type": "Polygon", "coordinates": [[[-78.064929, 35.587212], [-77.823943, 35.570781], [-77.807512, 35.368135], [-77.834897, 35.176442], [-78.043021, 35.192872], [-78.163514, 35.187396], [-78.305914, 35.28598], [-78.064929, 35.587212]]]}}, {"type": "Feature", "properties": {"name": "Ulster", "id": "36111", "FIPS": "36111", "FIPS State": 36, "ST": "NY", "County": "Ulster County,NY", "State": "New York"}, "geometry": {"type": "Polygon", "coordinates": [[[-74.01747, 42.159541], [-73.913408, 42.126679], [-73.929839, 42.077386], [-73.951746, 41.589939], [-74.263932, 41.633754], [-74.367994, 41.589939], [-74.778764, 42.01714], [-74.450148, 42.170494], [-74.01747, 42.159541]]]}}, {"type": "Feature", "properties": {"name": "Kanawha", "id": "54039", "FIPS": "54039", "FIPS State": 54, "ST": "WV", "County": "Kanawha County,WV", "State": "West Virginia"}, "geometry": {"type": "Polygon", "coordinates": [[[-81.69614, 38.626914], [-81.69614, 38.626914], [-81.520878, 38.610483], [-81.192262, 38.528329], [-81.2306, 38.265436], [-81.2306, 38.265436], [-81.378478, 37.969681], [-81.455155, 37.986112], [-81.756386, 38.20519], [-81.833064, 38.210667], [-81.915218, 38.325682], [-81.69614, 38.626914]]]}}, {"type": "Feature", "properties": {"name": "Outagamie", "id": "55087", "FIPS": "55087", "FIPS State": 55, "ST": "WI", "County": "Outagamie County,WI", "State": "Wisconsin"}, "geometry": {"type": "Polygon", "coordinates": [[[-88.575177, 44.591302], [-88.246561, 44.585825], [-88.191791, 44.240778], [-88.405392, 44.246255], [-88.471115, 44.246255], [-88.739485, 44.240778], [-88.608039, 44.591302], [-88.575177, 44.591302]]]}}, {"type": "Feature", "properties": {"name": "Marathon", "id": "55073", "FIPS": "55073", "FIPS State": 55, "ST": "WI", "County": "Marathon County,WI", "State": "Wisconsin"}, "geometry": {"type": "Polygon", "coordinates": [[[-90.196352, 45.122565], [-90.042997, 45.122565], [-89.424103, 45.117088], [-89.221456, 45.029457], [-89.221456, 44.678933], [-89.347426, 44.678933], [-89.845827, 44.68441], [-90.207305, 44.68441], [-90.316844, 44.68441], [-90.316844, 45.034934], [-90.196352, 45.122565]]]}}, {"type": "Feature", "properties": {"name": "Schenectady", "id": "36093", "FIPS": "36093", "FIPS State": 36, "ST": "NY", "County": "Schenectady County,NY", "State": "New York"}, "geometry": {"type": "Polygon", "coordinates": [[[-74.094147, 42.953697], [-73.809346, 42.778435], [-74.181778, 42.729142], [-74.263932, 42.794866], [-74.094147, 42.953697]]]}}, {"type": "Feature", "properties": {"name": "Linn", "id": "41043", "FIPS": "41043", "FIPS State": 41, "ST": "OR", "County": "Linn County,OR", "State": "Oregon"}, "geometry": {"type": "Polygon", "coordinates": [[[-122.658177, 44.777518], [-121.79282, 44.68441], [-121.842113, 44.394132], [-121.798297, 44.257209], [-123.200394, 44.284593], [-123.151102, 44.722749], [-123.145625, 44.750133], [-122.658177, 44.777518]]]}}, {"type": "Feature", "properties": {"name": "Lake", "id": "39085", "FIPS": "39085", "FIPS State": 39, "ST": "OH", "County": "Lake County,OH", "State": "Ohio"}, "geometry": {"type": "Polygon", "coordinates": [[[-81.000569, 41.852832], [-81.006046, 41.715908], [-81.389431, 41.568031], [-81.488016, 41.633754], [-81.000569, 41.852832]]]}}, {"type": "Feature", "properties": {"name": "Minnehaha", "id": "46099", "FIPS": "46099", "FIPS State": 46, "ST": "SD", "County": "Minnehaha County,SD", "State": "South Dakota"}, "geometry": {"type": "Polygon", "coordinates": [[[-96.489356, 43.846438], [-96.451017, 43.851915], [-96.451017, 43.501391], [-96.598895, 43.501391], [-96.779634, 43.501391], [-96.922034, 43.501391], [-97.130158, 43.501391], [-97.130158, 43.846438], [-96.889173, 43.846438], [-96.489356, 43.846438]]]}}, {"type": "Feature", "properties": {"name": "Hamilton", "id": "47065", "FIPS": "47065", "FIPS State": 47, "ST": "TN", "County": "Hamilton County,TN", "State": "Tennessee"}, "geometry": {"type": "Polygon", "coordinates": [[[-85.130182, 35.455766], [-85.015166, 35.41195], [-84.943966, 35.28598], [-84.976827, 34.990226], [-84.982304, 34.990226], [-85.267105, 34.984749], [-85.272582, 34.984749], [-85.36569, 34.984749], [-85.475229, 34.984749], [-85.387598, 35.149057], [-85.22329, 35.351704], [-85.135659, 35.455766], [-85.130182, 35.455766]]]}}, {"type": "Feature", "properties": {"name": "Montgomery", "id": "47125", "FIPS": "47125", "FIPS State": 47, "ST": "TN", "County": "Montgomery County,TN", "State": "Tennessee"}, "geometry": {"type": "Polygon", "coordinates": [[[-87.112834, 36.644262], [-87.118311, 36.458046], [-87.288096, 36.321122], [-87.512651, 36.332076], [-87.594805, 36.364938], [-87.63862, 36.638785], [-87.337389, 36.644262], [-87.112834, 36.644262]]]}}, {"type": "Feature", "properties": {"name": "Sevier", "id": "47155", "FIPS": "47155", "FIPS State": 47, "ST": "TN", "County": "Sevier County,TN", "State": "Tennessee"}, "geometry": {"type": "Polygon", "coordinates": [[[-83.678792, 36.030844], [-83.673316, 36.036321], [-83.311837, 35.893921], [-83.257068, 35.713182], [-83.257068, 35.696751], [-83.662362, 35.570781], [-83.793808, 35.888444], [-83.678792, 36.030844]]]}}, {"type": "Feature", "properties": {"name": "Shelby", "id": "47157", "FIPS": "47157", "FIPS State": 47, "ST": "TN", "County": "Shelby County,TN", "State": "Tennessee"}, "geometry": {"type": "Polygon", "coordinates": [[[-89.774627, 35.406473], [-89.632227, 35.373611], [-89.643181, 34.995703], [-89.725335, 34.995703], [-89.829396, 34.995703], [-90.311367, 34.995703], [-90.075859, 35.384565], [-89.774627, 35.406473]]]}}, {"type": "Feature", "properties": {"name": "Horry", "id": "45051", "FIPS": "45051", "FIPS State": 45, "ST": "SC", "County": "Horry County,SC", "State": "South Carolina"}, "geometry": {"type": "Polygon", "coordinates": [[[-79.078163, 34.294654], [-79.072686, 34.300131], [-78.650961, 33.94413], [-78.541422, 33.851022], [-79.001485, 33.571698], [-79.187701, 33.703145], [-79.127455, 34.256316], [-79.078163, 34.294654]]]}}, {"type": "Feature", "properties": {"name": "Georgetown", "id": "45043", "FIPS": "45043", "FIPS State": 45, "ST": "SC", "County": "Georgetown County,SC", "State": "South Carolina"}, "geometry": {"type": "Polygon", "coordinates": [[[-79.319148, 33.779822], [-79.319148, 33.779822], [-79.187701, 33.703145], [-79.001485, 33.571698], [-79.291763, 33.111635], [-79.445118, 33.215697], [-79.675149, 33.303328], [-79.319148, 33.779822]]]}}, {"type": "Feature", "properties": {"name": "Charleston", "id": "45019", "FIPS": "45019", "FIPS State": 45, "ST": "SC", "County": "Charleston County,SC", "State": "South Carolina"}, "geometry": {"type": "Polygon", "coordinates": [[[-79.49441, 33.188312], [-79.445118, 33.215697], [-79.291763, 33.111635], [-80.250228, 32.531079], [-80.403582, 32.859696], [-80.151643, 33.024004], [-79.927088, 32.821357], [-79.49441, 33.188312]]]}}, {"type": "Feature", "properties": {"name": "Sullivan", "id": "47163", "FIPS": "47163", "FIPS State": 47, "ST": "TN", "County": "Sullivan County,TN", "State": "Tennessee"}, "geometry": {"type": "Polygon", "coordinates": [[[-81.827587, 36.616877], [-81.986418, 36.507338], [-82.298603, 36.397799], [-82.473866, 36.441615], [-82.681989, 36.430661], [-82.610789, 36.594969], [-82.293127, 36.594969], [-82.243834, 36.594969], [-82.145249, 36.594969], [-81.827587, 36.616877]]]}}, {"type": "Feature", "properties": {"name": "Northampton", "id": "42095", "FIPS": "42095", "FIPS State": 42, "ST": "PA", "County": "Northampton County,PA", "State": "Pennsylvania"}, "geometry": {"type": "Polygon", "coordinates": [[[-75.118335, 40.965568], [-75.195012, 40.609566], [-75.331935, 40.538366], [-75.611259, 40.784829], [-75.474336, 40.812213], [-75.118335, 40.965568]]]}}, {"type": "Feature", "properties": {"name": "Anderson", "id": "48001", "FIPS": "48001", "FIPS State": 48, "ST": "TX", "County": "Anderson County,TX", "State": "Texas"}, "geometry": {"type": "Polygon", "coordinates": [[[-95.42683, 32.08197], [-95.273475, 31.594523], [-95.623999, 31.54523], [-95.739015, 31.501415], [-95.728061, 31.643815], [-95.788308, 31.61643], [-96.051201, 32.005293], [-95.42683, 32.08197]]]}}, {"type": "Feature", "properties": {"name": "Lackawanna", "id": "42069", "FIPS": "42069", "FIPS State": 42, "ST": "PA", "County": "Lackawanna County,PA", "State": "Pennsylvania"}, "geometry": {"type": "Polygon", "coordinates": [[[-75.720798, 41.644708], [-75.463382, 41.639231], [-75.507197, 41.233938], [-75.600305, 41.162737], [-75.835814, 41.425631], [-75.720798, 41.644708]]]}}, {"type": "Feature", "properties": {"name": "Cambria", "id": "42021", "FIPS": "42021", "FIPS State": 42, "ST": "PA", "County": "Cambria County,PA", "State": "Pennsylvania"}, "geometry": {"type": "Polygon", "coordinates": [[[-78.804316, 40.724582], [-78.349729, 40.724582], [-78.6181, 40.324766], [-78.656438, 40.242611], [-79.001485, 40.286427], [-79.056255, 40.286427], [-78.974101, 40.395966], [-78.804316, 40.724582]]]}}, {"type": "Feature", "properties": {"name": "Bucks", "id": "42017", "FIPS": "42017", "FIPS State": 42, "ST": "PA", "County": "Bucks County,PA", "State": "Pennsylvania"}, "geometry": {"type": "Polygon", "coordinates": [[[-75.195012, 40.609566], [-75.189535, 40.593136], [-74.943073, 40.341196], [-74.723995, 40.149503], [-74.975934, 40.050919], [-75.014273, 40.13855], [-75.48529, 40.417874], [-75.331935, 40.538366], [-75.195012, 40.609566]]]}}, {"type": "Feature", "properties": {"name": "Berks", "id": "42011", "FIPS": "42011", "FIPS State": 42, "ST": "PA", "County": "Berks County,PA", "State": "Pennsylvania"}, "geometry": {"type": "Polygon", "coordinates": [[[-75.890583, 40.67529], [-75.529105, 40.445258], [-75.69889, 40.242611], [-75.874152, 40.13855], [-76.153476, 40.313812], [-76.438277, 40.494551], [-75.890583, 40.67529]]]}}, {"type": "Feature", "properties": {"name": "Hidalgo", "id": "48215", "FIPS": "48215", "FIPS State": 48, "ST": "TX", "County": "Hidalgo County,TX", "State": "Texas"}, "geometry": {"type": "Polygon", "coordinates": [[[-98.318654, 26.785769], [-97.984561, 26.780292], [-97.957176, 26.610507], [-97.864068, 26.347614], [-97.864068, 26.051859], [-98.587024, 26.254506], [-98.318654, 26.785769]]]}}, {"type": "Feature", "properties": {"name": "Parker", "id": "48367", "FIPS": "48367", "FIPS State": 48, "ST": "TX", "County": "Parker County,TX", "State": "Texas"}, "geometry": {"type": "Polygon", "coordinates": [[[-98.055761, 33.002096], [-97.924314, 33.002096], [-97.546405, 32.996619], [-97.551882, 32.552987], [-97.617606, 32.552987], [-98.066715, 32.558464], [-98.055761, 33.002096], [-98.055761, 33.002096]]]}}]}