{"type": "FeatureCollection", "crs": {"type": "name", "properties": {"name": "urn:ogc:def:crs:OGC:1.3:CRS84"}}, "features": [{"type": "Feature", "properties": {"name": "Crawford", "id": "42039", "FIPS": "42039", "FIPS State": 42, "ST": "PA", "County": "Crawford County,PA", "State": "Pennsylvania"}, "geometry": {"type": "Polygon", "coordinates": [[[-79.708011, 41.852832], [-79.609426, 41.847355], [-79.614903, 41.6228], [-79.998289, 41.491354], [-80.003765, 41.491354], [-80.518598, 41.491354], [-80.518598, 41.502308], [-80.518598, 41.847355], [-79.708011, 41.852832]]]}}, {"type": "Feature", "properties": {"name": "Marin", "id": "06041", "FIPS": "06041", "FIPS State": 6, "ST": "CA", "County": "Marin County,CA", "State": "California"}, "geometry": {"type": "Polygon", "coordinates": [[[-122.844393, 38.27639], [-122.488392, 38.112082], [-122.504823, 37.821804], [-123.014178, 38.002543], [-123.003224, 38.298298], [-122.844393, 38.27639]]]}}, {"type": "Feature", "properties": {"name": "Clackamas", "id": "41005", "FIPS": "41005", "FIPS State": 41, "ST": "OR", "County": "Clackamas County,OR", "State": "Oregon"}, "geometry": {"type": "Polygon", "coordinates": [[[-122.356945, 45.462136], [-121.820205, 45.462136], [-121.694236, 45.259489], [-121.732574, 44.887057], [-122.395284, 44.887057], [-122.84987, 45.259489], [-122.866301, 45.319735], [-122.745808, 45.434751], [-122.356945, 45.462136]]]}}, {"type": "Feature", "properties": {"name": "Berks", "id": "42011", "FIPS": "42011", "FIPS State": 42, "ST": "PA", "County": "Berks County,PA", "State": "Pennsylvania"}, "geometry": {"type": "Polygon", "coordinates": [[[-75.890583, 40.67529], [-75.529105, 40.445258], [-75.69889, 40.242611], [-75.874152, 40.13855], [-76.153476, 40.313812], [-76.438277, 40.494551], [-75.890583, 40.67529]]]}}, {"type": "Feature", "properties": {"name": "Aiken", "id": "45003", "FIPS": "45003", "FIPS State": 45, "ST": "SC", "County": "Aiken County,SC", "State": "South Carolina"}, "geometry": {"type": "Polygon", "coordinates": [[[-81.57017, 33.878407], [-81.186785, 33.653852], [-81.373001, 33.489544], [-81.756386, 33.199266], [-81.849494, 33.248559], [-82.013803, 33.53336], [-81.652325, 33.812683], [-81.57017, 33.878407]]]}}, {"type": "Feature", "properties": {"name": "Brown", "id": "55009", "FIPS": "55009", "FIPS State": 55, "ST": "WI", "County": "Brown County,WI", "State": "Wisconsin"}, "geometry": {"type": "Polygon", "coordinates": [[[-88.235607, 44.678933], [-87.989145, 44.678933], [-87.76459, 44.646072], [-87.76459, 44.328409], [-87.885083, 44.328409], [-88.043914, 44.240778], [-88.191791, 44.240778], [-88.246561, 44.585825], [-88.241084, 44.678933], [-88.235607, 44.678933]]]}}, {"type": "Feature", "properties": {"name": "Cherokee", "id": "13057", "FIPS": "13057", "FIPS State": 13, "ST": "GA", "County": "Cherokee County,GA", "State": "Georgia"}, "geometry": {"type": "Polygon", "coordinates": [[[-84.582488, 34.387762], [-84.259348, 34.382285], [-84.259348, 34.332993], [-84.259348, 34.185115], [-84.407226, 34.108438], [-84.418179, 34.075577], [-84.615349, 34.081054], [-84.659165, 34.075577], [-84.653688, 34.415147], [-84.582488, 34.387762]]]}}, {"type": "Feature", "properties": {"name": "Coffee", "id": "47031", "FIPS": "47031", "FIPS State": 47, "ST": "TN", "County": "Coffee County,TN", "State": "Tennessee"}, "geometry": {"type": "Polygon", "coordinates": [[[-86.209139, 35.702228], [-85.984584, 35.658412], [-85.875046, 35.521489], [-85.913384, 35.291457], [-86.214616, 35.346227], [-86.263908, 35.335273], [-86.258431, 35.41195], [-86.258431, 35.41195], [-86.247477, 35.631028], [-86.209139, 35.702228]]]}}, {"type": "Feature", "properties": {"name": "Thurston", "id": "53067", "FIPS": "53067", "FIPS State": 53, "ST": "WA", "County": "Thurston County,WA", "State": "Washington"}, "geometry": {"type": "Polygon", "coordinates": [[[-122.904639, 47.15451], [-122.822485, 47.192849], [-122.203591, 46.760171], [-123.162056, 46.793032], [-123.200394, 47.08331], [-122.904639, 47.15451]]]}}, {"type": "Feature", "properties": {"name": "Minnehaha", "id": "46099", "FIPS": "46099", "FIPS State": 46, "ST": "SD", "County": "Minnehaha County,SD", "State": "South Dakota"}, "geometry": {"type": "Polygon", "coordinates": [[[-96.489356, 43.846438], [-96.451017, 43.851915], [-96.451017, 43.501391], [-96.598895, 43.501391], [-96.779634, 43.501391], [-96.922034, 43.501391], [-97.130158, 43.501391], [-97.130158, 43.846438], [-96.889173, 43.846438], [-96.489356, 43.846438]]]}}, {"type": "Feature", "properties": {"name": "Cumberland", "id": "37051", "FIPS": "37051", "FIPS State": 37, "ST": "NC", "County": "Cumberland County,NC", "State": "North Carolina"}, "geometry": {"type": "Polygon", "coordinates": [[[-78.952193, 35.21478], [-78.6181, 35.247642], [-78.49213, 34.858779], [-78.9029, 34.836871], [-79.034347, 34.951887], [-79.10007, 35.176442], [-79.094593, 35.192872], [-78.952193, 35.21478]]]}}, {"type": "Feature", "properties": {"name": "Johnson", "id": "18081", "FIPS": "18081", "FIPS State": 18, "ST": "IN", "County": "Johnson County,IN", "State": "Indiana"}, "geometry": {"type": "Polygon", "coordinates": [[[-85.97363, 39.640148], [-85.951723, 39.640148], [-85.951723, 39.34987], [-86.083169, 39.344393], [-86.252954, 39.344393], [-86.247477, 39.634671], [-85.97363, 39.640148]]]}}, {"type": "Feature", "properties": {"name": "Shelby", "id": "47157", "FIPS": "47157", "FIPS State": 47, "ST": "TN", "County": "Shelby County,TN", "State": "Tennessee"}, "geometry": {"type": "Polygon", "coordinates": [[[-89.774627, 35.406473], [-89.632227, 35.373611], [-89.643181, 34.995703], [-89.725335, 34.995703], [-89.829396, 34.995703], [-90.311367, 34.995703], [-90.075859, 35.384565], [-89.774627, 35.406473]]]}}, {"type": "Feature", "properties": {"name": "Fulton", "id": "36035", "FIPS": "36035", "FIPS State": 36, "ST": "NY", "County": "Fulton County,NY", "State": "New York"}, "geometry": {"type": "Polygon", "coordinates": [[[-74.713041, 43.28779], [-74.137962, 43.254929], [-74.099624, 42.981082], [-74.581595, 42.997512], [-74.762334, 43.046805], [-74.713041, 43.28779]]]}}, {"type": "Feature", "properties": {"name": "Richland", "id": "45079", "FIPS": "45079", "FIPS State": 45, "ST": "SC", "County": "Richland County,SC", "State": "South Carolina"}, "geometry": {"type": "Polygon", "coordinates": [[[-80.863645, 34.261793], [-80.825307, 34.26727], [-80.617183, 34.097484], [-80.62266, 33.741483], [-81.011523, 33.878407], [-81.340139, 34.196069], [-81.318231, 34.239885], [-80.863645, 34.261793]]]}}, {"type": "Feature", "properties": {"name": "Pasco", "id": "12101", "FIPS": "12101", "FIPS State": 12, "ST": "FL", "County": "Pasco County,FL", "State": "Florida"}, "geometry": {"type": "Polygon", "coordinates": [[[-82.254788, 28.478144], [-82.057618, 28.478144], [-82.057618, 28.313835], [-82.106911, 28.171435], [-82.649128, 28.171435], [-82.802482, 28.171435], [-82.676512, 28.434328], [-82.254788, 28.478144]]]}}, {"type": "Feature", "properties": {"name": "Cumberland", "id": "34011", "FIPS": "34011", "FIPS State": 34, "ST": "NJ", "County": "Cumberland County,NJ", "State": "New Jersey"}, "geometry": {"type": "Polygon", "coordinates": [[[-75.058088, 39.568948], [-74.986888, 39.514178], [-74.860918, 39.322485], [-74.915688, 39.180085], [-75.408613, 39.382732], [-75.063565, 39.568948], [-75.058088, 39.568948]]]}}, {"type": "Feature", "properties": {"name": "Okaloosa", "id": "12091", "FIPS": "12091", "FIPS State": 12, "ST": "FL", "County": "Okaloosa County,FL", "State": "Florida"}, "geometry": {"type": "Polygon", "coordinates": [[[-86.685633, 30.992059], [-86.389878, 30.992059], [-86.395355, 30.378642], [-86.800648, 30.384119], [-86.784218, 30.997536], [-86.685633, 30.992059]]]}}, {"type": "Feature", "properties": {"name": "Floyd", "id": "18043", "FIPS": "18043", "FIPS State": 18, "ST": "IN", "County": "Floyd County,IN", "State": "Indiana"}, "geometry": {"type": "Polygon", "coordinates": [[[-86.011969, 38.41879], [-85.995538, 38.41879], [-85.792891, 38.287344], [-85.90243, 38.177805], [-86.033877, 38.41879], [-86.011969, 38.41879]]]}}, {"type": "Feature", "properties": {"name": "Fluvanna", "id": "51065", "FIPS": "51065", "FIPS State": 51, "ST": "VA", "County": "Fluvanna County,VA", "State": "Virginia"}, "geometry": {"type": "Polygon", "coordinates": [[[-78.305914, 38.00802], [-78.064929, 37.903958], [-78.158037, 37.750604], [-78.163514, 37.750604], [-78.240191, 37.690357], [-78.49213, 37.794419], [-78.305914, 38.00802]]]}}, {"type": "Feature", "properties": {"name": "Richland", "id": "39139", "FIPS": "39139", "FIPS State": 39, "ST": "OH", "County": "Richland County,OH", "State": "Ohio"}, "geometry": {"type": "Polygon", "coordinates": [[[-82.687466, 40.992952], [-82.435527, 40.992952], [-82.336942, 40.554797], [-82.621743, 40.54932], [-82.725805, 40.713628], [-82.725805, 40.998429], [-82.687466, 40.992952]]]}}, {"type": "Feature", "properties": {"name": "Jefferson", "id": "01073", "FIPS": "01073", "FIPS State": 1, "ST": "AL", "County": "Jefferson County,AL", "State": "Alabama"}, "geometry": {"type": "Polygon", "coordinates": [[[-86.685633, 33.796253], [-86.576094, 33.763391], [-86.515848, 33.544313], [-87.025203, 33.248559], [-87.063542, 33.248559], [-87.266188, 33.511452], [-86.954003, 33.812683], [-86.685633, 33.796253]]]}}, {"type": "Feature", "properties": {"name": "Marathon", "id": "55073", "FIPS": "55073", "FIPS State": 55, "ST": "WI", "County": "Marathon County,WI", "State": "Wisconsin"}, "geometry": {"type": "Polygon", "coordinates": [[[-90.196352, 45.122565], [-90.042997, 45.122565], [-89.424103, 45.117088], [-89.221456, 45.029457], [-89.221456, 44.678933], [-89.347426, 44.678933], [-89.845827, 44.68441], [-90.207305, 44.68441], [-90.316844, 44.68441], [-90.316844, 45.034934], [-90.196352, 45.122565]]]}}, {"type": "Feature", "properties": {"name": "Utah", "id": "49049", "FIPS": "49049", "FIPS State": 49, "ST": "UT", "County": "Utah County,UT", "State": "Utah"}, "geometry": {"type": "Polygon", "coordinates": [[[-111.594758, 40.576705], [-111.594758, 40.576705], [-110.893709, 39.897564], [-110.855371, 39.81541], [-111.014202, 39.81541], [-111.24971, 39.81541], [-111.556419, 39.81541], [-111.64405, 39.81541], [-112.18079, 40.01258], [-112.175313, 40.467166], [-111.594758, 40.576705]]]}}, {"type": "Feature", "properties": {"name": "Butler", "id": "39017", "FIPS": "39017", "FIPS State": 39, "ST": "OH", "County": "Butler County,OH", "State": "Ohio"}, "geometry": {"type": "Polygon", "coordinates": [[[-84.478426, 39.590856], [-84.36341, 39.590856], [-84.352456, 39.289624], [-84.598918, 39.306055], [-84.817996, 39.306055], [-84.817996, 39.519655], [-84.812519, 39.568948], [-84.478426, 39.590856]]]}}, {"type": "Feature", "properties": {"name": "Weber", "id": "49057", "FIPS": "49057", "FIPS State": 49, "ST": "UT", "County": "Weber County,UT", "State": "Utah"}, "geometry": {"type": "Polygon", "coordinates": [[[-111.655004, 41.4092], [-111.512603, 41.425631], [-111.419495, 41.359907], [-111.857651, 41.14083], [-112.011005, 41.151784], [-112.492976, 41.075106], [-111.885035, 41.425631], [-111.655004, 41.4092]]]}}, {"type": "Feature", "properties": {"name": "Sonoma", "id": "06097", "FIPS": "06097", "FIPS State": 6, "ST": "CA", "County": "Sonoma County,CA", "State": "California"}, "geometry": {"type": "Polygon", "coordinates": [[[-123.074425, 38.851469], [-122.822485, 38.851469], [-122.625315, 38.665253], [-122.406238, 38.155897], [-122.406238, 38.15042], [-122.488392, 38.112082], [-122.844393, 38.27639], [-123.003224, 38.298298], [-123.534488, 38.769315], [-123.074425, 38.851469]]]}}, {"type": "Feature", "properties": {"name": "Shiawassee", "id": "26155", "FIPS": "26155", "FIPS State": 26, "ST": "MI", "County": "Shiawassee County,MI", "State": "Michigan"}, "geometry": {"type": "Polygon", "coordinates": [[[-83.941686, 43.134436], [-83.930732, 43.134436], [-83.925255, 42.778435], [-84.160763, 42.778435], [-84.270302, 42.778435], [-84.36341, 42.778435], [-84.368887, 43.118005], [-84.368887, 43.128959], [-83.941686, 43.134436]]]}}, {"type": "Feature", "properties": {"name": "Hampshire", "id": "25015", "FIPS": "25015", "FIPS State": 25, "ST": "MA", "County": "Hampshire County,MA", "State": "Massachusetts"}, "geometry": {"type": "Polygon", "coordinates": [[[-72.976851, 42.55388], [-72.314141, 42.345757], [-72.221033, 42.247172], [-72.998759, 42.312895], [-72.998759, 42.312895], [-72.976851, 42.55388]]]}}, {"type": "Feature", "properties": {"name": "Williamson", "id": "47187", "FIPS": "47187", "FIPS State": 47, "ST": "TN", "County": "Williamson County,TN", "State": "Tennessee"}, "geometry": {"type": "Polygon", "coordinates": [[[-86.921141, 36.052752], [-86.619909, 35.970598], [-86.685633, 35.707705], [-86.784218, 35.707705], [-87.216896, 35.850105], [-87.205942, 35.959644], [-87.184034, 36.047275], [-87.052588, 36.047275], [-86.921141, 36.052752]]]}}, {"type": "Feature", "properties": {"name": "Salem", "id": "34033", "FIPS": "34033", "FIPS State": 34, "ST": "NJ", "County": "Salem County,NJ", "State": "New Jersey"}, "geometry": {"type": "Polygon", "coordinates": [[[-75.446951, 39.771595], [-75.063565, 39.568948], [-75.408613, 39.382732], [-75.55649, 39.607286], [-75.561967, 39.629194], [-75.507197, 39.683964], [-75.446951, 39.771595]]]}}, {"type": "Feature", "properties": {"name": "Monmouth", "id": "34025", "FIPS": "34025", "FIPS State": 34, "ST": "NJ", "County": "Monmouth County,NJ", "State": "New Jersey"}, "geometry": {"type": "Polygon", "coordinates": [[[-74.0339, 40.100211], [-74.406332, 40.171411], [-74.55421, 40.078303], [-74.587071, 40.13855], [-74.48301, 40.253565], [-74.225593, 40.450735], [-74.0339, 40.100211]]]}}, {"type": "Feature", "properties": {"name": "Gloucester", "id": "34015", "FIPS": "34015", "FIPS State": 34, "ST": "NJ", "County": "Gloucester County,NJ", "State": "New Jersey"}, "geometry": {"type": "Polygon", "coordinates": [[[-75.211443, 39.864703], [-75.140242, 39.88661], [-74.877349, 39.607286], [-74.986888, 39.514178], [-75.058088, 39.568948], [-75.063565, 39.568948], [-75.446951, 39.771595], [-75.414089, 39.804456], [-75.211443, 39.864703]]]}}, {"type": "Feature", "properties": {"name": "Charleston", "id": "45019", "FIPS": "45019", "FIPS State": 45, "ST": "SC", "County": "Charleston County,SC", "State": "South Carolina"}, "geometry": {"type": "Polygon", "coordinates": [[[-79.49441, 33.188312], [-79.445118, 33.215697], [-79.291763, 33.111635], [-80.250228, 32.531079], [-80.403582, 32.859696], [-80.151643, 33.024004], [-79.927088, 32.821357], [-79.49441, 33.188312]]]}}, {"type": "Feature", "properties": {"name": "Polk", "id": "19153", "FIPS": "19153", "FIPS State": 19, "ST": "IA", "County": "Polk County,IA", "State": "Iowa"}, "geometry": {"type": "Polygon", "coordinates": [[[-93.772794, 41.863786], [-93.696116, 41.863786], [-93.345592, 41.863786], [-93.329161, 41.507785], [-93.329161, 41.491354], [-93.70707, 41.513262], [-93.789224, 41.513262], [-93.816609, 41.863786], [-93.772794, 41.863786]]]}}, {"type": "Feature", "properties": {"name": "Galveston", "id": "48167", "FIPS": "48167", "FIPS State": 48, "ST": "TX", "County": "Galveston County,TX", "State": "Texas"}, "geometry": {"type": "MultiPolygon", "coordinates": [[[[-94.36978, 29.595439], [-94.36978, 29.557101], [-94.512181, 29.54067], [-94.36978, 29.595439]]], [[[-95.202275, 29.562578], [-95.016059, 29.557101], [-95.120121, 29.07513], [-95.218706, 29.557101], [-95.202275, 29.562578]]]]}}, {"type": "Feature", "properties": {"name": "Montgomery", "id": "47125", "FIPS": "47125", "FIPS State": 47, "ST": "TN", "County": "Montgomery County,TN", "State": "Tennessee"}, "geometry": {"type": "Polygon", "coordinates": [[[-87.112834, 36.644262], [-87.118311, 36.458046], [-87.288096, 36.321122], [-87.512651, 36.332076], [-87.594805, 36.364938], [-87.63862, 36.638785], [-87.337389, 36.644262], [-87.112834, 36.644262]]]}}, {"type": "Feature", "properties": {"name": "Hidalgo", "id": "48215", "FIPS": "48215", "FIPS State": 48, "ST": "TX", "County": "Hidalgo County,TX", "State": "Texas"}, "geometry": {"type": "Polygon", "coordinates": [[[-98.318654, 26.785769], [-97.984561, 26.780292], [-97.957176, 26.610507], [-97.864068, 26.347614], [-97.864068, 26.051859], [-98.587024, 26.254506], [-98.318654, 26.785769]]]}}, {"type": "Feature", "properties": {"name": "Lehigh", "id": "42077", "FIPS": "42077", "FIPS State": 42, "ST": "PA", "County": "Lehigh County,PA", "State": "Pennsylvania"}, "geometry": {"type": "Polygon", "coordinates": [[[-75.611259, 40.784829], [-75.331935, 40.538366], [-75.48529, 40.417874], [-75.490767, 40.423351], [-75.529105, 40.445258], [-75.890583, 40.67529], [-75.759137, 40.735536], [-75.611259, 40.784829]]]}}, {"type": "Feature", "properties": {"name": "Boulder", "id": "08013", "FIPS": "08013", "FIPS State": 8, "ST": "CO", "County": "Boulder County,CO", "State": "Colorado"}, "geometry": {"type": "Polygon", "coordinates": [[[-105.340092, 40.259042], [-105.055291, 40.264519], [-105.055291, 40.001626], [-105.055291, 39.913995], [-105.055291, 39.913995], [-105.400338, 39.913995], [-105.674185, 39.930426], [-105.652277, 40.259042], [-105.340092, 40.259042]]]}}, {"type": "Feature", "properties": {"name": "Bell", "id": "48027", "FIPS": "48027", "FIPS State": 48, "ST": "TX", "County": "Bell County,TX", "State": "Texas"}, "geometry": {"type": "Polygon", "coordinates": [[[-97.404005, 31.304245], [-97.278035, 31.282337], [-97.069912, 30.986582], [-97.316374, 30.751074], [-97.831206, 30.904428], [-97.91336, 31.035875], [-97.907884, 31.068736], [-97.420436, 31.320676], [-97.404005, 31.304245]]]}}, {"type": "Feature", "properties": {"name": "Kent", "id": "26081", "FIPS": "26081", "FIPS State": 26, "ST": "MI", "County": "Kent County,MI", "State": "Michigan"}, "geometry": {"type": "Polygon", "coordinates": [[[-85.524521, 43.293267], [-85.310921, 43.118005], [-85.310921, 42.767481], [-85.546429, 42.767481], [-85.781938, 42.767481], [-85.792891, 43.205636], [-85.792891, 43.293267], [-85.56286, 43.293267], [-85.524521, 43.293267]]]}}, {"type": "Feature", "properties": {"name": "San Mateo", "id": "06081", "FIPS": "06081", "FIPS State": 6, "ST": "CA", "County": "San Mateo County,CA", "State": "California"}, "geometry": {"type": "Polygon", "coordinates": [[[-122.428146, 37.706788], [-122.389807, 37.706788], [-122.11596, 37.504141], [-122.083098, 37.476757], [-122.154299, 37.285064], [-122.291222, 37.109802], [-122.504823, 37.706788], [-122.428146, 37.706788]]]}}, {"type": "Feature", "properties": {"name": "Washoe", "id": "32031", "FIPS": "32031", "FIPS State": 32, "ST": "NV", "County": "Washoe County,NV", "State": "Nevada"}, "geometry": {"type": "Polygon", "coordinates": [[[-119.361059, 41.995232], [-119.32272, 41.995232], [-119.311766, 40.960091], [-119.224135, 40.001626], [-119.191274, 39.629194], [-119.196751, 39.623717], [-119.284382, 39.623717], [-119.689675, 39.519655], [-119.711583, 39.251285], [-120.001861, 39.163654], [-120.007338, 39.317009], [-120.001861, 39.442978], [-120.001861, 39.722302], [-120.001861, 41.184645], [-120.001861, 41.995232], [-119.361059, 41.995232]]]}}, {"type": "Feature", "properties": {"name": "Kent", "id": "10001", "FIPS": "10001", "FIPS State": 10, "ST": "DE", "County": "Kent County,DE", "State": "Delaware"}, "geometry": {"type": "Polygon", "coordinates": [[[-75.616736, 39.311532], [-75.512674, 39.366301], [-75.310028, 38.944577], [-75.720798, 38.829561], [-75.748183, 39.141746], [-75.75366, 39.245808], [-75.759137, 39.295101], [-75.616736, 39.311532]]]}}]}