{"type": "FeatureCollection", "crs": {"type": "name", "properties": {"name": "urn:ogc:def:crs:OGC:1.3:CRS84"}}, "features": [{"type": "Feature", "properties": {"name": "Juneau", "id": "55057", "FIPS": "55057", "FIPS State": 55, "ST": "WI", "County": "Juneau County,WI", "State": "Wisconsin"}, "geometry": {"type": "Polygon", "coordinates": [[[-90.081336, 44.246255], [-89.900597, 44.251732], [-89.785581, 43.638314], [-90.294936, 43.643791], [-90.311367, 43.638314], [-90.311367, 43.731422], [-90.311367, 44.153147], [-90.311367, 44.246255], [-90.081336, 44.246255]]]}}, {"type": "Feature", "properties": {"name": "Eau Claire", "id": "55035", "FIPS": "55035", "FIPS State": 55, "ST": "WI", "County": "Eau Claire County,WI", "State": "Wisconsin"}, "geometry": {"type": "Polygon", "coordinates": [[[-91.499863, 44.859672], [-90.924785, 44.859672], [-90.924785, 44.596779], [-91.16577, 44.596779], [-91.286263, 44.596779], [-91.527248, 44.596779], [-91.647741, 44.596779], [-91.647741, 44.68441], [-91.653218, 44.854195], [-91.499863, 44.859672]]]}}, {"type": "Feature", "properties": {"name": "Wood", "id": "54107", "FIPS": "54107", "FIPS State": 54, "ST": "WV", "County": "Wood County,WV", "State": "West Virginia"}, "geometry": {"type": "Polygon", "coordinates": [[[-81.373001, 39.344393], [-81.241554, 39.267716], [-81.296323, 39.185562], [-81.42777, 39.13627], [-81.581124, 39.026731], [-81.739956, 39.092454], [-81.745433, 39.097931], [-81.756386, 39.180085], [-81.723525, 39.218424], [-81.373001, 39.344393]]]}}, {"type": "Feature", "properties": {"name": "Preston", "id": "54077", "FIPS": "54077", "FIPS State": 54, "ST": "WV", "County": "Preston County,WV", "State": "West Virginia"}, "geometry": {"type": "Polygon", "coordinates": [[[-79.609426, 39.722302], [-79.477979, 39.722302], [-79.488933, 39.20747], [-79.488933, 39.196516], [-79.812073, 39.229378], [-79.894227, 39.300578], [-79.894227, 39.437501], [-79.76278, 39.722302], [-79.609426, 39.722302]]]}}, {"type": "Feature", "properties": {"name": "Marshall", "id": "54051", "FIPS": "54051", "FIPS State": 54, "ST": "WV", "County": "Marshall County,WV", "State": "West Virginia"}, "geometry": {"type": "Polygon", "coordinates": [[[-80.726722, 40.034488], [-80.518598, 40.018057], [-80.518598, 39.963288], [-80.518598, 39.722302], [-80.830783, 39.722302], [-80.81983, 39.848272], [-80.732199, 40.034488], [-80.726722, 40.034488]]]}}, {"type": "Feature", "properties": {"name": "Marion", "id": "54049", "FIPS": "54049", "FIPS State": 54, "ST": "WV", "County": "Marion County,WV", "State": "West Virginia"}, "geometry": {"type": "Polygon", "coordinates": [[[-80.398105, 39.634671], [-79.938042, 39.453932], [-80.195458, 39.393686], [-80.49669, 39.470363], [-80.398105, 39.634671]]]}}, {"type": "Feature", "properties": {"name": "Whitman", "id": "53075", "FIPS": "53075", "FIPS State": 53, "ST": "WA", "County": "Whitman County,WA", "State": "Washington"}, "geometry": {"type": "Polygon", "coordinates": [[[-117.822039, 47.258572], [-117.038836, 47.258572], [-117.038836, 47.127126], [-117.038836, 46.541093], [-117.038836, 46.426077], [-117.230529, 46.464416], [-117.849423, 46.623247], [-118.216378, 46.590385], [-118.210901, 46.738263], [-117.958962, 47.258572], [-117.822039, 47.258572]]]}}, {"type": "Feature", "properties": {"name": "Whatcom", "id": "53073", "FIPS": "53073", "FIPS State": 53, "ST": "WA", "County": "Whatcom County,WA", "State": "Washington"}, "geometry": {"type": "Polygon", "coordinates": [[[-120.850787, 49.000239], [-120.752202, 48.655192], [-122.329561, 48.644238], [-122.488392, 48.644238], [-122.756762, 49.000239], [-120.850787, 49.000239]]]}}, {"type": "Feature", "properties": {"name": "Skagit", "id": "53057", "FIPS": "53057", "FIPS State": 53, "ST": "WA", "County": "Skagit County,WA", "State": "Washington"}, "geometry": {"type": "Polygon", "coordinates": [[[-122.329561, 48.644238], [-120.752202, 48.655192], [-120.702909, 48.529222], [-121.004141, 48.293714], [-121.836636, 48.299191], [-122.378853, 48.299191], [-122.488392, 48.644238], [-122.329561, 48.644238]]]}}, {"type": "Feature", "properties": {"name": "Fayette", "id": "48149", "FIPS": "48149", "FIPS State": 48, "ST": "TX", "County": "Fayette County,TX", "State": "Texas"}, "geometry": {"type": "Polygon", "coordinates": [[[-96.801542, 30.154087], [-96.796065, 30.159564], [-96.620803, 30.044549], [-96.57151, 29.962394], [-96.872742, 29.633778], [-97.141112, 29.628301], [-97.316374, 29.787132], [-97.316374, 29.787132], [-97.026096, 30.050025], [-96.801542, 30.154087]]]}}, {"type": "Feature", "properties": {"name": "Kitsap", "id": "53035", "FIPS": "53035", "FIPS State": 53, "ST": "WA", "County": "Kitsap County,WA", "State": "Washington"}, "geometry": {"type": "Polygon", "coordinates": [[[-122.482915, 47.510511], [-122.537684, 47.400973], [-122.800578, 47.406449], [-122.948455, 47.603619], [-122.751285, 47.740543], [-122.482915, 47.510511]]]}}, {"type": "Feature", "properties": {"name": "Chelan", "id": "53007", "FIPS": "53007", "FIPS State": 53, "ST": "WA", "County": "Chelan County,WA", "State": "Washington"}, "geometry": {"type": "Polygon", "coordinates": [[[-120.702909, 48.529222], [-119.870414, 47.95962], [-120.319524, 47.455742], [-120.094969, 47.264049], [-121.11368, 47.598142], [-121.119157, 47.778881], [-121.004141, 48.293714], [-120.702909, 48.529222]]]}}, {"type": "Feature", "properties": {"name": "York", "id": "51199", "FIPS": "51199", "FIPS State": 51, "ST": "VA", "County": "York County,VA", "State": "Virginia"}, "geometry": {"type": "Polygon", "coordinates": [[[-76.657355, 37.378172], [-76.498524, 37.241248], [-76.399939, 37.164571], [-76.394462, 37.104325], [-76.4328, 37.093371], [-76.55877, 37.213863], [-76.591632, 37.213863], [-76.679263, 37.268633], [-76.728555, 37.306971], [-76.657355, 37.378172]]]}}, {"type": "Feature", "properties": {"name": "Spotsylvania", "id": "51177", "FIPS": "51177", "FIPS State": 51, "ST": "VA", "County": "Spotsylvania County,VA", "State": "Virginia"}, "geometry": {"type": "Polygon", "coordinates": [[[-77.621296, 38.369498], [-77.528188, 38.309252], [-77.446034, 38.281867], [-77.369357, 38.249005], [-77.643204, 37.991589], [-77.68702, 38.00802], [-77.95539, 38.117559], [-77.703451, 38.358544], [-77.621296, 38.369498]]]}}, {"type": "Feature", "properties": {"name": "Russell", "id": "51167", "FIPS": "51167", "FIPS State": 51, "ST": "VA", "County": "Russell County,VA", "State": "Virginia"}, "geometry": {"type": "Polygon", "coordinates": [[[-81.898787, 37.142663], [-81.778294, 36.956447], [-81.838541, 36.929063], [-82.331465, 36.709985], [-82.408142, 36.874293], [-82.325988, 36.972878], [-82.150726, 37.044078], [-81.898787, 37.142663]]]}}, {"type": "Feature", "properties": {"name": "Prince Edward", "id": "51147", "FIPS": "51147", "FIPS State": 51, "ST": "VA", "County": "Prince Edward County,VA", "State": "Virginia"}, "geometry": {"type": "Polygon", "coordinates": [[[-78.262098, 37.34531], [-78.234714, 37.367218], [-78.229237, 37.296018], [-78.240191, 37.120755], [-78.399022, 37.087894], [-78.442837, 37.07694], [-78.683823, 37.246725], [-78.596192, 37.400079], [-78.464745, 37.339833], [-78.262098, 37.34531]]]}}, {"type": "Feature", "properties": {"name": "Nottoway", "id": "51135", "FIPS": "51135", "FIPS State": 51, "ST": "VA", "County": "Nottoway County,VA", "State": "Virginia"}, "geometry": {"type": "Polygon", "coordinates": [[[-78.229237, 37.296018], [-77.796559, 37.191956], [-77.889666, 36.989309], [-78.004682, 37.022171], [-78.240191, 37.120755], [-78.229237, 37.296018]]]}}, {"type": "Feature", "properties": {"name": "Montgomery", "id": "51121", "FIPS": "51121", "FIPS State": 51, "ST": "VA", "County": "Montgomery County,VA", "State": "Virginia"}, "geometry": {"type": "Polygon", "coordinates": [[[-80.261182, 37.339833], [-80.179028, 37.115279], [-80.545983, 36.983832], [-80.578844, 37.087894], [-80.529552, 37.131709], [-80.606229, 37.246725], [-80.430967, 37.312448], [-80.261182, 37.339833]]]}}, {"type": "Feature", "properties": {"name": "Henrico", "id": "51087", "FIPS": "51087", "FIPS State": 51, "ST": "VA", "County": "Henrico County,VA", "State": "Virginia"}, "geometry": {"type": "Polygon", "coordinates": [[[-77.63225, 37.706788], [-77.226957, 37.537003], [-77.177664, 37.493187], [-77.248864, 37.383649], [-77.41865, 37.449372], [-77.473419, 37.597249], [-77.593912, 37.553434], [-77.654158, 37.564388], [-77.63225, 37.706788]]]}}, {"type": "Feature", "properties": {"name": "Hanover", "id": "51085", "FIPS": "51085", "FIPS State": 51, "ST": "VA", "County": "Hanover County,VA", "State": "Virginia"}, "geometry": {"type": "Polygon", "coordinates": [[[-77.68702, 38.00802], [-77.643204, 37.991589], [-77.347449, 37.788942], [-77.122895, 37.624634], [-77.226957, 37.537003], [-77.63225, 37.706788], [-77.796559, 37.728696], [-77.68702, 38.00802]]]}}, {"type": "Feature", "properties": {"name": "Fauquier", "id": "51061", "FIPS": "51061", "FIPS State": 51, "ST": "VA", "County": "Fauquier County,VA", "State": "Virginia"}, "geometry": {"type": "Polygon", "coordinates": [[[-77.960867, 39.015777], [-77.654158, 38.944577], [-77.533665, 38.555714], [-77.637727, 38.407836], [-77.933482, 38.698114], [-78.130652, 38.862422], [-78.004682, 38.977438], [-77.960867, 39.015777]]]}}, {"type": "Feature", "properties": {"name": "Clallam", "id": "53009", "FIPS": "53009", "FIPS State": 53, "ST": "WA", "County": "Clallam County,WA", "State": "Washington"}, "geometry": {"type": "Polygon", "coordinates": [[[-122.926547, 48.063682], [-122.948455, 47.866512], [-124.613445, 47.882943], [-124.597014, 48.381345], [-123.983597, 48.162267], [-122.926547, 48.063682]]]}}, {"type": "Feature", "properties": {"name": "Coryell", "id": "48099", "FIPS": "48099", "FIPS State": 48, "ST": "TX", "County": "Coryell County,TX", "State": "Texas"}, "geometry": {"type": "Polygon", "coordinates": [[[-97.688806, 31.709538], [-97.606652, 31.589046], [-97.420436, 31.320676], [-97.907884, 31.068736], [-98.181731, 31.463076], [-97.765483, 31.6712], [-97.688806, 31.709538]]]}}, {"type": "Feature", "properties": {"name": "Brown", "id": "48049", "FIPS": "48049", "FIPS State": 48, "ST": "TX", "County": "Brown County,TX", "State": "Texas"}, "geometry": {"type": "Polygon", "coordinates": [[[-99.118287, 32.08197], [-98.926594, 32.076493], [-98.669178, 31.698584], [-98.992318, 31.484984], [-99.090903, 31.463076], [-99.200441, 31.468553], [-99.194965, 32.08197], [-99.118287, 32.08197]]]}}, {"type": "Feature", "properties": {"name": "Angelina", "id": "48005", "FIPS": "48005", "FIPS State": 48, "ST": "TX", "County": "Angelina County,TX", "State": "Texas"}, "geometry": {"type": "Polygon", "coordinates": [[[-94.868182, 31.528799], [-94.325965, 31.222091], [-94.128795, 31.101598], [-94.457411, 31.035875], [-94.561473, 31.057782], [-94.813412, 31.13446], [-94.840797, 31.145414], [-94.950336, 31.342583], [-94.955813, 31.386399], [-95.005105, 31.424737], [-94.868182, 31.528799]]]}}, {"type": "Feature", "properties": {"name": "Lycoming", "id": "42081", "FIPS": "42081", "FIPS State": 42, "ST": "PA", "County": "Lycoming County,PA", "State": "Pennsylvania"}, "geometry": {"type": "Polygon", "coordinates": [[[-76.876433, 41.595416], [-76.816186, 41.589939], [-76.449231, 41.277753], [-76.640924, 41.157261], [-76.734032, 41.173691], [-76.799755, 41.173691], [-76.89834, 41.14083], [-77.144803, 41.069629], [-77.599389, 41.4804], [-77.599389, 41.540646], [-76.876433, 41.595416]]]}}, {"type": "Feature", "properties": {"name": "Lebanon", "id": "42075", "FIPS": "42075", "FIPS State": 42, "ST": "PA", "County": "Lebanon County,PA", "State": "Pennsylvania"}, "geometry": {"type": "Polygon", "coordinates": [[[-76.536862, 40.554797], [-76.438277, 40.494551], [-76.153476, 40.313812], [-76.306831, 40.253565], [-76.564247, 40.198796], [-76.536862, 40.554797]]]}}, {"type": "Feature", "properties": {"name": "Lawrence", "id": "42073", "FIPS": "42073", "FIPS State": 42, "ST": "PA", "County": "Lawrence County,PA", "State": "Pennsylvania"}, "geometry": {"type": "Polygon", "coordinates": [[[-80.518598, 41.124399], [-80.096873, 41.069629], [-80.15712, 40.856029], [-80.255705, 40.856029], [-80.518598, 40.850552], [-80.518598, 40.899844], [-80.518598, 41.124399]]]}}, {"type": "Feature", "properties": {"name": "Jefferson", "id": "42065", "FIPS": "42065", "FIPS State": 42, "ST": "PA", "County": "Jefferson County,PA", "State": "Pennsylvania"}, "geometry": {"type": "Polygon", "coordinates": [[[-78.95767, 41.370861], [-78.711208, 41.201076], [-78.804316, 40.905321], [-79.215086, 40.910798], [-79.215086, 41.053199], [-79.209609, 41.332523], [-79.094593, 41.343476], [-78.95767, 41.370861]]]}}, {"type": "Feature", "properties": {"name": "Indiana", "id": "42063", "FIPS": "42063", "FIPS State": 42, "ST": "PA", "County": "Indiana County,PA", "State": "Pennsylvania"}, "geometry": {"type": "Polygon", "coordinates": [[[-79.215086, 40.910798], [-78.804316, 40.905321], [-78.804316, 40.724582], [-78.974101, 40.395966], [-79.450595, 40.527412], [-79.215086, 40.910798]]]}}, {"type": "Feature", "properties": {"name": "Huntingdon", "id": "42061", "FIPS": "42061", "FIPS State": 42, "ST": "PA", "County": "Huntingdon County,PA", "State": "Pennsylvania"}, "geometry": {"type": "Polygon", "coordinates": [[[-78.114221, 40.741013], [-77.681543, 40.730059], [-77.752743, 40.379535], [-77.703451, 40.264519], [-77.862282, 40.061872], [-78.136129, 40.165934], [-78.256622, 40.297381], [-78.114221, 40.741013]]]}}, {"type": "Feature", "properties": {"name": "Franklin", "id": "42055", "FIPS": "42055", "FIPS State": 42, "ST": "PA", "County": "Franklin County,PA", "State": "Pennsylvania"}, "geometry": {"type": "Polygon", "coordinates": [[[-77.670589, 40.291904], [-77.615819, 40.198796], [-77.473419, 39.946857], [-77.456988, 39.722302], [-77.467942, 39.722302], [-78.09779, 39.722302], [-77.862282, 40.061872], [-77.703451, 40.264519], [-77.670589, 40.291904]]]}}, {"type": "Feature", "properties": {"name": "Clearfield", "id": "42033", "FIPS": "42033", "FIPS State": 42, "ST": "PA", "County": "Clearfield County,PA", "State": "Pennsylvania"}, "geometry": {"type": "Polygon", "coordinates": [[[-78.234714, 41.228461], [-78.092313, 41.217507], [-78.037544, 41.151784], [-78.360683, 40.735536], [-78.349729, 40.724582], [-78.804316, 40.724582], [-78.804316, 40.905321], [-78.711208, 41.201076], [-78.234714, 41.228461]]]}}, {"type": "Feature", "properties": {"name": "Beaver", "id": "42007", "FIPS": "42007", "FIPS State": 42, "ST": "PA", "County": "Beaver County,PA", "State": "Pennsylvania"}, "geometry": {"type": "Polygon", "coordinates": [[[-80.255705, 40.856029], [-80.15712, 40.856029], [-80.146166, 40.67529], [-80.359767, 40.47812], [-80.398105, 40.47812], [-80.518598, 40.47812], [-80.518598, 40.636951], [-80.518598, 40.850552], [-80.255705, 40.856029]]]}}, {"type": "Feature", "properties": {"name": "Armstrong", "id": "42005", "FIPS": "42005", "FIPS State": 42, "ST": "PA", "County": "Armstrong County,PA", "State": "Pennsylvania"}, "geometry": {"type": "Polygon", "coordinates": [[[-79.603949, 41.020337], [-79.215086, 41.053199], [-79.215086, 40.910798], [-79.450595, 40.527412], [-79.538226, 40.54932], [-79.69158, 40.669813], [-79.69158, 40.669813], [-79.69158, 41.168214], [-79.603949, 41.020337]]]}}, {"type": "Feature", "properties": {"name": "Mercer", "id": "42085", "FIPS": "42085", "FIPS State": 42, "ST": "PA", "County": "Mercer County,PA", "State": "Pennsylvania"}, "geometry": {"type": "Polygon", "coordinates": [[[-80.003765, 41.491354], [-79.998289, 41.491354], [-79.998289, 41.173691], [-80.096873, 41.069629], [-80.518598, 41.124399], [-80.518598, 41.135353], [-80.518598, 41.491354], [-80.003765, 41.491354]]]}}, {"type": "Feature", "properties": {"name": "Polk", "id": "41053", "FIPS": "41053", "FIPS State": 41, "ST": "OR", "County": "Polk County,OR", "State": "Oregon"}, "geometry": {"type": "Polygon", "coordinates": [[[-123.622119, 45.07875], [-123.068948, 45.073273], [-123.145625, 44.750133], [-123.151102, 44.722749], [-123.561872, 44.722749], [-123.600211, 44.722749], [-123.72618, 45.045888], [-123.72618, 45.07875], [-123.622119, 45.07875]]]}}, {"type": "Feature", "properties": {"name": "Deschutes", "id": "41017", "FIPS": "41017", "FIPS State": 41, "ST": "OR", "County": "Deschutes County,OR", "State": "Oregon"}, "geometry": {"type": "Polygon", "coordinates": [[[-121.108203, 44.388655], [-120.98771, 43.961454], [-119.897799, 43.698561], [-119.897799, 43.61093], [-121.130111, 43.616407], [-121.332757, 43.616407], [-121.486112, 43.616407], [-122.000944, 43.616407], [-121.798297, 44.257209], [-121.842113, 44.394132], [-121.108203, 44.388655]]]}}, {"type": "Feature", "properties": {"name": "Benton", "id": "41003", "FIPS": "41003", "FIPS State": 41, "ST": "OR", "County": "Benton County,OR", "State": "Oregon"}, "geometry": {"type": "Polygon", "coordinates": [[[-123.561872, 44.722749], [-123.151102, 44.722749], [-123.200394, 44.284593], [-123.775473, 44.284593], [-123.600211, 44.722749], [-123.561872, 44.722749]]]}}, {"type": "Feature", "properties": {"name": "Sequoyah", "id": "40135", "FIPS": "40135", "FIPS State": 40, "ST": "OK", "County": "Sequoyah County,OK", "State": "Oklahoma"}, "geometry": {"type": "Polygon", "coordinates": [[[-94.851751, 35.636505], [-94.807935, 35.636505], [-94.473842, 35.636505], [-94.430026, 35.395519], [-94.430026, 35.379088], [-94.813412, 35.324319], [-95.048921, 35.461243], [-95.125598, 35.636505], [-94.851751, 35.636505]]]}}, {"type": "Feature", "properties": {"name": "Rogers", "id": "40131", "FIPS": "40131", "FIPS State": 40, "ST": "OK", "County": "Rogers County,OK", "State": "Oklahoma"}, "geometry": {"type": "Polygon", "coordinates": [[[-95.810215, 36.594969], [-95.432306, 36.594969], [-95.328245, 36.512815], [-95.437783, 36.07466], [-95.618522, 36.162291], [-95.760923, 36.162291], [-95.810215, 36.425184], [-95.810215, 36.594969]]]}}, {"type": "Feature", "properties": {"name": "Pittsburg", "id": "40121", "FIPS": "40121", "FIPS State": 40, "ST": "OK", "County": "Pittsburg County,OK", "State": "Oklahoma"}, "geometry": {"type": "Polygon", "coordinates": [[[-95.706154, 35.203826], [-95.448737, 35.296934], [-95.350152, 35.055949], [-95.514461, 34.683517], [-95.673292, 34.595886], [-96.089539, 34.67804], [-96.089539, 34.765671], [-95.985477, 35.149057], [-95.706154, 35.203826]]]}}, {"type": "Feature", "properties": {"name": "Blaine", "id": "40011", "FIPS": "40011", "FIPS State": 40, "ST": "OK", "County": "Blaine County,OK", "State": "Oklahoma"}, "geometry": {"type": "Polygon", "coordinates": [[[-98.488439, 36.162291], [-98.209115, 36.162291], [-98.209115, 35.724136], [-98.313177, 35.548874], [-98.587024, 35.548874], [-98.625363, 35.548874], [-98.63084, 35.811767], [-98.636317, 36.162291], [-98.488439, 36.162291]]]}}, {"type": "Feature", "properties": {"name": "Wood", "id": "39173", "FIPS": "39173", "FIPS State": 39, "ST": "OH", "County": "Wood County,OH", "State": "Ohio"}, "geometry": {"type": "Polygon", "coordinates": [[[-83.415899, 41.617324], [-83.415899, 41.502308], [-83.421376, 41.255845], [-83.421376, 41.168214], [-83.881439, 41.168214], [-83.881439, 41.414677], [-83.415899, 41.617324]]]}}]}