{"type": "FeatureCollection", "crs": {"type": "name", "properties": {"name": "urn:ogc:def:crs:OGC:1.3:CRS84"}}, "features": [{"type": "Feature", "properties": {"name": "Oakland", "id": "26125", "FIPS": "26125", "FIPS State": 26, "ST": "MI", "County": "Oakland County,MI", "State": "Michigan"}, "geometry": {"type": "Polygon", "coordinates": [[[-83.098237, 42.887974], [-83.081806, 42.449818], [-83.552823, 42.433388], [-83.662362, 42.433388], [-83.684269, 42.783912], [-83.454238, 42.882497], [-83.098237, 42.887974]]]}}, {"type": "Feature", "properties": {"name": "Montgomery", "id": "24031", "FIPS": "24031", "FIPS State": 24, "ST": "MD", "County": "Montgomery County,MD", "State": "Maryland"}, "geometry": {"type": "Polygon", "coordinates": [[[-77.243388, 39.317009], [-77.16671, 39.355347], [-76.887386, 39.130793], [-77.002402, 38.966484], [-77.035264, 38.993869], [-77.117418, 38.933623], [-77.331019, 39.059592], [-77.456988, 39.218424], [-77.243388, 39.317009]]]}}, {"type": "Feature", "properties": {"name": "Nassau", "id": "36059", "FIPS": "36059", "FIPS State": 36, "ST": "NY", "County": "Nassau County,NY", "State": "New York"}, "geometry": {"type": "Polygon", "coordinates": [[[-73.49716, 40.921752], [-73.42596, 40.609566], [-73.754577, 40.587659], [-73.76553, 40.801259], [-73.49716, 40.921752]]]}}, {"type": "Feature", "properties": {"name": "Sacramento", "id": "06067", "FIPS": "06067", "FIPS State": 6, "ST": "CA", "County": "Sacramento County,CA", "State": "California"}, "geometry": {"type": "Polygon", "coordinates": [[[-121.557312, 38.736453], [-121.486112, 38.736453], [-121.141065, 38.714545], [-121.026049, 38.506421], [-121.026049, 38.298298], [-121.097249, 38.287344], [-121.57922, 38.095651], [-121.628512, 38.101128], [-121.864021, 38.068266], [-121.590174, 38.314728], [-121.601128, 38.736453], [-121.557312, 38.736453]]]}}, {"type": "Feature", "properties": {"name": "Bexar", "id": "48029", "FIPS": "48029", "FIPS State": 48, "ST": "TX", "County": "Bexar County,TX", "State": "Texas"}, "geometry": {"type": "Polygon", "coordinates": [[[-98.64727, 29.743317], [-98.313177, 29.595439], [-98.132438, 29.442085], [-98.285792, 29.255869], [-98.406285, 29.113469], [-98.800625, 29.250392], [-98.806102, 29.250392], [-98.806102, 29.688547], [-98.778717, 29.721409], [-98.64727, 29.743317]]]}}, {"type": "Feature", "properties": {"name": "Fairfax", "id": "51059", "FIPS": "51059", "FIPS State": 51, "ST": "VA", "County": "Fairfax County,VA", "State": "Virginia"}, "geometry": {"type": "Polygon", "coordinates": [[[-77.331019, 39.059592], [-77.117418, 38.933623], [-77.172187, 38.895284], [-77.15028, 38.878853], [-77.111941, 38.845992], [-77.040741, 38.785745], [-77.084556, 38.709068], [-77.128372, 38.632391], [-77.22148, 38.637868], [-77.533665, 38.845992], [-77.331019, 39.059592]]]}}, {"type": "Feature", "properties": {"name": "Broward", "id": "12011", "FIPS": "12011", "FIPS State": 12, "ST": "FL", "County": "Broward County,FL", "State": "Florida"}, "geometry": {"type": "Polygon", "coordinates": [[[-80.250228, 26.33666], [-80.074966, 26.320229], [-80.118781, 25.975182], [-80.874599, 25.980659], [-80.880076, 26.259983], [-80.880076, 26.331183], [-80.250228, 26.33666]]]}}, {"type": "Feature", "properties": {"name": "Philadelphia", "id": "42101", "FIPS": "42101", "FIPS State": 42, "ST": "PA", "County": "Philadelphia County,PA", "State": "Pennsylvania"}, "geometry": {"type": "Polygon", "coordinates": [[[-75.025227, 40.133073], [-75.014273, 40.13855], [-74.975934, 40.050919], [-75.058088, 39.990672], [-75.140242, 39.88661], [-75.211443, 39.864703], [-75.277166, 39.974241], [-75.025227, 40.133073]]]}}, {"type": "Feature", "properties": {"name": "Suffolk", "id": "36103", "FIPS": "36103", "FIPS State": 36, "ST": "NY", "County": "Suffolk County,NY", "State": "New York"}, "geometry": {"type": "Polygon", "coordinates": [[[-73.42596, 40.609566], [-73.49716, 40.921752], [-72.100541, 40.992952], [-73.42596, 40.609566]]]}}, {"type": "Feature", "properties": {"name": "San Francisco", "id": "06075", "FIPS": "06075", "FIPS State": 6, "ST": "CA", "County": "San Francisco County,CA", "State": "California"}, "geometry": {"type": "Polygon", "coordinates": [[[-122.428146, 37.706788], [-122.504823, 37.706788], [-122.389807, 37.706788], [-122.428146, 37.706788]]]}}, {"type": "Feature", "properties": {"name": "San Bernardino", "id": "06071", "FIPS": "06071", "FIPS State": 6, "ST": "CA", "County": "San Bernardino County,CA", "State": "California"}, "geometry": {"type": "Polygon", "coordinates": [[[-117.630346, 35.795336], [-115.647693, 35.80629], [-114.634459, 35.00118], [-114.136058, 34.305608], [-114.43729, 34.081054], [-114.733044, 34.081054], [-117.559146, 34.031761], [-117.674161, 33.87293], [-117.7837, 33.94413], [-117.668684, 34.820441], [-117.630346, 35.795336]]]}}, {"type": "Feature", "properties": {"name": "Middlesex", "id": "25017", "FIPS": "25017", "FIPS State": 25, "ST": "MA", "County": "Middlesex County,MA", "State": "Massachusetts"}, "geometry": {"type": "Polygon", "coordinates": [[[-71.257092, 42.734619], [-71.02706, 42.444341], [-71.158507, 42.329326], [-71.163984, 42.301941], [-71.191368, 42.280033], [-71.262569, 42.329326], [-71.476169, 42.154064], [-71.897894, 42.712712], [-71.257092, 42.734619]]]}}, {"type": "Feature", "properties": {"name": "Tarrant", "id": "48439", "FIPS": "48439", "FIPS State": 48, "ST": "TX", "County": "Tarrant County,TX", "State": "Texas"}, "geometry": {"type": "Polygon", "coordinates": [[[-97.535452, 32.996619], [-97.398528, 32.991142], [-97.031573, 32.985665], [-97.03705, 32.54751], [-97.086342, 32.54751], [-97.551882, 32.552987], [-97.546405, 32.996619], [-97.535452, 32.996619]]]}}, {"type": "Feature", "properties": {"name": "Maricopa", "id": "04013", "FIPS": "04013", "FIPS State": 4, "ST": "AZ", "County": "Maricopa County,AZ", "State": "Arizona"}, "geometry": {"type": "Polygon", "coordinates": [[[-111.496173, 33.998899], [-111.041587, 33.467636], [-111.578327, 33.467636], [-111.583804, 33.204743], [-112.202698, 33.308805], [-112.202698, 32.509172], [-113.336425, 32.503695], [-113.336425, 33.380005], [-113.336425, 33.998899], [-112.273898, 33.883884], [-111.496173, 33.998899]]]}}, {"type": "Feature", "properties": {"name": "Middlesex", "id": "34023", "FIPS": "34023", "FIPS State": 34, "ST": "NJ", "County": "Middlesex County,NJ", "State": "New Jersey"}, "geometry": {"type": "Polygon", "coordinates": [[[-74.291317, 40.593136], [-74.209163, 40.593136], [-74.225593, 40.450735], [-74.48301, 40.253565], [-74.619933, 40.374058], [-74.461102, 40.598613], [-74.291317, 40.593136]]]}}, {"type": "Feature", "properties": {"name": "San Diego", "id": "06073", "FIPS": "06073", "FIPS State": 6, "ST": "CA", "County": "San Diego County,CA", "State": "California"}, "geometry": {"type": "Polygon", "coordinates": [[[-117.476991, 33.505975], [-116.085849, 33.423821], [-116.107756, 32.61871], [-117.126467, 32.536556], [-117.597484, 33.385482], [-117.509853, 33.505975], [-117.476991, 33.505975]]]}}, {"type": "Feature", "properties": {"name": "Santa Clara", "id": "06085", "FIPS": "06085", "FIPS State": 6, "ST": "CA", "County": "Santa Clara County,CA", "State": "California"}, "geometry": {"type": "Polygon", "coordinates": [[[-121.853067, 37.482234], [-121.475158, 37.482234], [-121.228696, 37.137186], [-121.217742, 36.961924], [-121.447773, 36.989309], [-121.57922, 36.901678], [-122.154299, 37.285064], [-122.083098, 37.476757], [-121.853067, 37.482234]]]}}, {"type": "Feature", "properties": {"name": "Clark", "id": "32003", "FIPS": "32003", "FIPS State": 32, "ST": "NV", "County": "Clark County,NV", "State": "Nevada"}, "geometry": {"type": "Polygon", "coordinates": [[[-114.081288, 36.841432], [-114.048427, 36.841432], [-114.048427, 36.195153], [-114.754952, 36.085614], [-114.634459, 35.00118], [-115.647693, 35.80629], [-115.899633, 36.00346], [-115.894156, 36.841432], [-114.081288, 36.841432]]]}}, {"type": "Feature", "properties": {"name": "Hillsborough", "id": "12057", "FIPS": "12057", "FIPS State": 12, "ST": "FL", "County": "Hillsborough County,FL", "State": "Florida"}, "geometry": {"type": "Polygon", "coordinates": [[[-82.649128, 28.171435], [-82.106911, 28.171435], [-82.052141, 27.645649], [-82.28765, 27.645649], [-82.55602, 27.645649], [-82.649128, 27.968788], [-82.649128, 28.171435]]]}}, {"type": "Feature", "properties": {"name": "Miami-Dade", "id": "12086", "FIPS": "12086", "FIPS State": 12, "ST": "FL", "County": "Miami-Dade County,FL", "State": "Florida"}, "geometry": {"type": "Polygon", "coordinates": [[[-80.874599, 25.980659], [-80.118781, 25.975182], [-80.304997, 25.383672], [-80.858168, 25.175549], [-80.874599, 25.805397], [-80.874599, 25.980659]]]}}, {"type": "Feature", "properties": {"name": "Will", "id": "17197", "FIPS": "17197", "FIPS State": 17, "ST": "IL", "County": "Will County,IL", "State": "Illinois"}, "geometry": {"type": "Polygon", "coordinates": [[[-88.03296, 41.726862], [-88.027483, 41.683047], [-87.523605, 41.469446], [-87.529082, 41.299661], [-87.786498, 41.294184], [-88.246561, 41.201076], [-88.252038, 41.463969], [-88.262992, 41.726862], [-88.03296, 41.726862]]]}}, {"type": "Feature", "properties": {"name": "Harris", "id": "48201", "FIPS": "48201", "FIPS State": 48, "ST": "TX", "County": "Harris County,TX", "State": "Texas"}, "geometry": {"type": "Polygon", "coordinates": [[[-95.218706, 30.066456], [-95.098213, 30.165041], [-94.97772, 29.885717], [-94.928428, 29.672117], [-95.016059, 29.557101], [-95.202275, 29.562578], [-95.218706, 29.557101], [-95.295383, 29.595439], [-95.42683, 29.579009], [-95.826646, 29.787132], [-95.804738, 30.088364], [-95.218706, 30.066456]]]}}, {"type": "Feature", "properties": {"name": "Orange", "id": "06059", "FIPS": "06059", "FIPS State": 6, "ST": "CA", "County": "Orange County,CA", "State": "California"}, "geometry": {"type": "Polygon", "coordinates": [[[-117.7837, 33.94413], [-117.674161, 33.87293], [-117.509853, 33.505975], [-117.597484, 33.385482], [-118.117793, 33.741483], [-117.7837, 33.94413]]]}}, {"type": "Feature", "properties": {"name": "Dallas", "id": "48113", "FIPS": "48113", "FIPS State": 48, "ST": "TX", "County": "Dallas County,TX", "State": "Texas"}, "geometry": {"type": "Polygon", "coordinates": [[[-96.856311, 32.985665], [-96.845357, 32.985665], [-96.516741, 32.980189], [-96.516741, 32.81588], [-96.527695, 32.54751], [-97.03705, 32.54751], [-97.031573, 32.985665], [-96.856311, 32.985665]]]}}, {"type": "Feature", "properties": {"name": "Cook", "id": "17031", "FIPS": "17031", "FIPS State": 17, "ST": "IL", "County": "Cook County,IL", "State": "Illinois"}, "geometry": {"type": "Polygon", "coordinates": [[[-88.120591, 42.154064], [-87.759113, 42.154064], [-87.523605, 41.710431], [-87.523605, 41.469446], [-88.027483, 41.683047], [-87.928898, 41.995232], [-88.262992, 41.984279], [-88.235607, 42.154064], [-88.197268, 42.154064], [-88.120591, 42.154064]]]}}, {"type": "Feature", "properties": {"name": "Sedgwick", "id": "20173", "FIPS": "20173", "FIPS State": 20, "ST": "KS", "County": "Sedgwick County,KS", "State": "Kansas"}, "geometry": {"type": "Polygon", "coordinates": [[[-97.157543, 37.914912], [-97.152066, 37.914912], [-97.152066, 37.476757], [-97.349236, 37.476757], [-97.809299, 37.476757], [-97.809299, 37.734173], [-97.69976, 37.914912], [-97.157543, 37.914912]]]}}, {"type": "Feature", "properties": {"name": "Los Angeles", "id": "06037", "FIPS": "06037", "FIPS State": 6, "ST": "CA", "County": "Los Angeles County,CA", "State": "California"}, "geometry": {"type": "Polygon", "coordinates": [[[-117.668684, 34.820441], [-117.7837, 33.94413], [-118.117793, 33.741483], [-118.944811, 34.042715], [-118.638103, 34.289177], [-118.884565, 34.793056], [-117.668684, 34.820441]]]}}, {"type": "Feature", "properties": {"name": "Marion", "id": "41047", "FIPS": "41047", "FIPS State": 41, "ST": "OR", "County": "Marion County,OR", "State": "Oregon"}, "geometry": {"type": "Polygon", "coordinates": [[[-122.964886, 45.286874], [-122.84987, 45.259489], [-122.395284, 44.887057], [-121.732574, 44.887057], [-121.759959, 44.826811], [-121.79282, 44.68441], [-122.658177, 44.777518], [-123.145625, 44.750133], [-123.068948, 45.073273], [-122.964886, 45.286874]]]}}]}