{"type": "FeatureCollection", "crs": {"type": "name", "properties": {"name": "urn:ogc:def:crs:OGC:1.3:CRS84"}}, "features": [{"type": "Feature", "properties": {"name": "Barnstable", "id": "25001", "FIPS": "25001", "FIPS State": 25, "ST": "MA", "County": "Barnstable County,MA", "State": "Massachusetts"}, "geometry": {"type": "Polygon", "coordinates": [[[-70.671059, 41.513262], [-70.692967, 41.524216], [-70.643674, 41.715908], [-70.539613, 41.809016], [-69.926195, 41.694001], [-70.671059, 41.513262]]]}}, {"type": "Feature", "properties": {"name": "Berkshire", "id": "25003", "FIPS": "25003", "FIPS State": 25, "ST": "MA", "County": "Berkshire County,MA", "State": "Massachusetts"}, "geometry": {"type": "Polygon", "coordinates": [[[-73.267129, 42.745573], [-73.020667, 42.740096], [-72.976851, 42.55388], [-72.998759, 42.312895], [-73.053528, 42.039048], [-73.486206, 42.050002], [-73.49716, 42.050002], [-73.35476, 42.510065], [-73.267129, 42.745573]]]}}, {"type": "Feature", "properties": {"name": "Allegany", "id": "24001", "FIPS": "24001", "FIPS State": 24, "ST": "MD", "County": "Allegany County,MD", "State": "Maryland"}, "geometry": {"type": "Polygon", "coordinates": [[[-78.809792, 39.722302], [-78.382591, 39.722302], [-78.344253, 39.722302], [-78.333299, 39.634671], [-78.470222, 39.514178], [-78.656438, 39.536086], [-78.738592, 39.623717], [-79.067209, 39.47584], [-78.930285, 39.722302], [-78.809792, 39.722302]]]}}, {"type": "Feature", "properties": {"name": "Monroe", "id": "18105", "FIPS": "18105", "FIPS State": 18, "ST": "IN", "County": "Monroe County,IN", "State": "Indiana"}, "geometry": {"type": "Polygon", "coordinates": [[[-86.630863, 39.34987], [-86.378924, 39.338916], [-86.318678, 39.048638], [-86.318678, 38.988392], [-86.680156, 38.993869], [-86.685633, 39.163654], [-86.630863, 39.34987]]]}}, {"type": "Feature", "properties": {"name": "Franklin", "id": "25011", "FIPS": "25011", "FIPS State": 25, "ST": "MA", "County": "Franklin County,MA", "State": "Massachusetts"}, "geometry": {"type": "Polygon", "coordinates": [[[-73.020667, 42.740096], [-72.927559, 42.740096], [-72.456542, 42.729142], [-72.28128, 42.723665], [-72.314141, 42.345757], [-72.976851, 42.55388], [-73.020667, 42.740096]]]}}, {"type": "Feature", "properties": {"name": "Carroll", "id": "24013", "FIPS": "24013", "FIPS State": 24, "ST": "MD", "County": "Carroll County,MD", "State": "Maryland"}, "geometry": {"type": "Polygon", "coordinates": [[[-76.788801, 39.722302], [-76.881909, 39.34987], [-77.079079, 39.366301], [-77.16671, 39.355347], [-77.216003, 39.722302], [-76.996925, 39.722302], [-76.788801, 39.722302]]]}}, {"type": "Feature", "properties": {"name": "Washington", "id": "27163", "FIPS": "27163", "FIPS State": 27, "ST": "MN", "County": "Washington County,MN", "State": "Minnesota"}, "geometry": {"type": "Polygon", "coordinates": [[[-93.016976, 45.297827], [-92.743129, 45.297827], [-92.75956, 45.210196], [-92.770513, 44.859672], [-92.803375, 44.744656], [-93.016976, 44.892534], [-93.022453, 45.122565], [-93.016976, 45.297827]]]}}, {"type": "Feature", "properties": {"name": "Woodbury", "id": "19193", "FIPS": "19193", "FIPS State": 19, "ST": "IA", "County": "Woodbury County,IA", "State": "Iowa"}, "geometry": {"type": "Polygon", "coordinates": [[[-96.50031, 42.559357], [-95.859508, 42.559357], [-95.739015, 42.559357], [-95.673292, 42.208833], [-96.133355, 42.21431], [-96.357909, 42.21431], [-96.357909, 42.274556], [-96.44554, 42.488157], [-96.50031, 42.559357]]]}}, {"type": "Feature", "properties": {"name": "Fayette", "id": "21067", "FIPS": "21067", "FIPS State": 21, "ST": "KY", "County": "Fayette County,KY", "State": "Kentucky"}, "geometry": {"type": "Polygon", "coordinates": [[[-84.401749, 38.20519], [-84.286733, 38.068266], [-84.336025, 37.893004], [-84.43461, 37.849189], [-84.659165, 38.002543], [-84.626303, 38.117559], [-84.401749, 38.20519]]]}}, {"type": "Feature", "properties": {"name": "York", "id": "23031", "FIPS": "23031", "FIPS State": 23, "ST": "ME", "County": "York County,ME", "State": "Maine"}, "geometry": {"type": "Polygon", "coordinates": [[[-70.780598, 43.813577], [-70.353397, 43.534253], [-70.703921, 43.057759], [-70.818936, 43.123482], [-70.961337, 43.53973], [-70.988722, 43.791669], [-70.780598, 43.813577]]]}}, {"type": "Feature", "properties": {"name": "Franklin", "id": "53021", "FIPS": "53021", "FIPS State": 53, "ST": "WA", "County": "Franklin County,WA", "State": "Washington"}, "geometry": {"type": "Polygon", "coordinates": [[[-119.213182, 46.738263], [-118.210901, 46.738263], [-118.216378, 46.590385], [-118.227332, 46.595862], [-118.698349, 46.371308], [-119.043396, 46.190569], [-119.454167, 46.678016], [-119.372013, 46.738263], [-119.213182, 46.738263]]]}}, {"type": "Feature", "properties": {"name": "Stearns", "id": "27145", "FIPS": "27145", "FIPS State": 27, "ST": "MN", "County": "Stearns County,MN", "State": "Minnesota"}, "geometry": {"type": "Polygon", "coordinates": [[[-94.451934, 45.774321], [-94.271195, 45.774321], [-94.150702, 45.560721], [-94.046641, 45.423797], [-94.052118, 45.423797], [-94.260241, 45.281397], [-94.534088, 45.325212], [-94.76412, 45.325212], [-94.884612, 45.412843], [-95.131075, 45.412843], [-95.142029, 45.75789], [-95.142029, 45.774321], [-94.643627, 45.774321], [-94.451934, 45.774321]]]}}, {"type": "Feature", "properties": {"name": "Goodhue", "id": "27049", "FIPS": "27049", "FIPS State": 27, "ST": "MN", "County": "Goodhue County,MN", "State": "Minnesota"}, "geometry": {"type": "Polygon", "coordinates": [[[-92.732175, 44.711795], [-92.315927, 44.54201], [-92.244727, 44.454379], [-92.430943, 44.454379], [-92.551436, 44.196962], [-92.666452, 44.196962], [-92.677405, 44.196962], [-92.918391, 44.196962], [-93.038884, 44.196962], [-93.038884, 44.470809], [-92.732175, 44.711795]]]}}, {"type": "Feature", "properties": {"name": "Citrus", "id": "12017", "FIPS": "12017", "FIPS State": 12, "ST": "FL", "County": "Citrus County,FL", "State": "Florida"}, "geometry": {"type": "Polygon", "coordinates": [[[-82.523158, 29.042268], [-82.309557, 28.960114], [-82.265742, 28.669836], [-82.649128, 28.691744], [-82.758666, 28.992976], [-82.534112, 29.042268], [-82.523158, 29.042268]]]}}, {"type": "Feature", "properties": {"name": "Lake", "id": "39085", "FIPS": "39085", "FIPS State": 39, "ST": "OH", "County": "Lake County,OH", "State": "Ohio"}, "geometry": {"type": "Polygon", "coordinates": [[[-81.000569, 41.852832], [-81.006046, 41.715908], [-81.389431, 41.568031], [-81.488016, 41.633754], [-81.000569, 41.852832]]]}}, {"type": "Feature", "properties": {"name": "Marshall", "id": "40095", "FIPS": "40095", "FIPS State": 40, "ST": "OK", "County": "Marshall County,OK", "State": "Oklahoma"}, "geometry": {"type": "Polygon", "coordinates": [[[-96.932988, 34.174162], [-96.587941, 34.113915], [-96.587941, 33.894838], [-96.932988, 33.955084], [-96.971327, 34.0701], [-96.932988, 34.174162]]]}}, {"type": "Feature", "properties": {"name": "Lucas", "id": "39095", "FIPS": "39095", "FIPS State": 39, "ST": "OH", "County": "Lucas County,OH", "State": "Ohio"}, "geometry": {"type": "Polygon", "coordinates": [[[-83.16396, 41.6228], [-83.180391, 41.6228], [-83.415899, 41.617324], [-83.881439, 41.414677], [-83.881439, 41.485877], [-83.881439, 41.721385], [-83.760947, 41.721385], [-83.454238, 41.732339], [-83.16396, 41.6228]]]}}, {"type": "Feature", "properties": {"name": "Mower", "id": "27099", "FIPS": "27099", "FIPS State": 27, "ST": "MN", "County": "Mower County,MN", "State": "Minnesota"}, "geometry": {"type": "Polygon", "coordinates": [[[-92.880052, 43.846438], [-92.688359, 43.846438], [-92.447374, 43.835484], [-92.447374, 43.501391], [-92.551436, 43.501391], [-93.022453, 43.501391], [-93.049837, 43.501391], [-93.049837, 43.846438], [-93.04436, 43.846438], [-92.880052, 43.846438]]]}}, {"type": "Feature", "properties": {"name": "Cleveland", "id": "40027", "FIPS": "40027", "FIPS State": 40, "ST": "OK", "County": "Cleveland County,OK", "State": "Oklahoma"}, "geometry": {"type": "Polygon", "coordinates": [[[-97.425913, 35.379088], [-97.141112, 35.379088], [-97.141112, 34.929979], [-97.672375, 35.335273], [-97.672375, 35.379088], [-97.425913, 35.379088]]]}}, {"type": "Feature", "properties": {"name": "Jefferson", "id": "21111", "FIPS": "21111", "FIPS State": 21, "ST": "KY", "County": "Jefferson County,KY", "State": "Kentucky"}, "geometry": {"type": "Polygon", "coordinates": [[[-85.639537, 38.380452], [-85.469752, 38.287344], [-85.425936, 38.144943], [-85.431413, 38.117559], [-85.699783, 38.084697], [-85.940769, 37.997066], [-85.946246, 38.00802], [-85.90243, 38.177805], [-85.792891, 38.287344], [-85.639537, 38.380452]]]}}, {"type": "Feature", "properties": {"name": "Leon", "id": "12073", "FIPS": "12073", "FIPS State": 12, "ST": "FL", "County": "Leon County,FL", "State": "Florida"}, "geometry": {"type": "Polygon", "coordinates": [[[-84.084086, 30.674397], [-84.007409, 30.674397], [-84.073132, 30.27458], [-84.303164, 30.301965], [-84.713934, 30.301965], [-84.648211, 30.389596], [-84.281256, 30.685351], [-84.084086, 30.674397]]]}}, {"type": "Feature", "properties": {"name": "Lake", "id": "12069", "FIPS": "12069", "FIPS State": 12, "ST": "FL", "County": "Lake County,FL", "State": "Florida"}, "geometry": {"type": "Polygon", "coordinates": [[[-81.641371, 29.277777], [-81.367524, 28.87796], [-81.411339, 28.784852], [-81.542786, 28.784852], [-81.657801, 28.346697], [-81.959033, 28.346697], [-81.953556, 28.960114], [-81.641371, 29.277777]]]}}, {"type": "Feature", "properties": {"name": "Warren", "id": "39165", "FIPS": "39165", "FIPS State": 39, "ST": "OH", "County": "Warren County,OH", "State": "Ohio"}, "geometry": {"type": "Polygon", "coordinates": [[[-84.36341, 39.590856], [-84.111471, 39.579902], [-83.974547, 39.568948], [-84.007409, 39.256762], [-84.259348, 39.273193], [-84.352456, 39.289624], [-84.36341, 39.590856]]]}}, {"type": "Feature", "properties": {"name": "Oklahoma", "id": "40109", "FIPS": "40109", "FIPS State": 40, "ST": "OK", "County": "Oklahoma County,OK", "State": "Oklahoma"}, "geometry": {"type": "Polygon", "coordinates": [[[-97.672375, 35.724136], [-97.141112, 35.724136], [-97.141112, 35.466719], [-97.141112, 35.379088], [-97.425913, 35.379088], [-97.672375, 35.379088], [-97.672375, 35.724136]]]}}, {"type": "Feature", "properties": {"name": "Baldwin", "id": "01003", "FIPS": "01003", "FIPS State": 1, "ST": "AL", "County": "Baldwin County,AL", "State": "Alabama"}, "geometry": {"type": "Polygon", "coordinates": [[[-87.76459, 31.298768], [-87.616713, 31.243998], [-87.600282, 30.997536], [-87.518128, 30.280057], [-88.005575, 30.685351], [-87.972714, 31.161844], [-87.945329, 31.194706], [-87.76459, 31.298768]]]}}, {"type": "Feature", "properties": {"name": "Phillips", "id": "08095", "FIPS": "08095", "FIPS State": 8, "ST": "CO", "County": "Phillips County,CO", "State": "Colorado"}, "geometry": {"type": "Polygon", "coordinates": [[[-102.327774, 40.74649], [-102.053927, 40.751967], [-102.053927, 40.697198], [-102.053927, 40.439781], [-102.426359, 40.439781], [-102.667345, 40.439781], [-102.650914, 40.751967], [-102.327774, 40.74649]]]}}, {"type": "Feature", "properties": {"name": "Yuma", "id": "04027", "FIPS": "04027", "FIPS State": 4, "ST": "AZ", "County": "Yuma County,AZ", "State": "Arizona"}, "geometry": {"type": "Polygon", "coordinates": [[[-113.993657, 33.462159], [-113.336425, 33.380005], [-113.336425, 32.503695], [-113.336425, 32.038155], [-114.815198, 32.492741], [-114.72209, 32.717295], [-114.513967, 33.029481], [-113.993657, 33.462159]]]}}, {"type": "Feature", "properties": {"name": "Kern", "id": "06029", "FIPS": "06029", "FIPS State": 6, "ST": "CA", "County": "Kern County,CA", "State": "California"}, "geometry": {"type": "Polygon", "coordinates": [[[-118.008255, 35.789859], [-117.630346, 35.795336], [-117.668684, 34.820441], [-118.884565, 34.793056], [-119.443213, 34.902595], [-119.470598, 34.902595], [-120.193554, 35.789859], [-119.536321, 35.789859], [-118.008255, 35.789859]]]}}, {"type": "Feature", "properties": {"name": "Merced", "id": "06047", "FIPS": "06047", "FIPS State": 6, "ST": "CA", "County": "Merced County,CA", "State": "California"}, "geometry": {"type": "Polygon", "coordinates": [[[-120.385247, 37.635588], [-120.051153, 37.181002], [-120.544078, 37.044078], [-120.91651, 36.742847], [-121.217742, 36.961924], [-121.228696, 37.137186], [-120.385247, 37.635588]]]}}, {"type": "Feature", "properties": {"name": "Napa", "id": "06055", "FIPS": "06055", "FIPS State": 6, "ST": "CA", "County": "Napa County,CA", "State": "California"}, "geometry": {"type": "Polygon", "coordinates": [[[-122.395284, 38.862422], [-122.105006, 38.511898], [-122.406238, 38.155897], [-122.625315, 38.665253], [-122.395284, 38.862422]]]}}, {"type": "Feature", "properties": {"name": "Baltimore", "id": "24005", "FIPS": "24005", "FIPS State": 24, "ST": "MD", "County": "Baltimore County,MD", "State": "Maryland"}, "geometry": {"type": "Polygon", "coordinates": [[[-76.70117, 39.722302], [-76.569724, 39.722302], [-76.328738, 39.355347], [-76.525908, 39.218424], [-76.651878, 39.371778], [-76.619016, 39.234854], [-76.695693, 39.212947], [-76.881909, 39.34987], [-76.788801, 39.722302], [-76.70117, 39.722302]]]}}, {"type": "Feature", "properties": {"name": "Washington", "id": "24043", "FIPS": "24043", "FIPS State": 24, "ST": "MD", "County": "Washington County,MD", "State": "Maryland"}, "geometry": {"type": "Polygon", "coordinates": [[[-78.284006, 39.722302], [-78.09779, 39.722302], [-77.467942, 39.722302], [-77.676066, 39.322485], [-77.719881, 39.322485], [-77.823943, 39.492271], [-78.021113, 39.61824], [-78.185421, 39.694917], [-78.333299, 39.634671], [-78.344253, 39.722302], [-78.284006, 39.722302]]]}}, {"type": "Feature", "properties": {"name": "Placer", "id": "06061", "FIPS": "06061", "FIPS State": 6, "ST": "CA", "County": "Placer County,CA", "State": "California"}, "geometry": {"type": "Polygon", "coordinates": [[[-120.149738, 39.317009], [-120.007338, 39.317009], [-120.001861, 39.163654], [-120.001861, 39.114362], [-120.001861, 39.065069], [-121.04248, 38.917192], [-121.141065, 38.714545], [-121.486112, 38.736453], [-121.414912, 38.999346], [-121.277988, 39.032208], [-120.149738, 39.317009]]]}}, {"type": "Feature", "properties": {"name": "Brazos", "id": "48041", "FIPS": "48041", "FIPS State": 48, "ST": "TX", "County": "Brazos County,TX", "State": "Texas"}, "geometry": {"type": "Polygon", "coordinates": [[[-96.237417, 30.964674], [-96.166217, 30.822274], [-96.155263, 30.329349], [-96.297663, 30.378642], [-96.566033, 30.696304], [-96.242894, 30.975628], [-96.237417, 30.964674]]]}}, {"type": "Feature", "properties": {"name": "Waller", "id": "48473", "FIPS": "48473", "FIPS State": 48, "ST": "TX", "County": "Waller County,TX", "State": "Texas"}, "geometry": {"type": "Polygon", "coordinates": [[[-95.821169, 30.247195], [-95.804738, 30.247195], [-95.804738, 30.088364], [-95.826646, 29.787132], [-95.826646, 29.787132], [-96.03477, 29.726886], [-96.144309, 30.071933], [-96.095016, 30.225288], [-95.821169, 30.247195]]]}}, {"type": "Feature", "properties": {"name": "Cumberland", "id": "23005", "FIPS": "23005", "FIPS State": 23, "ST": "ME", "County": "Cumberland County,ME", "State": "Maine"}, "geometry": {"type": "Polygon", "coordinates": [[[-70.676536, 44.142193], [-70.479366, 44.032654], [-70.035734, 43.977885], [-69.887857, 43.775238], [-70.353397, 43.534253], [-70.780598, 43.813577], [-70.676536, 44.142193]]]}}, {"type": "Feature", "properties": {"name": "Androscoggin", "id": "23001", "FIPS": "23001", "FIPS State": 23, "ST": "ME", "County": "Androscoggin County,ME", "State": "Maine"}, "geometry": {"type": "Polygon", "coordinates": [[[-70.172658, 44.481763], [-70.128842, 44.48724], [-70.002872, 44.125762], [-70.035734, 43.977885], [-70.479366, 44.032654], [-70.238381, 44.459856], [-70.172658, 44.481763]]]}}, {"type": "Feature", "properties": {"name": "Summit", "id": "49043", "FIPS": "49043", "FIPS State": 49, "ST": "UT", "County": "Summit County,UT", "State": "Utah"}, "geometry": {"type": "Polygon", "coordinates": [[[-111.047063, 41.250368], [-111.047063, 40.998429], [-110.05026, 40.998429], [-110.000968, 40.998429], [-110.000968, 40.812213], [-110.148845, 40.812213], [-110.904663, 40.680767], [-111.430449, 40.686244], [-111.550942, 40.609566], [-111.638573, 40.801259], [-111.266141, 41.146307], [-111.047063, 41.250368]]]}}, {"type": "Feature", "properties": {"name": "Poinsett", "id": "05111", "FIPS": "05111", "FIPS State": 5, "ST": "AR", "County": "Poinsett County,AR", "State": "Arkansas"}, "geometry": {"type": "Polygon", "coordinates": [[[-90.930262, 35.707705], [-90.289459, 35.702228], [-90.289459, 35.439335], [-90.50306, 35.439335], [-90.744046, 35.444812], [-91.0398, 35.444812], [-91.034323, 35.707705], [-90.930262, 35.707705]]]}}, {"type": "Feature", "properties": {"name": "Chittenden", "id": "50007", "FIPS": "50007", "FIPS State": 50, "ST": "VT", "County": "Chittenden County,VT", "State": "Vermont"}, "geometry": {"type": "Polygon", "coordinates": [[[-73.22879, 44.722749], [-72.922082, 44.635118], [-72.807066, 44.454379], [-72.954943, 44.164101], [-73.22879, 44.262686], [-73.310944, 44.262686], [-73.338329, 44.547487], [-73.360237, 44.563917], [-73.22879, 44.722749]]]}}, {"type": "Feature", "properties": {"name": "Ventura", "id": "06111", "FIPS": "06111", "FIPS State": 6, "ST": "CA", "County": "Ventura County,CA", "State": "California"}, "geometry": {"type": "Polygon", "coordinates": [[[-119.443213, 34.902595], [-118.884565, 34.793056], [-118.638103, 34.289177], [-118.944811, 34.042715], [-119.476075, 34.376808], [-119.443213, 34.902595]]]}}, {"type": "Feature", "properties": {"name": "York", "id": "45091", "FIPS": "45091", "FIPS State": 45, "ST": "SC", "County": "York County,SC", "State": "South Carolina"}, "geometry": {"type": "Polygon", "coordinates": [[[-81.367524, 35.165488], [-81.329185, 35.165488], [-81.044384, 35.149057], [-80.907461, 35.077857], [-80.907461, 35.077857], [-80.896507, 34.820441], [-81.28537, 34.820441], [-81.477062, 34.820441], [-81.455155, 34.836871], [-81.367524, 35.165488]]]}}, {"type": "Feature", "properties": {"name": "Boulder", "id": "08013", "FIPS": "08013", "FIPS State": 8, "ST": "CO", "County": "Boulder County,CO", "State": "Colorado"}, "geometry": {"type": "Polygon", "coordinates": [[[-105.340092, 40.259042], [-105.055291, 40.264519], [-105.055291, 40.001626], [-105.055291, 39.913995], [-105.055291, 39.913995], [-105.400338, 39.913995], [-105.674185, 39.930426], [-105.652277, 40.259042], [-105.340092, 40.259042]]]}}, {"type": "Feature", "properties": {"name": "Georgetown", "id": "45043", "FIPS": "45043", "FIPS State": 45, "ST": "SC", "County": "Georgetown County,SC", "State": "South Carolina"}, "geometry": {"type": "Polygon", "coordinates": [[[-79.319148, 33.779822], [-79.319148, 33.779822], [-79.187701, 33.703145], [-79.001485, 33.571698], [-79.291763, 33.111635], [-79.445118, 33.215697], [-79.675149, 33.303328], [-79.319148, 33.779822]]]}}, {"type": "Feature", "properties": {"name": "Clinton", "id": "26037", "FIPS": "26037", "FIPS State": 26, "ST": "MI", "County": "Clinton County,MI", "State": "Michigan"}, "geometry": {"type": "Polygon", "coordinates": [[[-84.719411, 43.118005], [-84.368887, 43.118005], [-84.36341, 42.778435], [-84.604395, 42.767481], [-84.834427, 42.772958], [-84.834427, 43.118005], [-84.719411, 43.118005]]]}}]}