{"type": "FeatureCollection", "crs": {"type": "name", "properties": {"name": "urn:ogc:def:crs:OGC:1.3:CRS84"}}, "features": [{"type": "Feature", "properties": {"name": "Tuolumne", "id": "06109", "FIPS": "06109", "FIPS State": 6, "ST": "CA", "County": "Tuolumne County,CA", "State": "California"}, "geometry": {"type": "Polygon", "coordinates": [[[-120.045677, 38.424267], [-120.018292, 38.435221], [-119.640383, 38.325682], [-119.267951, 37.73965], [-119.30629, 37.777988], [-120.084015, 37.827281], [-120.385247, 37.635588], [-120.653617, 37.832758], [-120.045677, 38.424267]]]}}, {"type": "Feature", "properties": {"name": "San Benito", "id": "06069", "FIPS": "06069", "FIPS State": 6, "ST": "CA", "County": "San Benito County,CA", "State": "California"}, "geometry": {"type": "Polygon", "coordinates": [[[-121.447773, 36.989309], [-121.217742, 36.961924], [-120.91651, 36.742847], [-120.681002, 36.266353], [-121.31085, 36.501861], [-121.644943, 36.896201], [-121.57922, 36.901678], [-121.447773, 36.989309]]]}}, {"type": "Feature", "properties": {"name": "Nevada", "id": "06057", "FIPS": "06057", "FIPS State": 6, "ST": "CA", "County": "Nevada County,CA", "State": "California"}, "geometry": {"type": "Polygon", "coordinates": [[[-120.555032, 39.508701], [-120.001861, 39.442978], [-120.007338, 39.317009], [-120.149738, 39.317009], [-121.277988, 39.032208], [-121.020572, 39.393686], [-120.555032, 39.508701]]]}}, {"type": "Feature", "properties": {"name": "Lassen", "id": "06035", "FIPS": "06035", "FIPS State": 6, "ST": "CA", "County": "Lassen County,CA", "State": "California"}, "geometry": {"type": "Polygon", "coordinates": [[[-120.943895, 41.184645], [-120.001861, 41.184645], [-120.001861, 39.722302], [-120.149738, 39.705871], [-120.209985, 40.08378], [-121.119157, 40.445258], [-121.327281, 40.445258], [-121.332757, 41.184645], [-120.943895, 41.184645]]]}}, {"type": "Feature", "properties": {"name": "Adams", "id": "18001", "FIPS": "18001", "FIPS State": 18, "ST": "IN", "County": "Adams County,IN", "State": "Indiana"}, "geometry": {"type": "Polygon", "coordinates": [[[-84.878242, 40.921752], [-84.801565, 40.921752], [-84.801565, 40.730059], [-84.801565, 40.571228], [-85.069935, 40.565751], [-85.075412, 40.916275], [-84.878242, 40.921752]]]}}, {"type": "Feature", "properties": {"name": "Imperial", "id": "06025", "FIPS": "06025", "FIPS State": 6, "ST": "CA", "County": "Imperial County,CA", "State": "California"}, "geometry": {"type": "Polygon", "coordinates": [[[-114.733044, 33.434775], [-114.628982, 33.434775], [-114.513967, 33.029481], [-114.72209, 32.717295], [-116.107756, 32.61871], [-116.085849, 33.423821], [-114.733044, 33.434775]]]}}, {"type": "Feature", "properties": {"name": "La Plata", "id": "08067", "FIPS": "08067", "FIPS State": 8, "ST": "CO", "County": "La Plata County,CO", "State": "Colorado"}, "geometry": {"type": "Polygon", "coordinates": [[[-107.804715, 37.641065], [-107.481575, 37.641065], [-107.481575, 37.421987], [-107.481575, 37.000263], [-108.379794, 37.000263], [-107.9745, 37.641065], [-107.804715, 37.641065]]]}}, {"type": "Feature", "properties": {"name": "Glenn", "id": "06021", "FIPS": "06021", "FIPS State": 6, "ST": "CA", "County": "Glenn County,CA", "State": "California"}, "geometry": {"type": "Polygon", "coordinates": [[[-122.937501, 39.798979], [-122.04476, 39.798979], [-121.891405, 39.382732], [-122.077621, 39.415593], [-122.740331, 39.382732], [-122.882732, 39.579902], [-122.937501, 39.798979]]]}}, {"type": "Feature", "properties": {"name": "Manatee", "id": "12081", "FIPS": "12081", "FIPS State": 12, "ST": "FL", "County": "Manatee County,FL", "State": "Florida"}, "geometry": {"type": "Polygon", "coordinates": [[[-82.28765, 27.645649], [-82.052141, 27.645649], [-82.057618, 27.33894], [-82.057618, 27.207493], [-82.62722, 27.388232], [-82.643651, 27.388232], [-82.55602, 27.645649], [-82.28765, 27.645649]]]}}, {"type": "Feature", "properties": {"name": "Grundy", "id": "17063", "FIPS": "17063", "FIPS State": 17, "ST": "IL", "County": "Grundy County,IL", "State": "Illinois"}, "geometry": {"type": "Polygon", "coordinates": [[[-88.279422, 41.463969], [-88.252038, 41.463969], [-88.246561, 41.201076], [-88.252038, 41.113445], [-88.410869, 41.107968], [-88.586131, 41.107968], [-88.597085, 41.458492], [-88.279422, 41.463969]]]}}, {"type": "Feature", "properties": {"name": "Lowndes", "id": "13185", "FIPS": "13185", "FIPS State": 13, "ST": "GA", "County": "Lowndes County,GA", "State": "Georgia"}, "geometry": {"type": "Polygon", "coordinates": [[[-83.383038, 31.030398], [-83.295407, 31.024921], [-83.196822, 31.024921], [-83.02156, 30.849659], [-83.136575, 30.625104], [-83.311837, 30.636058], [-83.355653, 30.636058], [-83.476146, 31.030398], [-83.383038, 31.030398]]]}}, {"type": "Feature", "properties": {"name": "Macon", "id": "13193", "FIPS": "13193", "FIPS State": 13, "ST": "GA", "County": "Macon County,GA", "State": "Georgia"}, "geometry": {"type": "MultiPolygon", "coordinates": [[[[-84.001932, 32.531079], [-84.007409, 32.520126], [-84.051224, 32.520126], [-84.051224, 32.520126], [-84.001932, 32.531079]]], [[[-84.018363, 32.503695], [-83.848578, 32.465356], [-83.848578, 32.290094], [-84.029317, 32.169601], [-84.182671, 32.229848], [-84.253871, 32.372248], [-84.051224, 32.520126], [-84.018363, 32.503695]]]]}}, {"type": "Feature", "properties": {"name": "Emanuel", "id": "13107", "FIPS": "13107", "FIPS State": 13, "ST": "GA", "County": "Emanuel County,GA", "State": "Georgia"}, "geometry": {"type": "Polygon", "coordinates": [[[-82.315034, 32.837788], [-82.145249, 32.810403], [-82.002849, 32.607757], [-82.030233, 32.536556], [-82.23288, 32.317479], [-82.408142, 32.355817], [-82.550543, 32.498218], [-82.649128, 32.514649], [-82.435527, 32.761111], [-82.315034, 32.837788]]]}}, {"type": "Feature", "properties": {"name": "Madison", "id": "13195", "FIPS": "13195", "FIPS State": 13, "ST": "GA", "County": "Madison County,GA", "State": "Georgia"}, "geometry": {"type": "Polygon", "coordinates": [[[-83.120145, 34.272746], [-83.114668, 34.272746], [-83.076329, 34.228931], [-82.977744, 34.042715], [-83.098237, 34.026284], [-83.257068, 33.998899], [-83.36113, 34.042715], [-83.404945, 34.196069], [-83.355653, 34.223454], [-83.120145, 34.272746]]]}}, {"type": "Feature", "properties": {"name": "Meriwether", "id": "13199", "FIPS": "13199", "FIPS State": 13, "ST": "GA", "County": "Meriwether County,GA", "State": "Georgia"}, "geometry": {"type": "Polygon", "coordinates": [[[-84.861812, 33.193789], [-84.500334, 33.221174], [-84.494857, 33.182835], [-84.527718, 32.969235], [-84.50581, 32.881604], [-84.70298, 32.843265], [-84.861812, 32.87065], [-84.861812, 32.87065], [-84.861812, 33.193789]]]}}, {"type": "Feature", "properties": {"name": "Effingham", "id": "13103", "FIPS": "13103", "FIPS State": 13, "ST": "GA", "County": "Effingham County,GA", "State": "Georgia"}, "geometry": {"type": "Polygon", "coordinates": [[[-81.389431, 32.596803], [-81.279893, 32.558464], [-81.148446, 32.224371], [-81.1594, 32.229848], [-81.389431, 32.098401], [-81.42777, 32.235325], [-81.433247, 32.240802], [-81.548263, 32.487264], [-81.389431, 32.596803]]]}}, {"type": "Feature", "properties": {"name": "Whitfield", "id": "13313", "FIPS": "13313", "FIPS State": 13, "ST": "GA", "County": "Whitfield County,GA", "State": "Georgia"}, "geometry": {"type": "Polygon", "coordinates": [[[-84.976827, 34.990226], [-84.812519, 34.990226], [-84.916581, 34.634225], [-85.048028, 34.623271], [-85.146612, 34.765671], [-84.982304, 34.990226], [-84.976827, 34.990226]]]}}, {"type": "Feature", "properties": {"name": "Clayton", "id": "13063", "FIPS": "13063", "FIPS State": 13, "ST": "GA", "County": "Clayton County,GA", "State": "Georgia"}, "geometry": {"type": "Polygon", "coordinates": [[[-84.352456, 33.648375], [-84.281256, 33.648375], [-84.352456, 33.35262], [-84.368887, 33.35262], [-84.385318, 33.35262], [-84.451041, 33.54979], [-84.456518, 33.54979], [-84.352456, 33.648375]]]}}, {"type": "Feature", "properties": {"name": "Maui", "id": "15009", "FIPS": "15009", "FIPS State": 15, "ST": "HI", "County": "Maui County,HI", "State": "Hawaii"}, "geometry": {"type": "Polygon", "coordinates": [[[-156.587823, 21.029505], [-156.00179, 20.793996], [-156.379699, 20.580396], [-156.587823, 21.029505]]]}}, {"type": "Feature", "properties": {"name": "Jackson", "id": "17077", "FIPS": "17077", "FIPS State": 17, "ST": "IL", "County": "Jackson County,IL", "State": "Illinois"}, "geometry": {"type": "Polygon", "coordinates": [[[-89.566503, 37.95325], [-89.177641, 37.947773], [-89.150256, 37.860142], [-89.155733, 37.602726], [-89.522688, 37.569865], [-89.676042, 37.805373], [-89.593888, 37.95325], [-89.566503, 37.95325]]]}}, {"type": "Feature", "properties": {"name": "Clarke", "id": "13059", "FIPS": "13059", "FIPS State": 13, "ST": "GA", "County": "Clarke County,GA", "State": "Georgia"}, "geometry": {"type": "Polygon", "coordinates": [[[-83.36113, 34.042715], [-83.257068, 33.998899], [-83.273499, 33.845545], [-83.530915, 33.960561], [-83.536392, 33.966038], [-83.36113, 34.042715]]]}}, {"type": "Feature", "properties": {"name": "Brantley", "id": "13025", "FIPS": "13025", "FIPS State": 13, "ST": "GA", "County": "Brantley County,GA", "State": "Georgia"}, "geometry": {"type": "Polygon", "coordinates": [[[-82.041187, 31.369968], [-82.041187, 31.375445], [-81.729002, 31.331629], [-81.76734, 31.167321], [-81.937125, 31.046829], [-81.986418, 31.057782], [-82.134295, 31.00849], [-82.282173, 31.227568], [-82.041187, 31.369968]]]}}, {"type": "Feature", "properties": {"name": "Bibb", "id": "13021", "FIPS": "13021", "FIPS State": 13, "ST": "GA", "County": "Bibb County,GA", "State": "Georgia"}, "geometry": {"type": "Polygon", "coordinates": [[[-83.722608, 32.952804], [-83.711654, 32.952804], [-83.514484, 32.843265], [-83.596638, 32.662526], [-83.7007, 32.689911], [-83.892393, 32.848742], [-83.722608, 32.952804]]]}}, {"type": "Feature", "properties": {"name": "Kootenai", "id": "16055", "FIPS": "16055", "FIPS State": 16, "ST": "ID", "County": "Kootenai County,ID", "State": "Idaho"}, "geometry": {"type": "Polygon", "coordinates": [[[-116.567819, 47.992482], [-116.321357, 47.88842], [-116.326834, 47.411926], [-117.038836, 47.368111], [-117.044313, 47.976051], [-116.567819, 47.992482]]]}}, {"type": "Feature", "properties": {"name": "Baldwin", "id": "13009", "FIPS": "13009", "FIPS State": 13, "ST": "GA", "County": "Baldwin County,GA", "State": "Georgia"}, "geometry": {"type": "Polygon", "coordinates": [[[-83.273499, 33.188312], [-83.054421, 33.078773], [-83.076329, 32.947327], [-83.355653, 32.925419], [-83.426853, 33.182835], [-83.273499, 33.188312]]]}}, {"type": "Feature", "properties": {"name": "Washington", "id": "16087", "FIPS": "16087", "FIPS State": 16, "ST": "ID", "County": "Washington County,ID", "State": "Idaho"}, "geometry": {"type": "Polygon", "coordinates": [[[-116.901913, 44.843241], [-116.299449, 44.443425], [-116.452804, 44.153147], [-116.896436, 44.153147], [-117.219575, 44.301024], [-116.901913, 44.843241]]]}}, {"type": "Feature", "properties": {"name": "Washington", "id": "12133", "FIPS": "12133", "FIPS State": 12, "ST": "FL", "County": "Washington County,FL", "State": "Florida"}, "geometry": {"type": "Polygon", "coordinates": [[[-85.601199, 30.833228], [-85.43689, 30.570335], [-85.990061, 30.389596], [-85.842184, 30.701781], [-85.601199, 30.833228]]]}}, {"type": "Feature", "properties": {"name": "Coles", "id": "17029", "FIPS": "17029", "FIPS State": 17, "ST": "IL", "County": "Coles County,IL", "State": "Illinois"}, "geometry": {"type": "Polygon", "coordinates": [[[-88.065822, 39.651102], [-87.967237, 39.683964], [-87.96176, 39.481317], [-88.011052, 39.377255], [-88.142499, 39.377255], [-88.471115, 39.371778], [-88.471115, 39.448455], [-88.471115, 39.651102], [-88.065822, 39.651102]]]}}, {"type": "Feature", "properties": {"name": "Dubuque", "id": "19061", "FIPS": "19061", "FIPS State": 19, "ST": "IA", "County": "Dubuque County,IA", "State": "Iowa"}, "geometry": {"type": "Polygon", "coordinates": [[[-90.8974, 42.657942], [-90.8974, 42.674373], [-90.639984, 42.510065], [-90.475675, 42.384095], [-90.8974, 42.296464], [-91.127431, 42.296464], [-91.132908, 42.646988], [-90.8974, 42.657942]]]}}, {"type": "Feature", "properties": {"name": "Marion", "id": "12083", "FIPS": "12083", "FIPS State": 12, "ST": "FL", "County": "Marion County,FL", "State": "Florida"}, "geometry": {"type": "Polygon", "coordinates": [[[-81.844017, 29.518762], [-81.679709, 29.327069], [-81.641371, 29.277777], [-81.953556, 28.960114], [-82.013803, 28.960114], [-82.309557, 28.960114], [-82.523158, 29.042268], [-82.534112, 29.042268], [-82.408142, 29.485901], [-82.057618, 29.46947], [-81.844017, 29.518762]]]}}, {"type": "Feature", "properties": {"name": "Bryan", "id": "13029", "FIPS": "13029", "FIPS State": 13, "ST": "GA", "County": "Bryan County,GA", "State": "Georgia"}, "geometry": {"type": "Polygon", "coordinates": [[[-81.42777, 32.235325], [-81.389431, 32.098401], [-81.153923, 31.725969], [-81.197738, 31.725969], [-81.707094, 32.087447], [-81.718048, 32.087447], [-81.783771, 32.153171], [-81.433247, 32.240802], [-81.42777, 32.235325]]]}}, {"type": "Feature", "properties": {"name": "Boone", "id": "18011", "FIPS": "18011", "FIPS State": 18, "ST": "IN", "County": "Boone County,IN", "State": "Indiana"}, "geometry": {"type": "Polygon", "coordinates": [[[-86.242001, 40.182365], [-86.242001, 39.924949], [-86.324155, 39.924949], [-86.433693, 39.924949], [-86.696587, 39.924949], [-86.696587, 40.176888], [-86.242001, 40.182365]]]}}, {"type": "Feature", "properties": {"name": "Alamosa", "id": "08003", "FIPS": "08003", "FIPS State": 8, "ST": "CO", "County": "Alamosa County,CO", "State": "Colorado"}, "geometry": {"type": "Polygon", "coordinates": [[[-105.707047, 37.750604], [-105.455107, 37.750604], [-105.487969, 37.575342], [-105.745385, 37.356264], [-106.04114, 37.400079], [-106.04114, 37.750604], [-105.707047, 37.750604]]]}}, {"type": "Feature", "properties": {"name": "Amador", "id": "06005", "FIPS": "06005", "FIPS State": 6, "ST": "CA", "County": "Amador County,CA", "State": "California"}, "geometry": {"type": "Polygon", "coordinates": [[[-120.073061, 38.698114], [-120.073061, 38.511898], [-120.993187, 38.227097], [-121.026049, 38.298298], [-121.026049, 38.506421], [-120.073061, 38.703591], [-120.073061, 38.698114]]]}}, {"type": "Feature", "properties": {"name": "Whitley", "id": "18183", "FIPS": "18183", "FIPS State": 18, "ST": "IN", "County": "Whitley County,IN", "State": "Indiana"}, "geometry": {"type": "Polygon", "coordinates": [[[-85.650491, 41.294184], [-85.305444, 41.266799], [-85.332828, 41.003906], [-85.376644, 41.003906], [-85.645014, 41.003906], [-85.683353, 41.047722], [-85.650491, 41.294184]]]}}, {"type": "Feature", "properties": {"name": "Lauderdale", "id": "01077", "FIPS": "01077", "FIPS State": 1, "ST": "AL", "County": "Lauderdale County,AL", "State": "Alabama"}, "geometry": {"type": "Polygon", "coordinates": [[[-87.983668, 35.006656], [-87.605759, 35.00118], [-87.222373, 35.00118], [-87.211419, 35.00118], [-87.260711, 34.760194], [-87.42502, 34.798533], [-88.098683, 34.891641], [-88.202745, 34.995703], [-87.983668, 35.006656]]]}}, {"type": "Feature", "properties": {"name": "Jasper", "id": "18073", "FIPS": "18073", "FIPS State": 18, "ST": "IN", "County": "Jasper County,IN", "State": "Indiana"}, "geometry": {"type": "Polygon", "coordinates": [[[-87.036157, 41.255845], [-86.932095, 41.239415], [-86.932095, 41.173691], [-86.932095, 40.910798], [-87.096403, 40.735536], [-87.266188, 40.735536], [-87.277142, 41.21203], [-87.277142, 41.217507], [-87.216896, 41.239415], [-87.036157, 41.255845]]]}}, {"type": "Feature", "properties": {"name": "Madison", "id": "01089", "FIPS": "01089", "FIPS State": 1, "ST": "AL", "County": "Madison County,AL", "State": "Alabama"}, "geometry": {"type": "Polygon", "coordinates": [[[-86.784218, 34.990226], [-86.318678, 34.990226], [-86.313201, 34.990226], [-86.329632, 34.601363], [-86.548709, 34.546593], [-86.789695, 34.55207], [-86.784218, 34.990226]]]}}, {"type": "Feature", "properties": {"name": "Crawford", "id": "05033", "FIPS": "05033", "FIPS State": 5, "ST": "AR", "County": "Crawford County,AR", "State": "Arkansas"}, "geometry": {"type": "Polygon", "coordinates": [[[-93.964486, 35.762474], [-93.909717, 35.762474], [-94.074025, 35.444812], [-94.380734, 35.444812], [-94.430026, 35.395519], [-94.473842, 35.636505], [-94.490273, 35.756997], [-93.964486, 35.762474]]]}}, {"type": "Feature", "properties": {"name": "Jefferson", "id": "18077", "FIPS": "18077", "FIPS State": 18, "ST": "IN", "County": "Jefferson County,IN", "State": "Indiana"}, "geometry": {"type": "Polygon", "coordinates": [[[-85.299967, 38.911715], [-85.201382, 38.911715], [-85.201382, 38.692637], [-85.332828, 38.736453], [-85.425936, 38.588575], [-85.568337, 38.605006], [-85.683353, 38.81313], [-85.442367, 38.911715], [-85.299967, 38.911715]]]}}, {"type": "Feature", "properties": {"name": "Jennings", "id": "18079", "FIPS": "18079", "FIPS State": 18, "ST": "IN", "County": "Jennings County,IN", "State": "Indiana"}, "geometry": {"type": "Polygon", "coordinates": [[[-85.442367, 39.196516], [-85.442367, 38.911715], [-85.683353, 38.81313], [-85.792891, 38.807653], [-85.798368, 39.070546], [-85.68883, 39.130793], [-85.442367, 39.196516]]]}}, {"type": "Feature", "properties": {"name": "Benton", "id": "05007", "FIPS": "05007", "FIPS State": 5, "ST": "AR", "County": "Benton County,AR", "State": "Arkansas"}, "geometry": {"type": "Polygon", "coordinates": [[[-94.473842, 36.501861], [-94.079502, 36.496384], [-93.865902, 36.496384], [-93.816609, 36.304691], [-93.887809, 36.233491], [-94.013779, 36.206106], [-94.550519, 36.102045], [-94.561473, 36.162291], [-94.616242, 36.501861], [-94.473842, 36.501861]]]}}, {"type": "Feature", "properties": {"name": "Tippecanoe", "id": "18157", "FIPS": "18157", "FIPS State": 18, "ST": "IN", "County": "Tippecanoe County,IN", "State": "Indiana"}, "geometry": {"type": "Polygon", "coordinates": [[[-87.096403, 40.560274], [-86.773264, 40.560274], [-86.696587, 40.434304], [-86.696587, 40.215227], [-86.921141, 40.215227], [-87.090926, 40.215227], [-87.090926, 40.368581], [-87.096403, 40.47812], [-87.096403, 40.560274]]]}}, {"type": "Feature", "properties": {"name": "Russell", "id": "01113", "FIPS": "01113", "FIPS State": 1, "ST": "AL", "County": "Russell County,AL", "State": "Alabama"}, "geometry": {"type": "Polygon", "coordinates": [[[-85.020643, 32.509172], [-84.998735, 32.509172], [-84.982304, 32.372248], [-84.922058, 32.229848], [-85.053504, 32.06554], [-85.354736, 32.147694], [-85.409506, 32.147694], [-85.431413, 32.235325], [-85.431413, 32.410587], [-85.020643, 32.509172]]]}}]}