{"type": "FeatureCollection", "crs": {"type": "name", "properties": {"name": "urn:ogc:def:crs:OGC:1.3:CRS84"}}, "features": [{"type": "Feature", "properties": {"name": "Wood", "id": "39173", "FIPS": "39173", "FIPS State": 39, "ST": "OH", "County": "Wood County,OH", "State": "Ohio"}, "geometry": {"type": "Polygon", "coordinates": [[[-83.415899, 41.617324], [-83.415899, 41.502308], [-83.421376, 41.255845], [-83.421376, 41.168214], [-83.881439, 41.168214], [-83.881439, 41.414677], [-83.415899, 41.617324]]]}}, {"type": "Feature", "properties": {"name": "Wayne", "id": "39169", "FIPS": "39169", "FIPS State": 39, "ST": "OH", "County": "Wayne County,OH", "State": "Ohio"}, "geometry": {"type": "Polygon", "coordinates": [[[-82.079526, 40.992952], [-81.690663, 40.987475], [-81.646848, 40.916275], [-81.652325, 40.669813], [-81.657801, 40.669813], [-82.128818, 40.669813], [-82.128818, 40.992952], [-82.079526, 40.992952]]]}}, {"type": "Feature", "properties": {"name": "Washington", "id": "39167", "FIPS": "39167", "FIPS State": 39, "ST": "OH", "County": "Washington County,OH", "State": "Ohio"}, "geometry": {"type": "Polygon", "coordinates": [[[-81.449678, 39.634671], [-81.28537, 39.607286], [-81.038907, 39.541563], [-81.121061, 39.459409], [-81.373001, 39.344393], [-81.723525, 39.218424], [-81.844017, 39.448455], [-81.586601, 39.585379], [-81.449678, 39.634671]]]}}, {"type": "Feature", "properties": {"name": "Union", "id": "39159", "FIPS": "39159", "FIPS State": 39, "ST": "OH", "County": "Union County,OH", "State": "Ohio"}, "geometry": {"type": "Polygon", "coordinates": [[[-83.273499, 40.505505], [-83.246114, 40.445258], [-83.169437, 40.144027], [-83.207776, 40.105688], [-83.50353, 40.111165], [-83.552823, 40.231658], [-83.519961, 40.505505], [-83.415899, 40.505505], [-83.273499, 40.505505]]]}}, {"type": "Feature", "properties": {"name": "Lincoln", "id": "41041", "FIPS": "41041", "FIPS State": 41, "ST": "OR", "County": "Lincoln County,OR", "State": "Oregon"}, "geometry": {"type": "Polygon", "coordinates": [[[-124.000027, 45.045888], [-123.72618, 45.045888], [-123.600211, 44.722749], [-123.775473, 44.284593], [-124.010981, 44.279117], [-124.115043, 44.27364], [-124.005504, 45.045888], [-124.000027, 45.045888]]]}}, {"type": "Feature", "properties": {"name": "Hocking", "id": "39073", "FIPS": "39073", "FIPS State": 39, "ST": "OH", "County": "Hocking County,OH", "State": "Ohio"}, "geometry": {"type": "Polygon", "coordinates": [[[-82.375281, 39.656579], [-82.16168, 39.557994], [-82.28765, 39.382732], [-82.747713, 39.366301], [-82.742236, 39.470363], [-82.731282, 39.552517], [-82.375281, 39.656579]]]}}, {"type": "Feature", "properties": {"name": "Northumberland", "id": "42097", "FIPS": "42097", "FIPS State": 42, "ST": "PA", "County": "Northumberland County,PA", "State": "Pennsylvania"}, "geometry": {"type": "Polygon", "coordinates": [[[-76.799755, 41.173691], [-76.734032, 41.173691], [-76.525908, 40.883413], [-76.378031, 40.773875], [-76.70117, 40.658859], [-76.947633, 40.625997], [-76.936679, 40.636951], [-76.799755, 40.883413], [-76.89834, 41.14083], [-76.799755, 41.173691]]]}}, {"type": "Feature", "properties": {"name": "Tioga", "id": "42117", "FIPS": "42117", "FIPS State": 42, "ST": "PA", "County": "Tioga County,PA", "State": "Pennsylvania"}, "geometry": {"type": "Polygon", "coordinates": [[[-76.925725, 42.000709], [-76.876433, 41.595416], [-77.599389, 41.540646], [-77.610343, 42.000709], [-76.964064, 42.000709], [-76.925725, 42.000709]]]}}, {"type": "Feature", "properties": {"name": "Wilson", "id": "47189", "FIPS": "47189", "FIPS State": 47, "ST": "TN", "County": "Wilson County,TN", "State": "Tennessee"}, "geometry": {"type": "Polygon", "coordinates": [[[-86.36797, 36.353984], [-86.285816, 36.348507], [-86.137939, 36.293737], [-86.061262, 36.085614], [-86.017446, 35.959644], [-86.15437, 35.954167], [-86.515848, 36.102045], [-86.592525, 36.244445], [-86.36797, 36.353984]]]}}, {"type": "Feature", "properties": {"name": "Washington", "id": "47179", "FIPS": "47179", "FIPS State": 47, "ST": "TN", "County": "Washington County,TN", "State": "Tennessee"}, "geometry": {"type": "Polygon", "coordinates": [[[-82.473866, 36.441615], [-82.298603, 36.397799], [-82.342419, 36.255399], [-82.594358, 36.096568], [-82.632697, 36.419707], [-82.703897, 36.408753], [-82.681989, 36.430661], [-82.473866, 36.441615]]]}}, {"type": "Feature", "properties": {"name": "Warren", "id": "47177", "FIPS": "47177", "FIPS State": 47, "ST": "TN", "County": "Warren County,TN", "State": "Tennessee"}, "geometry": {"type": "Polygon", "coordinates": [[[-85.683353, 35.833674], [-85.601199, 35.795336], [-85.557383, 35.532443], [-85.606675, 35.532443], [-85.875046, 35.521489], [-85.984584, 35.658412], [-85.885999, 35.839151], [-85.683353, 35.833674]]]}}, {"type": "Feature", "properties": {"name": "Tipton", "id": "47167", "FIPS": "47167", "FIPS State": 47, "ST": "TN", "County": "Tipton County,TN", "State": "Tennessee"}, "geometry": {"type": "Polygon", "coordinates": [[[-89.643181, 35.647459], [-89.50078, 35.581735], [-89.473395, 35.400996], [-89.550073, 35.400996], [-89.632227, 35.373611], [-89.774627, 35.406473], [-90.075859, 35.384565], [-90.141582, 35.439335], [-89.911551, 35.53792], [-89.643181, 35.647459]]]}}, {"type": "Feature", "properties": {"name": "Roane", "id": "47145", "FIPS": "47145", "FIPS State": 47, "ST": "TN", "County": "Roane County,TN", "State": "Tennessee"}, "geometry": {"type": "Polygon", "coordinates": [[[-84.582488, 35.641982], [-84.620826, 35.641982], [-84.724888, 35.75152], [-84.768704, 35.80629], [-84.779657, 35.822721], [-84.681073, 35.910352], [-84.341502, 36.047275], [-84.270302, 35.910352], [-84.264825, 35.899398], [-84.582488, 35.641982]]]}}, {"type": "Feature", "properties": {"name": "Rhea", "id": "47143", "FIPS": "47143", "FIPS State": 47, "ST": "TN", "County": "Rhea County,TN", "State": "Tennessee"}, "geometry": {"type": "Polygon", "coordinates": [[[-84.768704, 35.80629], [-84.724888, 35.75152], [-85.015166, 35.41195], [-85.130182, 35.455766], [-85.135659, 35.455766], [-84.916581, 35.762474], [-84.779657, 35.822721], [-84.768704, 35.80629]]]}}, {"type": "Feature", "properties": {"name": "Hickman", "id": "47081", "FIPS": "47081", "FIPS State": 47, "ST": "TN", "County": "Hickman County,TN", "State": "Tennessee"}, "geometry": {"type": "Polygon", "coordinates": [[[-87.512651, 35.992506], [-87.205942, 35.959644], [-87.216896, 35.850105], [-87.337389, 35.658412], [-87.660528, 35.60912], [-87.720774, 35.795336], [-87.715298, 35.839151], [-87.534558, 35.992506], [-87.512651, 35.992506]]]}}, {"type": "Feature", "properties": {"name": "Hawkins", "id": "47073", "FIPS": "47073", "FIPS State": 47, "ST": "TN", "County": "Hawkins County,TN", "State": "Tennessee"}, "geometry": {"type": "Polygon", "coordinates": [[[-82.654605, 36.594969], [-82.610789, 36.594969], [-82.681989, 36.430661], [-82.703897, 36.408753], [-83.081806, 36.244445], [-83.158483, 36.332076], [-83.257068, 36.288261], [-83.278976, 36.392322], [-82.829867, 36.594969], [-82.654605, 36.594969]]]}}, {"type": "Feature", "properties": {"name": "Grundy", "id": "47061", "FIPS": "47061", "FIPS State": 47, "ST": "TN", "County": "Grundy County,TN", "State": "Tennessee"}, "geometry": {"type": "Polygon", "coordinates": [[[-85.590245, 35.521489], [-85.557383, 35.318842], [-85.601199, 35.307888], [-85.875046, 35.225734], [-85.913384, 35.291457], [-85.875046, 35.521489], [-85.606675, 35.532443], [-85.590245, 35.521489]]]}}, {"type": "Feature", "properties": {"name": "Gibson", "id": "47053", "FIPS": "47053", "FIPS State": 47, "ST": "TN", "County": "Gibson County,TN", "State": "Tennessee"}, "geometry": {"type": "Polygon", "coordinates": [[[-89.155733, 36.206106], [-88.958563, 36.222537], [-88.690193, 36.063706], [-88.706624, 35.789859], [-88.914747, 35.795336], [-89.188594, 35.997983], [-89.188594, 35.997983], [-89.155733, 36.206106]]]}}, {"type": "Feature", "properties": {"name": "Susquehanna", "id": "42115", "FIPS": "42115", "FIPS State": 42, "ST": "PA", "County": "Susquehanna County,PA", "State": "Pennsylvania"}, "geometry": {"type": "Polygon", "coordinates": [[[-75.890583, 42.000709], [-75.48529, 42.000709], [-75.463382, 41.639231], [-75.720798, 41.644708], [-76.115138, 41.650185], [-76.147999, 42.000709], [-76.104184, 42.000709], [-75.890583, 42.000709]]]}}, {"type": "Feature", "properties": {"name": "Fayette", "id": "47047", "FIPS": "47047", "FIPS State": 47, "ST": "TN", "County": "Fayette County,TN", "State": "Tennessee"}, "geometry": {"type": "Polygon", "coordinates": [[[-89.550073, 35.400996], [-89.473395, 35.400996], [-89.183118, 35.395519], [-89.199548, 34.995703], [-89.352903, 34.995703], [-89.643181, 34.995703], [-89.632227, 35.373611], [-89.550073, 35.400996]]]}}, {"type": "Feature", "properties": {"name": "Yankton", "id": "46135", "FIPS": "46135", "FIPS State": 46, "ST": "SD", "County": "Yankton County,SD", "State": "South Dakota"}, "geometry": {"type": "Polygon", "coordinates": [[[-97.343759, 43.167298], [-97.157543, 43.085144], [-97.16302, 42.800343], [-97.486159, 42.849635], [-97.634037, 42.849635], [-97.639513, 43.167298], [-97.398528, 43.167298], [-97.343759, 43.167298]]]}}, {"type": "Feature", "properties": {"name": "Spink", "id": "46115", "FIPS": "46115", "FIPS State": 46, "ST": "SD", "County": "Spink County,SD", "State": "South Dakota"}, "geometry": {"type": "Polygon", "coordinates": [[[-98.532255, 45.243058], [-97.979084, 45.243058], [-97.979084, 45.155427], [-97.979084, 44.629641], [-98.088623, 44.629641], [-98.707517, 44.635118], [-98.718471, 44.898011], [-98.718471, 45.243058], [-98.532255, 45.243058]]]}}, {"type": "Feature", "properties": {"name": "Pennington", "id": "46103", "FIPS": "46103", "FIPS State": 46, "ST": "SD", "County": "Pennington County,SD", "State": "South Dakota"}, "geometry": {"type": "Polygon", "coordinates": [[[-102.119651, 44.437948], [-101.999158, 44.509148], [-102.004635, 43.994316], [-102.141558, 43.698561], [-102.256574, 43.687607], [-102.809745, 43.687607], [-103.417686, 43.857392], [-104.053011, 43.851915], [-104.053011, 44.142193], [-103.450547, 44.142193], [-102.388021, 44.142193], [-102.119651, 44.437948]]]}}, {"type": "Feature", "properties": {"name": "Butte", "id": "46019", "FIPS": "46019", "FIPS State": 46, "ST": "SD", "County": "Butte County,SD", "State": "South Dakota"}, "geometry": {"type": "Polygon", "coordinates": [[[-104.042057, 45.210196], [-102.957623, 45.210196], [-102.957623, 45.040411], [-102.963099, 44.602256], [-103.565563, 44.602256], [-103.812025, 44.602256], [-104.058488, 44.569394], [-104.058488, 44.996596], [-104.042057, 45.210196]]]}}, {"type": "Feature", "properties": {"name": "Union", "id": "45087", "FIPS": "45087", "FIPS State": 45, "ST": "SC", "County": "Union County,SC", "State": "South Carolina"}, "geometry": {"type": "Polygon", "coordinates": [[[-81.712571, 34.913548], [-81.712571, 34.913548], [-81.455155, 34.836871], [-81.477062, 34.820441], [-81.422293, 34.573978], [-81.422293, 34.491824], [-81.641371, 34.53564], [-81.854971, 34.595886], [-81.712571, 34.913548]]]}}, {"type": "Feature", "properties": {"name": "Lexington", "id": "45063", "FIPS": "45063", "FIPS State": 45, "ST": "SC", "County": "Lexington County,SC", "State": "South Carolina"}, "geometry": {"type": "Polygon", "coordinates": [[[-81.340139, 34.196069], [-81.011523, 33.878407], [-81.044384, 33.796253], [-81.044384, 33.708622], [-81.186785, 33.653852], [-81.57017, 33.878407], [-81.471585, 34.075577], [-81.340139, 34.196069]]]}}, {"type": "Feature", "properties": {"name": "Chester", "id": "45023", "FIPS": "45023", "FIPS State": 45, "ST": "SC", "County": "Chester County,SC", "State": "South Carolina"}, "geometry": {"type": "Polygon", "coordinates": [[[-81.28537, 34.820441], [-80.896507, 34.820441], [-80.880076, 34.541117], [-81.416816, 34.573978], [-81.422293, 34.573978], [-81.477062, 34.820441], [-81.28537, 34.820441]]]}}, {"type": "Feature", "properties": {"name": "Wyoming", "id": "42131", "FIPS": "42131", "FIPS State": 42, "ST": "PA", "County": "Wyoming County,PA", "State": "Pennsylvania"}, "geometry": {"type": "Polygon", "coordinates": [[[-76.2192, 41.540646], [-76.115138, 41.650185], [-75.720798, 41.644708], [-75.835814, 41.425631], [-75.835814, 41.425631], [-76.284923, 41.376338], [-76.2192, 41.540646]]]}}, {"type": "Feature", "properties": {"name": "Warren", "id": "42123", "FIPS": "42123", "FIPS State": 42, "ST": "PA", "County": "Warren County,PA", "State": "Pennsylvania"}, "geometry": {"type": "Polygon", "coordinates": [[[-79.061732, 42.000709], [-78.919331, 42.000709], [-78.95767, 41.6228], [-78.996008, 41.6228], [-79.510841, 41.6228], [-79.614903, 41.6228], [-79.609426, 41.847355], [-79.609426, 42.000709], [-79.061732, 42.000709]]]}}, {"type": "Feature", "properties": {"name": "Union", "id": "42119", "FIPS": "42119", "FIPS State": 42, "ST": "PA", "County": "Union County,PA", "State": "Pennsylvania"}, "geometry": {"type": "Polygon", "coordinates": [[[-77.144803, 41.069629], [-76.89834, 41.14083], [-76.799755, 40.883413], [-76.854525, 40.88889], [-77.358403, 40.806736], [-77.36388, 40.845075], [-77.144803, 41.042245], [-77.144803, 41.069629]]]}}, {"type": "Feature", "properties": {"name": "Blount", "id": "47009", "FIPS": "47009", "FIPS State": 47, "ST": "TN", "County": "Blount County,TN", "State": "Tennessee"}, "geometry": {"type": "Polygon", "coordinates": [[[-83.793808, 35.888444], [-83.662362, 35.570781], [-83.952639, 35.461243], [-83.963593, 35.461243], [-84.188148, 35.60912], [-84.16624, 35.80629], [-83.793808, 35.888444]]]}}, {"type": "Feature", "properties": {"name": "Muscatine", "id": "19139", "FIPS": "19139", "FIPS State": 19, "ST": "IA", "County": "Muscatine County,IA", "State": "Iowa"}, "geometry": {"type": "Polygon", "coordinates": [[[-91.30817, 41.595416], [-90.8974, 41.595416], [-90.787861, 41.453015], [-91.072662, 41.332523], [-91.368417, 41.425631], [-91.368417, 41.600893], [-91.30817, 41.595416]]]}}, {"type": "Feature", "properties": {"name": "Campbell", "id": "56005", "FIPS": "56005", "FIPS State": 56, "ST": "WY", "County": "Campbell County,WY", "State": "Wyoming"}, "geometry": {"type": "Polygon", "coordinates": [[[-106.024709, 44.991119], [-105.088152, 45.002073], [-105.077198, 44.175055], [-105.077198, 43.495914], [-106.019232, 43.495914], [-106.008278, 44.563917], [-106.024709, 44.991119]]]}}, {"type": "Feature", "properties": {"name": "Greene", "id": "19073", "FIPS": "19073", "FIPS State": 19, "ST": "IA", "County": "Greene County,IA", "State": "Iowa"}, "geometry": {"type": "Polygon", "coordinates": [[[-94.167133, 42.208833], [-94.161656, 41.863786], [-94.282149, 41.863786], [-94.484796, 41.863786], [-94.627196, 41.863786], [-94.627196, 42.208833], [-94.397165, 42.208833], [-94.167133, 42.208833]]]}}, {"type": "Feature", "properties": {"name": "Woodford", "id": "17203", "FIPS": "17203", "FIPS State": 17, "ST": "IL", "County": "Woodford County,IL", "State": "Illinois"}, "geometry": {"type": "Polygon", "coordinates": [[[-89.111917, 40.927229], [-89.046194, 40.927229], [-88.931178, 40.927229], [-88.931178, 40.751967], [-89.270749, 40.593136], [-89.50078, 40.74649], [-89.555549, 40.74649], [-89.473395, 40.921752], [-89.111917, 40.927229]]]}}, {"type": "Feature", "properties": {"name": "Washington", "id": "12133", "FIPS": "12133", "FIPS State": 12, "ST": "FL", "County": "Washington County,FL", "State": "Florida"}, "geometry": {"type": "Polygon", "coordinates": [[[-85.601199, 30.833228], [-85.43689, 30.570335], [-85.990061, 30.389596], [-85.842184, 30.701781], [-85.601199, 30.833228]]]}}, {"type": "Feature", "properties": {"name": "Maui", "id": "15009", "FIPS": "15009", "FIPS State": 15, "ST": "HI", "County": "Maui County,HI", "State": "Hawaii"}, "geometry": {"type": "Polygon", "coordinates": [[[-156.587823, 21.029505], [-156.00179, 20.793996], [-156.379699, 20.580396], [-156.587823, 21.029505]]]}}, {"type": "Feature", "properties": {"name": "San Benito", "id": "06069", "FIPS": "06069", "FIPS State": 6, "ST": "CA", "County": "San Benito County,CA", "State": "California"}, "geometry": {"type": "Polygon", "coordinates": [[[-121.447773, 36.989309], [-121.217742, 36.961924], [-120.91651, 36.742847], [-120.681002, 36.266353], [-121.31085, 36.501861], [-121.644943, 36.896201], [-121.57922, 36.901678], [-121.447773, 36.989309]]]}}, {"type": "Feature", "properties": {"name": "Baldwin", "id": "13009", "FIPS": "13009", "FIPS State": 13, "ST": "GA", "County": "Baldwin County,GA", "State": "Georgia"}, "geometry": {"type": "Polygon", "coordinates": [[[-83.273499, 33.188312], [-83.054421, 33.078773], [-83.076329, 32.947327], [-83.355653, 32.925419], [-83.426853, 33.182835], [-83.273499, 33.188312]]]}}, {"type": "Feature", "properties": {"name": "Plumas", "id": "06063", "FIPS": "06063", "FIPS State": 6, "ST": "CA", "County": "Plumas County,CA", "State": "California"}, "geometry": {"type": "Polygon", "coordinates": [[[-121.119157, 40.445258], [-120.209985, 40.08378], [-120.149738, 39.705871], [-121.009618, 39.640148], [-121.075341, 39.596333], [-121.436819, 40.149503], [-121.497066, 40.445258], [-121.327281, 40.445258], [-121.119157, 40.445258]]]}}, {"type": "Feature", "properties": {"name": "Nevada", "id": "06057", "FIPS": "06057", "FIPS State": 6, "ST": "CA", "County": "Nevada County,CA", "State": "California"}, "geometry": {"type": "Polygon", "coordinates": [[[-120.555032, 39.508701], [-120.001861, 39.442978], [-120.007338, 39.317009], [-120.149738, 39.317009], [-121.277988, 39.032208], [-121.020572, 39.393686], [-120.555032, 39.508701]]]}}, {"type": "Feature", "properties": {"name": "Whitfield", "id": "13313", "FIPS": "13313", "FIPS State": 13, "ST": "GA", "County": "Whitfield County,GA", "State": "Georgia"}, "geometry": {"type": "Polygon", "coordinates": [[[-84.976827, 34.990226], [-84.812519, 34.990226], [-84.916581, 34.634225], [-85.048028, 34.623271], [-85.146612, 34.765671], [-84.982304, 34.990226], [-84.976827, 34.990226]]]}}, {"type": "Feature", "properties": {"name": "Monroe", "id": "12087", "FIPS": "12087", "FIPS State": 12, "ST": "FL", "County": "Monroe County,FL", "State": "Florida"}, "geometry": {"type": "Polygon", "coordinates": [[[-80.874599, 25.805397], [-80.858168, 25.175549], [-81.077246, 25.120779], [-81.345616, 25.805397], [-80.874599, 25.805397]]]}}, {"type": "Feature", "properties": {"name": "Bibb", "id": "13021", "FIPS": "13021", "FIPS State": 13, "ST": "GA", "County": "Bibb County,GA", "State": "Georgia"}, "geometry": {"type": "Polygon", "coordinates": [[[-83.722608, 32.952804], [-83.711654, 32.952804], [-83.514484, 32.843265], [-83.596638, 32.662526], [-83.7007, 32.689911], [-83.892393, 32.848742], [-83.722608, 32.952804]]]}}, {"type": "Feature", "properties": {"name": "Imperial", "id": "06025", "FIPS": "06025", "FIPS State": 6, "ST": "CA", "County": "Imperial County,CA", "State": "California"}, "geometry": {"type": "Polygon", "coordinates": [[[-114.733044, 33.434775], [-114.628982, 33.434775], [-114.513967, 33.029481], [-114.72209, 32.717295], [-116.107756, 32.61871], [-116.085849, 33.423821], [-114.733044, 33.434775]]]}}]}