{"type": "FeatureCollection", "crs": {"type": "name", "properties": {"name": "urn:ogc:def:crs:OGC:1.3:CRS84"}}, "features": [{"type": "Feature", "properties": {"name": "Effingham", "id": "13103", "FIPS": "13103", "FIPS State": 13, "ST": "GA", "County": "Effingham County,GA", "State": "Georgia"}, "geometry": {"type": "Polygon", "coordinates": [[[-81.389431, 32.596803], [-81.279893, 32.558464], [-81.148446, 32.224371], [-81.1594, 32.229848], [-81.389431, 32.098401], [-81.42777, 32.235325], [-81.433247, 32.240802], [-81.548263, 32.487264], [-81.389431, 32.596803]]]}}, {"type": "Feature", "properties": {"name": "Emanuel", "id": "13107", "FIPS": "13107", "FIPS State": 13, "ST": "GA", "County": "Emanuel County,GA", "State": "Georgia"}, "geometry": {"type": "Polygon", "coordinates": [[[-82.315034, 32.837788], [-82.145249, 32.810403], [-82.002849, 32.607757], [-82.030233, 32.536556], [-82.23288, 32.317479], [-82.408142, 32.355817], [-82.550543, 32.498218], [-82.649128, 32.514649], [-82.435527, 32.761111], [-82.315034, 32.837788]]]}}, {"type": "Feature", "properties": {"name": "Lee", "id": "01081", "FIPS": "01081", "FIPS State": 1, "ST": "AL", "County": "Lee County,AL", "State": "Alabama"}, "geometry": {"type": "Polygon", "coordinates": [[[-85.184951, 32.74468], [-85.130182, 32.74468], [-85.080889, 32.607757], [-84.998735, 32.509172], [-85.020643, 32.509172], [-85.431413, 32.410587], [-85.694307, 32.580372], [-85.694307, 32.596803], [-85.595722, 32.728249], [-85.184951, 32.74468]]]}}, {"type": "Feature", "properties": {"name": "Lauderdale", "id": "01077", "FIPS": "01077", "FIPS State": 1, "ST": "AL", "County": "Lauderdale County,AL", "State": "Alabama"}, "geometry": {"type": "Polygon", "coordinates": [[[-87.983668, 35.006656], [-87.605759, 35.00118], [-87.222373, 35.00118], [-87.211419, 35.00118], [-87.260711, 34.760194], [-87.42502, 34.798533], [-88.098683, 34.891641], [-88.202745, 34.995703], [-87.983668, 35.006656]]]}}, {"type": "Feature", "properties": {"name": "Whitley", "id": "18183", "FIPS": "18183", "FIPS State": 18, "ST": "IN", "County": "Whitley County,IN", "State": "Indiana"}, "geometry": {"type": "Polygon", "coordinates": [[[-85.650491, 41.294184], [-85.305444, 41.266799], [-85.332828, 41.003906], [-85.376644, 41.003906], [-85.645014, 41.003906], [-85.683353, 41.047722], [-85.650491, 41.294184]]]}}, {"type": "Feature", "properties": {"name": "Allamakee", "id": "19005", "FIPS": "19005", "FIPS State": 19, "ST": "IA", "County": "Allamakee County,IA", "State": "Iowa"}, "geometry": {"type": "Polygon", "coordinates": [[[-91.368417, 43.501391], [-91.215062, 43.501391], [-91.204109, 43.424714], [-91.176724, 43.079667], [-91.565587, 43.079667], [-91.603925, 43.079667], [-91.609402, 43.501391], [-91.368417, 43.501391]]]}}, {"type": "Feature", "properties": {"name": "Buena Vista", "id": "19021", "FIPS": "19021", "FIPS State": 19, "ST": "IA", "County": "Buena Vista County,IA", "State": "Iowa"}, "geometry": {"type": "Polygon", "coordinates": [[[-95.251567, 42.909881], [-94.911997, 42.909881], [-94.911997, 42.559357], [-95.388491, 42.559357], [-95.388491, 42.909881], [-95.251567, 42.909881]]]}}, {"type": "Feature", "properties": {"name": "Etowah", "id": "01055", "FIPS": "01055", "FIPS State": 1, "ST": "AL", "County": "Etowah County,AL", "State": "Alabama"}, "geometry": {"type": "Polygon", "coordinates": [[[-86.105077, 34.201546], [-85.842184, 34.201546], [-85.738122, 33.966038], [-86.066738, 33.840068], [-86.291293, 33.982469], [-86.324155, 33.938653], [-86.302247, 34.097484], [-86.105077, 34.201546]]]}}, {"type": "Feature", "properties": {"name": "Carroll", "id": "19027", "FIPS": "19027", "FIPS State": 19, "ST": "IA", "County": "Carroll County,IA", "State": "Iowa"}, "geometry": {"type": "Polygon", "coordinates": [[[-95.092736, 42.208833], [-94.857228, 42.208833], [-94.627196, 42.208833], [-94.627196, 41.863786], [-94.742212, 41.863786], [-95.092736, 41.863786], [-95.092736, 42.208833]]]}}, {"type": "Feature", "properties": {"name": "Dale", "id": "01045", "FIPS": "01045", "FIPS State": 1, "ST": "AL", "County": "Dale County,AL", "State": "Alabama"}, "geometry": {"type": "Polygon", "coordinates": [[[-85.694307, 31.61643], [-85.414983, 31.621907], [-85.414983, 31.315199], [-85.710737, 31.194706], [-85.792891, 31.194706], [-85.787415, 31.61643], [-85.749076, 31.61643], [-85.694307, 31.61643]]]}}, {"type": "Feature", "properties": {"name": "Colbert", "id": "01033", "FIPS": "01033", "FIPS State": 1, "ST": "AL", "County": "Colbert County,AL", "State": "Alabama"}, "geometry": {"type": "Polygon", "coordinates": [[[-88.098683, 34.891641], [-87.42502, 34.798533], [-87.529082, 34.568501], [-88.142499, 34.579455], [-88.098683, 34.891641]]]}}, {"type": "Feature", "properties": {"name": "Dubuque", "id": "19061", "FIPS": "19061", "FIPS State": 19, "ST": "IA", "County": "Dubuque County,IA", "State": "Iowa"}, "geometry": {"type": "Polygon", "coordinates": [[[-90.8974, 42.657942], [-90.8974, 42.674373], [-90.639984, 42.510065], [-90.475675, 42.384095], [-90.8974, 42.296464], [-91.127431, 42.296464], [-91.132908, 42.646988], [-90.8974, 42.657942]]]}}, {"type": "Feature", "properties": {"name": "Glynn", "id": "13127", "FIPS": "13127", "FIPS State": 13, "ST": "GA", "County": "Glynn County,GA", "State": "Georgia"}, "geometry": {"type": "Polygon", "coordinates": [[[-81.279893, 31.293291], [-81.268939, 31.293291], [-81.444201, 31.013967], [-81.76734, 31.167321], [-81.729002, 31.331629], [-81.62494, 31.452122], [-81.279893, 31.293291]]]}}, {"type": "Feature", "properties": {"name": "Madison", "id": "18095", "FIPS": "18095", "FIPS State": 18, "ST": "IN", "County": "Madison County,IN", "State": "Indiana"}, "geometry": {"type": "Polygon", "coordinates": [[[-85.672399, 40.379535], [-85.579291, 40.379535], [-85.573814, 40.078303], [-85.573814, 39.946857], [-85.617629, 39.946857], [-85.864092, 39.94138], [-85.864092, 40.220704], [-85.864092, 40.379535], [-85.672399, 40.379535]]]}}, {"type": "Feature", "properties": {"name": "Clayton", "id": "13063", "FIPS": "13063", "FIPS State": 13, "ST": "GA", "County": "Clayton County,GA", "State": "Georgia"}, "geometry": {"type": "Polygon", "coordinates": [[[-84.352456, 33.648375], [-84.281256, 33.648375], [-84.352456, 33.35262], [-84.368887, 33.35262], [-84.385318, 33.35262], [-84.451041, 33.54979], [-84.456518, 33.54979], [-84.352456, 33.648375]]]}}, {"type": "Feature", "properties": {"name": "Knox", "id": "17095", "FIPS": "17095", "FIPS State": 17, "ST": "IL", "County": "Knox County,IL", "State": "Illinois"}, "geometry": {"type": "Polygon", "coordinates": [[[-90.207305, 41.151784], [-89.982751, 41.151784], [-89.988228, 40.976521], [-89.988228, 40.713628], [-90.442814, 40.713628], [-90.437337, 41.064153], [-90.437337, 41.151784], [-90.207305, 41.151784]]]}}, {"type": "Feature", "properties": {"name": "Garland", "id": "05051", "FIPS": "05051", "FIPS State": 5, "ST": "AR", "County": "Garland County,AR", "State": "Arkansas"}, "geometry": {"type": "Polygon", "coordinates": [[[-93.285346, 34.771148], [-93.077222, 34.771148], [-92.792421, 34.502778], [-93.405839, 34.398716], [-93.394885, 34.743763], [-93.285346, 34.771148]]]}}, {"type": "Feature", "properties": {"name": "Madison", "id": "05087", "FIPS": "05087", "FIPS State": 5, "ST": "AR", "County": "Madison County,AR", "State": "Arkansas"}, "geometry": {"type": "Polygon", "coordinates": [[[-93.816609, 36.304691], [-93.477039, 36.123952], [-93.520854, 35.762474], [-93.696116, 35.767951], [-93.909717, 35.762474], [-93.964486, 35.762474], [-93.887809, 36.233491], [-93.816609, 36.304691]]]}}, {"type": "Feature", "properties": {"name": "Clarke", "id": "13059", "FIPS": "13059", "FIPS State": 13, "ST": "GA", "County": "Clarke County,GA", "State": "Georgia"}, "geometry": {"type": "Polygon", "coordinates": [[[-83.36113, 34.042715], [-83.257068, 33.998899], [-83.273499, 33.845545], [-83.530915, 33.960561], [-83.536392, 33.966038], [-83.36113, 34.042715]]]}}, {"type": "Feature", "properties": {"name": "Decatur", "id": "18031", "FIPS": "18031", "FIPS State": 18, "ST": "IN", "County": "Decatur County,IN", "State": "Indiana"}, "geometry": {"type": "Polygon", "coordinates": [[[-85.299967, 39.453932], [-85.29449, 39.267716], [-85.442367, 39.196516], [-85.68883, 39.130793], [-85.683353, 39.34987], [-85.628583, 39.453932], [-85.299967, 39.453932]]]}}, {"type": "Feature", "properties": {"name": "Jackson", "id": "13157", "FIPS": "13157", "FIPS State": 13, "ST": "GA", "County": "Jackson County,GA", "State": "Georgia"}, "geometry": {"type": "Polygon", "coordinates": [[[-83.618546, 34.289177], [-83.404945, 34.196069], [-83.36113, 34.042715], [-83.536392, 33.966038], [-83.815716, 34.124869], [-83.618546, 34.294654], [-83.618546, 34.289177]]]}}, {"type": "Feature", "properties": {"name": "Juneau", "id": "02110", "FIPS": "02110", "FIPS State": 2, "ST": "AK", "County": "Juneau County,AK", "State": "Alaska"}, "geometry": {"type": "Polygon", "coordinates": [[[-135.178463, 58.973748], [-134.329537, 58.962794], [-133.382026, 58.426053], [-133.173903, 58.152206], [-133.529904, 57.911221], [-133.601104, 57.861929], [-135.074401, 58.502731], [-135.178463, 58.973748]]]}}, {"type": "Feature", "properties": {"name": "Jennings", "id": "18079", "FIPS": "18079", "FIPS State": 18, "ST": "IN", "County": "Jennings County,IN", "State": "Indiana"}, "geometry": {"type": "Polygon", "coordinates": [[[-85.442367, 39.196516], [-85.442367, 38.911715], [-85.683353, 38.81313], [-85.792891, 38.807653], [-85.798368, 39.070546], [-85.68883, 39.130793], [-85.442367, 39.196516]]]}}, {"type": "Feature", "properties": {"name": "Jefferson", "id": "18077", "FIPS": "18077", "FIPS State": 18, "ST": "IN", "County": "Jefferson County,IN", "State": "Indiana"}, "geometry": {"type": "Polygon", "coordinates": [[[-85.299967, 38.911715], [-85.201382, 38.911715], [-85.201382, 38.692637], [-85.332828, 38.736453], [-85.425936, 38.588575], [-85.568337, 38.605006], [-85.683353, 38.81313], [-85.442367, 38.911715], [-85.299967, 38.911715]]]}}, {"type": "Feature", "properties": {"name": "Benton", "id": "05007", "FIPS": "05007", "FIPS State": 5, "ST": "AR", "County": "Benton County,AR", "State": "Arkansas"}, "geometry": {"type": "Polygon", "coordinates": [[[-94.473842, 36.501861], [-94.079502, 36.496384], [-93.865902, 36.496384], [-93.816609, 36.304691], [-93.887809, 36.233491], [-94.013779, 36.206106], [-94.550519, 36.102045], [-94.561473, 36.162291], [-94.616242, 36.501861], [-94.473842, 36.501861]]]}}, {"type": "Feature", "properties": {"name": "Jasper", "id": "18073", "FIPS": "18073", "FIPS State": 18, "ST": "IN", "County": "Jasper County,IN", "State": "Indiana"}, "geometry": {"type": "Polygon", "coordinates": [[[-87.036157, 41.255845], [-86.932095, 41.239415], [-86.932095, 41.173691], [-86.932095, 40.910798], [-87.096403, 40.735536], [-87.266188, 40.735536], [-87.277142, 41.21203], [-87.277142, 41.217507], [-87.216896, 41.239415], [-87.036157, 41.255845]]]}}, {"type": "Feature", "properties": {"name": "Sitka", "id": "02220", "FIPS": "02220", "FIPS State": 2, "ST": "AK", "County": "Sitka County,AK", "State": "Alaska"}, "geometry": {"type": "MultiPolygon", "coordinates": [[[[-136.372436, 57.829067], [-135.589233, 57.89479], [-134.937477, 57.763344], [-134.822462, 57.500451], [-135.572802, 57.675713], [-135.890465, 57.407343], [-136.372436, 57.829067]]], [[[-134.66363, 56.28457], [-134.669107, 56.169554], [-135.413971, 56.810356], [-135.687818, 57.369004], [-135.419448, 57.566174], [-134.849846, 57.407343], [-134.636246, 56.28457], [-134.66363, 56.28457]]]]}}, {"type": "Feature", "properties": {"name": "Hendricks", "id": "18063", "FIPS": "18063", "FIPS State": 18, "ST": "IN", "County": "Hendricks County,IN", "State": "Indiana"}, "geometry": {"type": "Polygon", "coordinates": [[[-86.433693, 39.924949], [-86.324155, 39.924949], [-86.324155, 39.629194], [-86.658248, 39.601809], [-86.696587, 39.864703], [-86.696587, 39.924949], [-86.433693, 39.924949]]]}}, {"type": "Feature", "properties": {"name": "Ulster", "id": "36111", "FIPS": "36111", "FIPS State": 36, "ST": "NY", "County": "Ulster County,NY", "State": "New York"}, "geometry": {"type": "Polygon", "coordinates": [[[-74.01747, 42.159541], [-73.913408, 42.126679], [-73.929839, 42.077386], [-73.951746, 41.589939], [-74.263932, 41.633754], [-74.367994, 41.589939], [-74.778764, 42.01714], [-74.450148, 42.170494], [-74.01747, 42.159541]]]}}, {"type": "Feature", "properties": {"name": "Portage", "id": "39133", "FIPS": "39133", "FIPS State": 39, "ST": "OH", "County": "Portage County,OH", "State": "Ohio"}, "geometry": {"type": "Polygon", "coordinates": [[[-81.389431, 41.348953], [-81.000569, 41.348953], [-81.000569, 41.135353], [-81.0882, 40.987475], [-81.394908, 40.987475], [-81.389431, 41.348953], [-81.389431, 41.348953]]]}}, {"type": "Feature", "properties": {"name": "Watauga", "id": "37189", "FIPS": "37189", "FIPS State": 37, "ST": "NC", "County": "Watauga County,NC", "State": "North Carolina"}, "geometry": {"type": "Polygon", "coordinates": [[[-81.734479, 36.392322], [-81.477062, 36.238968], [-81.542786, 36.118475], [-81.685186, 36.123952], [-81.811156, 36.112998], [-81.920695, 36.288261], [-81.734479, 36.392322]]]}}, {"type": "Feature", "properties": {"name": "Hernando", "id": "12053", "FIPS": "12053", "FIPS State": 12, "ST": "FL", "County": "Hernando County,FL", "State": "Florida"}, "geometry": {"type": "Polygon", "coordinates": [[[-82.265742, 28.669836], [-82.057618, 28.478144], [-82.254788, 28.478144], [-82.676512, 28.434328], [-82.649128, 28.691744], [-82.265742, 28.669836]]]}}, {"type": "Feature", "properties": {"name": "Burke", "id": "13033", "FIPS": "13033", "FIPS State": 13, "ST": "GA", "County": "Burke County,GA", "State": "Georgia"}, "geometry": {"type": "Polygon", "coordinates": [[[-82.189065, 33.292374], [-81.849494, 33.248559], [-81.756386, 33.199266], [-81.613986, 33.095204], [-81.542786, 33.045912], [-81.76734, 32.908988], [-81.860448, 32.952804], [-82.145249, 32.810403], [-82.315034, 32.837788], [-82.265742, 33.264989], [-82.189065, 33.292374]]]}}, {"type": "Feature", "properties": {"name": "San Miguel", "id": "35047", "FIPS": "35047", "FIPS State": 35, "ST": "NM", "County": "San Miguel County,NM", "State": "New Mexico"}, "geometry": {"type": "Polygon", "coordinates": [[[-104.365196, 35.778905], [-103.976333, 35.800813], [-103.636763, 35.390042], [-104.124211, 35.14358], [-105.290799, 35.21478], [-105.290799, 35.039518], [-105.712524, 35.039518], [-105.718001, 35.872013], [-104.365196, 35.778905]]]}}, {"type": "Feature", "properties": {"name": "Le Flore", "id": "40079", "FIPS": "40079", "FIPS State": 40, "ST": "OK", "County": "Le Flore County,OK", "State": "Oklahoma"}, "geometry": {"type": "Polygon", "coordinates": [[[-94.430026, 35.379088], [-94.446457, 34.935456], [-94.451934, 34.727333], [-94.462888, 34.508255], [-94.616242, 34.508255], [-94.939382, 34.508255], [-95.059875, 34.67804], [-94.928428, 35.055949], [-94.813412, 35.324319], [-94.430026, 35.379088]]]}}, {"type": "Feature", "properties": {"name": "Indian River", "id": "12061", "FIPS": "12061", "FIPS State": 12, "ST": "FL", "County": "Indian River County,FL", "State": "Florida"}, "geometry": {"type": "Polygon", "coordinates": [[[-80.321428, 27.558018], [-80.677429, 27.558018], [-80.792445, 27.645649], [-80.874599, 27.640172], [-80.869122, 27.820911], [-80.447398, 27.859249], [-80.321428, 27.558018]]]}}, {"type": "Feature", "properties": {"name": "Camden", "id": "13039", "FIPS": "13039", "FIPS State": 13, "ST": "GA", "County": "Camden County,GA", "State": "Georgia"}, "geometry": {"type": "Polygon", "coordinates": [[[-81.76734, 31.167321], [-81.444201, 31.013967], [-81.444201, 30.707258], [-81.904264, 30.816797], [-81.937125, 31.046829], [-81.76734, 31.167321]]]}}, {"type": "Feature", "properties": {"name": "Montgomery", "id": "39113", "FIPS": "39113", "FIPS State": 39, "ST": "OH", "County": "Montgomery County,OH", "State": "Ohio"}, "geometry": {"type": "Polygon", "coordinates": [[[-84.155286, 39.924949], [-84.051224, 39.881133], [-84.051224, 39.848272], [-84.111471, 39.579902], [-84.36341, 39.590856], [-84.478426, 39.590856], [-84.483903, 39.919472], [-84.423656, 39.919472], [-84.155286, 39.924949]]]}}, {"type": "Feature", "properties": {"name": "Orange", "id": "36071", "FIPS": "36071", "FIPS State": 36, "ST": "NY", "County": "Orange County,NY", "State": "New York"}, "geometry": {"type": "Polygon", "coordinates": [[[-74.263932, 41.633754], [-73.951746, 41.589939], [-73.979131, 41.436584], [-73.979131, 41.327046], [-74.236547, 41.14083], [-74.367994, 41.201076], [-74.69661, 41.359907], [-74.756857, 41.425631], [-74.367994, 41.589939], [-74.263932, 41.633754]]]}}, {"type": "Feature", "properties": {"name": "Santa Rosa", "id": "12113", "FIPS": "12113", "FIPS State": 12, "ST": "FL", "County": "Santa Rosa County,FL", "State": "Florida"}, "geometry": {"type": "Polygon", "coordinates": [[[-87.162127, 30.997536], [-86.784218, 30.997536], [-86.800648, 30.384119], [-86.921141, 30.373165], [-87.310004, 30.734643], [-87.162127, 30.997536]]]}}, {"type": "Feature", "properties": {"name": "Miami", "id": "39109", "FIPS": "39109", "FIPS State": 39, "ST": "OH", "County": "Miami County,OH", "State": "Ohio"}, "geometry": {"type": "Polygon", "coordinates": [[[-84.22101, 40.198796], [-84.02384, 40.182365], [-84.034794, 40.039965], [-84.051224, 39.881133], [-84.155286, 39.924949], [-84.423656, 39.919472], [-84.43461, 40.198796], [-84.22101, 40.198796]]]}}, {"type": "Feature", "properties": {"name": "Medina", "id": "39103", "FIPS": "39103", "FIPS State": 39, "ST": "OH", "County": "Medina County,OH", "State": "Ohio"}, "geometry": {"type": "Polygon", "coordinates": [[[-81.685186, 41.277753], [-81.690663, 40.987475], [-82.079526, 40.992952], [-82.128818, 40.992952], [-82.172634, 41.064153], [-81.876879, 41.277753], [-81.685186, 41.277753]]]}}, {"type": "Feature", "properties": {"name": "Cayuga", "id": "36011", "FIPS": "36011", "FIPS State": 36, "ST": "NY", "County": "Cayuga County,NY", "State": "New York"}, "geometry": {"type": "Polygon", "coordinates": [[[-76.619016, 43.419237], [-76.476616, 43.227544], [-76.273969, 42.772958], [-76.263015, 42.625081], [-76.460185, 42.625081], [-76.668309, 42.625081], [-76.712124, 43.024897], [-76.723078, 43.34256], [-76.619016, 43.419237]]]}}, {"type": "Feature", "properties": {"name": "Bartow", "id": "13015", "FIPS": "13015", "FIPS State": 13, "ST": "GA", "County": "Bartow County,GA", "State": "Georgia"}, "geometry": {"type": "Polygon", "coordinates": [[[-84.933012, 34.398716], [-84.653688, 34.415147], [-84.659165, 34.075577], [-84.735842, 34.081054], [-84.922058, 34.081054], [-85.048028, 34.097484], [-85.004212, 34.393239], [-84.933012, 34.398716]]]}}, {"type": "Feature", "properties": {"name": "Huron", "id": "39077", "FIPS": "39077", "FIPS State": 39, "ST": "OH", "County": "Huron County,OH", "State": "Ohio"}, "geometry": {"type": "Polygon", "coordinates": [[[-82.840821, 41.288707], [-82.342419, 41.28323], [-82.336942, 41.064153], [-82.375281, 41.064153], [-82.435527, 40.992952], [-82.687466, 40.992952], [-82.725805, 40.998429], [-82.829867, 40.998429], [-82.840821, 41.255845], [-82.840821, 41.288707]]]}}]}