{"type": "FeatureCollection", "crs": {"type": "name", "properties": {"name": "urn:ogc:def:crs:OGC:1.3:CRS84"}}, "features": [{"type": "Feature", "properties": {"name": "Kent", "id": "10001", "FIPS": "10001", "FIPS State": 10, "ST": "DE", "County": "Kent County,DE", "State": "Delaware"}, "geometry": {"type": "Polygon", "coordinates": [[[-75.616736, 39.311532], [-75.512674, 39.366301], [-75.310028, 38.944577], [-75.720798, 38.829561], [-75.748183, 39.141746], [-75.75366, 39.245808], [-75.759137, 39.295101], [-75.616736, 39.311532]]]}}, {"type": "Feature", "properties": {"name": "Kaufman", "id": "48257", "FIPS": "48257", "FIPS State": 48, "ST": "TX", "County": "Kaufman County,TX", "State": "Texas"}, "geometry": {"type": "Polygon", "coordinates": [[[-96.297663, 32.843265], [-96.078585, 32.837788], [-96.078585, 32.355817], [-96.215509, 32.361294], [-96.451017, 32.361294], [-96.527695, 32.54751], [-96.516741, 32.81588], [-96.297663, 32.843265]]]}}, {"type": "Feature", "properties": {"name": "Coconino", "id": "04005", "FIPS": "04005", "FIPS State": 4, "ST": "AZ", "County": "Coconino County,AZ", "State": "Arizona"}, "geometry": {"type": "Polygon", "coordinates": [[[-110.751309, 37.00574], [-110.751309, 34.261793], [-111.556419, 34.469916], [-111.775497, 34.979272], [-112.334144, 34.973795], [-112.438206, 35.258596], [-113.336425, 35.526966], [-113.352855, 36.047275], [-112.629899, 36.392322], [-112.542268, 37.000263], [-111.414018, 37.000263], [-110.751309, 37.00574]]]}}, {"type": "Feature", "properties": {"name": "Dutchess", "id": "36027", "FIPS": "36027", "FIPS State": 36, "ST": "NY", "County": "Dutchess County,NY", "State": "New York"}, "geometry": {"type": "Polygon", "coordinates": [[[-73.929839, 42.077386], [-73.49716, 42.050002], [-73.486206, 42.050002], [-73.519068, 41.666616], [-73.530022, 41.529692], [-73.979131, 41.436584], [-73.951746, 41.589939], [-73.929839, 42.077386]]]}}, {"type": "Feature", "properties": {"name": "Mahoning", "id": "39099", "FIPS": "39099", "FIPS State": 39, "ST": "OH", "County": "Mahoning County,OH", "State": "Ohio"}, "geometry": {"type": "Polygon", "coordinates": [[[-80.786968, 41.135353], [-80.518598, 41.135353], [-80.518598, 41.124399], [-80.518598, 40.899844], [-80.858168, 40.927229], [-81.0882, 40.905321], [-81.0882, 40.987475], [-81.000569, 41.135353], [-80.786968, 41.135353]]]}}, {"type": "Feature", "properties": {"name": "Ada", "id": "16001", "FIPS": "16001", "FIPS State": 16, "ST": "ID", "County": "Ada County,ID", "State": "Idaho"}, "geometry": {"type": "Polygon", "coordinates": [[[-116.51305, 43.8081], [-116.283018, 43.8081], [-115.97631, 43.589022], [-116.266588, 43.112528], [-116.51305, 43.28779], [-116.51305, 43.8081]]]}}, {"type": "Feature", "properties": {"name": "Mercer", "id": "39107", "FIPS": "39107", "FIPS State": 39, "ST": "OH", "County": "Mercer County,OH", "State": "Ohio"}, "geometry": {"type": "Polygon", "coordinates": [[[-84.774181, 40.730059], [-84.456518, 40.686244], [-84.43461, 40.35215], [-84.43461, 40.35215], [-84.456518, 40.35215], [-84.801565, 40.35215], [-84.801565, 40.571228], [-84.801565, 40.730059], [-84.774181, 40.730059]]]}}, {"type": "Feature", "properties": {"name": "Kane", "id": "17089", "FIPS": "17089", "FIPS State": 17, "ST": "IL", "County": "Kane County,IL", "State": "Illinois"}, "geometry": {"type": "Polygon", "coordinates": [[[-88.454684, 42.154064], [-88.235607, 42.154064], [-88.262992, 41.984279], [-88.262992, 41.726862], [-88.602562, 41.721385], [-88.586131, 42.154064], [-88.454684, 42.154064]]]}}, {"type": "Feature", "properties": {"name": "Le Sueur", "id": "27079", "FIPS": "27079", "FIPS State": 27, "ST": "MN", "County": "Le Sueur County,MN", "State": "Minnesota"}, "geometry": {"type": "Polygon", "coordinates": [[[-93.701593, 44.54201], [-93.526331, 44.54201], [-93.526331, 44.196962], [-93.679686, 44.196962], [-93.767317, 44.196962], [-94.013779, 44.240778], [-93.931625, 44.454379], [-93.909717, 44.54201], [-93.701593, 44.54201]]]}}, {"type": "Feature", "properties": {"name": "Chautauqua", "id": "36013", "FIPS": "36013", "FIPS State": 36, "ST": "NY", "County": "Chautauqua County,NY", "State": "New York"}, "geometry": {"type": "Polygon", "coordinates": [[[-79.138409, 42.570311], [-79.061732, 42.537449], [-79.061732, 42.000709], [-79.609426, 42.000709], [-79.76278, 42.252649], [-79.76278, 42.269079], [-79.138409, 42.570311], [-79.138409, 42.570311]]]}}, {"type": "Feature", "properties": {"name": "Lake", "id": "18089", "FIPS": "18089", "FIPS State": 18, "ST": "IN", "County": "Lake County,IN", "State": "Indiana"}, "geometry": {"type": "Polygon", "coordinates": [[[-87.222373, 41.6228], [-87.216896, 41.239415], [-87.277142, 41.217507], [-87.529082, 41.168214], [-87.529082, 41.299661], [-87.523605, 41.469446], [-87.523605, 41.710431], [-87.222373, 41.6228]]]}}, {"type": "Feature", "properties": {"name": "Vanderburgh", "id": "18163", "FIPS": "18163", "FIPS State": 18, "ST": "IN", "County": "Vanderburgh County,IN", "State": "Indiana"}, "geometry": {"type": "Polygon", "coordinates": [[[-87.687913, 38.166851], [-87.468835, 38.166851], [-87.452404, 37.942297], [-87.698867, 37.898481], [-87.687913, 38.166851]]]}}, {"type": "Feature", "properties": {"name": "Grafton", "id": "33009", "FIPS": "33009", "FIPS State": 33, "ST": "NH", "County": "Grafton County,NH", "State": "New Hampshire"}, "geometry": {"type": "Polygon", "coordinates": [[[-71.837647, 44.350317], [-71.766447, 44.405086], [-71.415923, 44.213393], [-71.530939, 43.764284], [-71.728109, 43.561637], [-71.81574, 43.545207], [-71.936232, 43.528776], [-72.330572, 43.599976], [-72.204602, 43.769761], [-72.040294, 44.153147], [-71.837647, 44.350317]]]}}, {"type": "Feature", "properties": {"name": "Wicomico", "id": "24045", "FIPS": "24045", "FIPS State": 24, "ST": "MD", "County": "Wicomico County,MD", "State": "Maryland"}, "geometry": {"type": "Polygon", "coordinates": [[[-75.813906, 38.489991], [-75.69889, 38.561191], [-75.342889, 38.451652], [-75.611259, 38.27639], [-75.62769, 38.281867], [-75.863199, 38.238051], [-75.923445, 38.265436], [-75.813906, 38.489991]]]}}, {"type": "Feature", "properties": {"name": "Gilmer", "id": "13123", "FIPS": "13123", "FIPS State": 13, "ST": "GA", "County": "Gilmer County,GA", "State": "Georgia"}, "geometry": {"type": "Polygon", "coordinates": [[[-84.620826, 34.853302], [-84.199102, 34.617794], [-84.346979, 34.563024], [-84.653688, 34.546593], [-84.653688, 34.584932], [-84.620826, 34.853302]]]}}, {"type": "Feature", "properties": {"name": "Kenosha", "id": "55059", "FIPS": "55059", "FIPS State": 55, "ST": "WI", "County": "Kenosha County,WI", "State": "Wisconsin"}, "geometry": {"type": "Polygon", "coordinates": [[[-88.027483, 42.668896], [-87.808406, 42.668896], [-87.802929, 42.493634], [-88.202745, 42.493634], [-88.219176, 42.493634], [-88.306807, 42.493634], [-88.306807, 42.60865], [-88.027483, 42.668896]]]}}, {"type": "Feature", "properties": {"name": "Sussex", "id": "34037", "FIPS": "34037", "FIPS State": 34, "ST": "NJ", "County": "Sussex County,NJ", "State": "New Jersey"}, "geometry": {"type": "Polygon", "coordinates": [[[-74.367994, 41.201076], [-74.504917, 41.08606], [-74.76781, 40.910798], [-74.96498, 41.091537], [-74.96498, 41.097014], [-74.992365, 41.091537], [-74.69661, 41.359907], [-74.367994, 41.201076]]]}}, {"type": "Feature", "properties": {"name": "Muscogee", "id": "13215", "FIPS": "13215", "FIPS State": 13, "ST": "GA", "County": "Muscogee County,GA", "State": "Georgia"}, "geometry": {"type": "Polygon", "coordinates": [[[-85.02612, 32.607757], [-84.692026, 32.585849], [-84.692026, 32.520126], [-84.982304, 32.372248], [-84.998735, 32.509172], [-85.080889, 32.607757], [-85.02612, 32.607757]]]}}, {"type": "Feature", "properties": {"name": "Rockingham", "id": "33015", "FIPS": "33015", "FIPS State": 33, "ST": "NH", "County": "Rockingham County,NH", "State": "New Hampshire"}, "geometry": {"type": "Polygon", "coordinates": [[[-71.246138, 43.276836], [-70.818936, 43.123482], [-70.703921, 43.057759], [-70.818936, 42.871543], [-70.917521, 42.887974], [-71.246138, 42.740096], [-71.394015, 43.008466], [-71.246138, 43.276836]]]}}, {"type": "Feature", "properties": {"name": "Putnam", "id": "36079", "FIPS": "36079", "FIPS State": 36, "ST": "NY", "County": "Putnam County,NY", "State": "New York"}, "geometry": {"type": "Polygon", "coordinates": [[[-73.530022, 41.529692], [-73.546453, 41.365384], [-73.661469, 41.35443], [-73.984608, 41.321569], [-73.979131, 41.327046], [-73.979131, 41.436584], [-73.530022, 41.529692]]]}}, {"type": "Feature", "properties": {"name": "Porter", "id": "18127", "FIPS": "18127", "FIPS State": 18, "ST": "IN", "County": "Porter County,IN", "State": "Indiana"}, "geometry": {"type": "Polygon", "coordinates": [[[-86.932095, 41.710431], [-86.932095, 41.239415], [-87.036157, 41.255845], [-87.216896, 41.239415], [-87.222373, 41.6228], [-86.932095, 41.710431]]]}}, {"type": "Feature", "properties": {"name": "Atlantic", "id": "34001", "FIPS": "34001", "FIPS State": 34, "ST": "NJ", "County": "Atlantic County,NJ", "State": "New Jersey"}, "geometry": {"type": "Polygon", "coordinates": [[[-74.734949, 39.727779], [-74.417286, 39.557994], [-74.313224, 39.497748], [-74.548733, 39.295101], [-74.860918, 39.322485], [-74.986888, 39.514178], [-74.877349, 39.607286], [-74.734949, 39.727779]]]}}, {"type": "Feature", "properties": {"name": "Stanislaus", "id": "06099", "FIPS": "06099", "FIPS State": 6, "ST": "CA", "County": "Stanislaus County,CA", "State": "California"}, "geometry": {"type": "Polygon", "coordinates": [[[-120.921987, 37.805373], [-120.927464, 38.07922], [-120.653617, 37.832758], [-120.385247, 37.635588], [-120.385247, 37.635588], [-121.228696, 37.137186], [-121.475158, 37.482234], [-121.469681, 37.482234], [-120.921987, 37.805373]]]}}, {"type": "Feature", "properties": {"name": "Lafayette", "id": "22055", "FIPS": "22055", "FIPS State": 22, "ST": "LA", "County": "Lafayette County,LA", "State": "Louisiana"}, "geometry": {"type": "Polygon", "coordinates": [[[-92.053034, 30.378642], [-91.987311, 30.367688], [-91.948972, 30.071933], [-91.965403, 30.033595], [-92.250204, 30.143133], [-92.283066, 30.14861], [-92.140665, 30.296488], [-92.053034, 30.378642]]]}}, {"type": "Feature", "properties": {"name": "Scott", "id": "19163", "FIPS": "19163", "FIPS State": 19, "ST": "IA", "County": "Scott County,IA", "State": "Iowa"}, "geometry": {"type": "Polygon", "coordinates": [[[-90.798815, 41.770678], [-90.316844, 41.726862], [-90.787861, 41.453015], [-90.8974, 41.595416], [-90.8974, 41.770678], [-90.798815, 41.770678]]]}}, {"type": "Feature", "properties": {"name": "Duval", "id": "12031", "FIPS": "12031", "FIPS State": 12, "ST": "FL", "County": "Duval County,FL", "State": "Florida"}, "geometry": {"type": "Polygon", "coordinates": [[[-81.608509, 30.586766], [-81.444201, 30.510088], [-81.378478, 30.252672], [-81.389431, 30.252672], [-81.679709, 30.121226], [-81.701617, 30.192426], [-82.052141, 30.186949], [-82.046664, 30.27458], [-81.608509, 30.586766]]]}}, {"type": "Feature", "properties": {"name": "Geauga", "id": "39055", "FIPS": "39055", "FIPS State": 39, "ST": "OH", "County": "Geauga County,OH", "State": "Ohio"}, "geometry": {"type": "Polygon", "coordinates": [[[-81.006046, 41.715908], [-81.000569, 41.502308], [-81.000569, 41.348953], [-81.389431, 41.348953], [-81.389431, 41.568031], [-81.006046, 41.715908]]]}}, {"type": "Feature", "properties": {"name": "Leon", "id": "12073", "FIPS": "12073", "FIPS State": 12, "ST": "FL", "County": "Leon County,FL", "State": "Florida"}, "geometry": {"type": "Polygon", "coordinates": [[[-84.084086, 30.674397], [-84.007409, 30.674397], [-84.073132, 30.27458], [-84.303164, 30.301965], [-84.713934, 30.301965], [-84.648211, 30.389596], [-84.281256, 30.685351], [-84.084086, 30.674397]]]}}, {"type": "Feature", "properties": {"name": "Lee", "id": "12071", "FIPS": "12071", "FIPS State": 12, "ST": "FL", "County": "Lee County,FL", "State": "Florida"}, "geometry": {"type": "Polygon", "coordinates": [[[-82.063095, 26.769338], [-81.564693, 26.769338], [-81.564693, 26.511922], [-81.844017, 26.331183], [-82.063095, 26.769338]]]}}, {"type": "Feature", "properties": {"name": "Lorain", "id": "39093", "FIPS": "39093", "FIPS State": 39, "ST": "OH", "County": "Lorain County,OH", "State": "Ohio"}, "geometry": {"type": "Polygon", "coordinates": [[[-81.969987, 41.507785], [-81.876879, 41.277753], [-82.172634, 41.064153], [-82.336942, 41.064153], [-82.342419, 41.28323], [-82.347896, 41.431108], [-81.969987, 41.507785]]]}}, {"type": "Feature", "properties": {"name": "Douglas", "id": "08035", "FIPS": "08035", "FIPS State": 8, "ST": "CO", "County": "Douglas County,CO", "State": "Colorado"}, "geometry": {"type": "Polygon", "coordinates": [[[-104.989567, 39.568948], [-104.660951, 39.563471], [-104.660951, 39.130793], [-104.995044, 39.130793], [-105.033383, 39.130793], [-105.329138, 39.130793], [-105.049814, 39.563471], [-104.989567, 39.568948]]]}}, {"type": "Feature", "properties": {"name": "Collier", "id": "12021", "FIPS": "12021", "FIPS State": 12, "ST": "FL", "County": "Collier County,FL", "State": "Florida"}, "geometry": {"type": "Polygon", "coordinates": [[[-81.564693, 26.511922], [-80.880076, 26.259983], [-80.874599, 25.980659], [-80.874599, 25.805397], [-81.345616, 25.805397], [-81.679709, 25.843735], [-81.844017, 26.331183], [-81.564693, 26.511922]]]}}, {"type": "Feature", "properties": {"name": "Cameron", "id": "48061", "FIPS": "48061", "FIPS State": 48, "ST": "TX", "County": "Cameron County,TX", "State": "Texas"}, "geometry": {"type": "Polygon", "coordinates": [[[-97.864068, 26.347614], [-97.382097, 26.413337], [-97.371143, 25.838258], [-97.864068, 26.051859], [-97.864068, 26.347614]]]}}, {"type": "Feature", "properties": {"name": "Fresno", "id": "06019", "FIPS": "06019", "FIPS State": 6, "ST": "CA", "County": "Fresno County,CA", "State": "California"}, "geometry": {"type": "Polygon", "coordinates": [[[-119.021489, 37.586295], [-118.775026, 37.460326], [-118.358779, 36.742847], [-118.98315, 36.742847], [-119.57466, 36.490907], [-119.958045, 36.403276], [-120.314047, 35.904875], [-120.681002, 36.266353], [-120.91651, 36.742847], [-120.544078, 37.044078], [-120.281185, 36.764754], [-119.821122, 36.846908], [-119.021489, 37.586295]]]}}, {"type": "Feature", "properties": {"name": "Monterey", "id": "06053", "FIPS": "06053", "FIPS State": 6, "ST": "CA", "County": "Monterey County,CA", "State": "California"}, "geometry": {"type": "Polygon", "coordinates": [[[-121.699712, 36.918109], [-121.644943, 36.896201], [-121.31085, 36.501861], [-120.681002, 36.266353], [-120.314047, 35.904875], [-120.215462, 35.789859], [-121.343711, 35.795336], [-121.896882, 36.315645], [-121.809251, 36.852385], [-121.699712, 36.918109]]]}}, {"type": "Feature", "properties": {"name": "Bay", "id": "12005", "FIPS": "12005", "FIPS State": 12, "ST": "FL", "County": "Bay County,FL", "State": "Florida"}, "geometry": {"type": "Polygon", "coordinates": [[[-85.382121, 30.564858], [-85.387598, 30.20338], [-85.387598, 29.924056], [-85.995538, 30.269103], [-85.990061, 30.389596], [-85.43689, 30.570335], [-85.382121, 30.564858]]]}}, {"type": "Feature", "properties": {"name": "El Paso", "id": "48141", "FIPS": "48141", "FIPS State": 48, "ST": "TX", "County": "El Paso County,TX", "State": "Texas"}, "geometry": {"type": "Polygon", "coordinates": [[[-105.997324, 31.999816], [-105.997324, 31.386399], [-106.528588, 31.786216], [-106.375233, 31.999816], [-105.997324, 31.999816]]]}}, {"type": "Feature", "properties": {"name": "Gregg", "id": "48183", "FIPS": "48183", "FIPS State": 48, "ST": "TX", "County": "Gregg County,TX", "State": "Texas"}, "geometry": {"type": "Polygon", "coordinates": [[[-94.703873, 32.651572], [-94.577904, 32.394156], [-94.988674, 32.366771], [-94.988674, 32.536556], [-94.703873, 32.651572]]]}}, {"type": "Feature", "properties": {"name": "Waukesha", "id": "55133", "FIPS": "55133", "FIPS State": 55, "ST": "WI", "County": "Waukesha County,WI", "State": "Wisconsin"}, "geometry": {"type": "Polygon", "coordinates": [[[-88.536839, 43.194682], [-88.416346, 43.194682], [-88.065822, 43.194682], [-88.071299, 42.844158], [-88.306807, 42.844158], [-88.542316, 42.844158], [-88.536839, 43.194682]]]}}, {"type": "Feature", "properties": {"name": "Fayette", "id": "18041", "FIPS": "18041", "FIPS State": 18, "ST": "IN", "County": "Fayette County,IN", "State": "Indiana"}, "geometry": {"type": "Polygon", "coordinates": [[[-85.22329, 39.788025], [-85.037074, 39.716825], [-85.037074, 39.525132], [-85.23972, 39.525132], [-85.299967, 39.525132], [-85.299967, 39.788025], [-85.22329, 39.788025]]]}}, {"type": "Feature", "properties": {"name": "Hamilton", "id": "18057", "FIPS": "18057", "FIPS State": 18, "ST": "IN", "County": "Hamilton County,IN", "State": "Indiana"}, "geometry": {"type": "Polygon", "coordinates": [[[-85.875046, 40.220704], [-85.864092, 40.220704], [-85.864092, 39.94138], [-85.935292, 39.924949], [-86.110554, 39.924949], [-86.242001, 39.924949], [-86.242001, 40.182365], [-86.242001, 40.215227], [-85.875046, 40.220704]]]}}, {"type": "Feature", "properties": {"name": "El Dorado", "id": "06017", "FIPS": "06017", "FIPS State": 6, "ST": "CA", "County": "El Dorado County,CA", "State": "California"}, "geometry": {"type": "Polygon", "coordinates": [[[-120.001861, 39.065069], [-119.903276, 38.933623], [-120.073061, 38.703591], [-121.026049, 38.506421], [-121.141065, 38.714545], [-121.04248, 38.917192], [-120.001861, 39.065069]]]}}, {"type": "Feature", "properties": {"name": "Mobile", "id": "01097", "FIPS": "01097", "FIPS State": 1, "ST": "AL", "County": "Mobile County,AL", "State": "Alabama"}, "geometry": {"type": "Polygon", "coordinates": [[[-87.972714, 31.161844], [-88.005575, 30.685351], [-88.394438, 30.367688], [-88.410869, 30.734643], [-88.4273, 30.997536], [-88.432777, 31.112552], [-87.972714, 31.161844]]]}}, {"type": "Feature", "properties": {"name": "Plymouth", "id": "25023", "FIPS": "25023", "FIPS State": 25, "ST": "MA", "County": "Plymouth County,MA", "State": "Massachusetts"}, "geometry": {"type": "Polygon", "coordinates": [[[-70.901091, 42.269079], [-70.906568, 42.269079], [-70.824413, 42.263602], [-70.780598, 42.252649], [-70.539613, 41.809016], [-70.643674, 41.715908], [-70.840844, 41.628277], [-71.08183, 42.093817], [-70.901091, 42.269079]]]}}]}