{"type": "FeatureCollection", "crs": {"type": "name", "properties": {"name": "urn:ogc:def:crs:OGC:1.3:CRS84"}}, "features": [{"type": "Feature", "properties": {"name": "West Feliciana", "id": "22125", "FIPS": "22125", "FIPS State": 22, "ST": "LA", "County": "West Feliciana County,LA", "State": "Louisiana"}, "geometry": {"type": "MultiPolygon", "coordinates": [[[[-91.724418, 31.046829], [-91.658695, 30.992059], [-91.751803, 31.019444], [-91.724418, 31.046829]]], [[[-91.636787, 30.997536], [-91.176724, 30.997536], [-91.302693, 30.652489], [-91.330078, 30.657966], [-91.664172, 30.970151], [-91.636787, 30.997536]]]]}}, {"type": "Feature", "properties": {"name": "York", "id": "23031", "FIPS": "23031", "FIPS State": 23, "ST": "ME", "County": "York County,ME", "State": "Maine"}, "geometry": {"type": "Polygon", "coordinates": [[[-70.780598, 43.813577], [-70.353397, 43.534253], [-70.703921, 43.057759], [-70.818936, 43.123482], [-70.961337, 43.53973], [-70.988722, 43.791669], [-70.780598, 43.813577]]]}}, {"type": "Feature", "properties": {"name": "Bullitt", "id": "21029", "FIPS": "21029", "FIPS State": 21, "ST": "KY", "County": "Bullitt County,KY", "State": "Kentucky"}, "geometry": {"type": "Polygon", "coordinates": [[[-85.699783, 38.084697], [-85.431413, 38.117559], [-85.49166, 37.991589], [-85.497137, 37.986112], [-85.738122, 37.81085], [-85.940769, 37.997066], [-85.699783, 38.084697]]]}}, {"type": "Feature", "properties": {"name": "Fillmore", "id": "27045", "FIPS": "27045", "FIPS State": 27, "ST": "MN", "County": "Fillmore County,MN", "State": "Minnesota"}, "geometry": {"type": "Polygon", "coordinates": [[[-92.381651, 43.846438], [-92.080419, 43.846438], [-91.729895, 43.846438], [-91.729895, 43.501391], [-91.850387, 43.501391], [-92.080419, 43.501391], [-92.447374, 43.501391], [-92.447374, 43.835484], [-92.381651, 43.846438]]]}}, {"type": "Feature", "properties": {"name": "Goodhue", "id": "27049", "FIPS": "27049", "FIPS State": 27, "ST": "MN", "County": "Goodhue County,MN", "State": "Minnesota"}, "geometry": {"type": "Polygon", "coordinates": [[[-92.732175, 44.711795], [-92.315927, 44.54201], [-92.244727, 44.454379], [-92.430943, 44.454379], [-92.551436, 44.196962], [-92.666452, 44.196962], [-92.677405, 44.196962], [-92.918391, 44.196962], [-93.038884, 44.196962], [-93.038884, 44.470809], [-92.732175, 44.711795]]]}}, {"type": "Feature", "properties": {"name": "Lincoln", "id": "41041", "FIPS": "41041", "FIPS State": 41, "ST": "OR", "County": "Lincoln County,OR", "State": "Oregon"}, "geometry": {"type": "Polygon", "coordinates": [[[-124.000027, 45.045888], [-123.72618, 45.045888], [-123.600211, 44.722749], [-123.775473, 44.284593], [-124.010981, 44.279117], [-124.115043, 44.27364], [-124.005504, 45.045888], [-124.000027, 45.045888]]]}}, {"type": "Feature", "properties": {"name": "Burleigh", "id": "38015", "FIPS": "38015", "FIPS State": 38, "ST": "ND", "County": "Burleigh County,ND", "State": "North Dakota"}, "geometry": {"type": "Polygon", "coordinates": [[[-100.608015, 47.329772], [-100.115091, 47.329772], [-100.082229, 46.634201], [-100.586107, 46.634201], [-100.662785, 46.634201], [-100.936632, 46.984725], [-100.964016, 47.15451], [-100.673738, 47.329772], [-100.608015, 47.329772]]]}}, {"type": "Feature", "properties": {"name": "Mercer", "id": "34021", "FIPS": "34021", "FIPS State": 34, "ST": "NJ", "County": "Mercer County,NJ", "State": "New Jersey"}, "geometry": {"type": "Polygon", "coordinates": [[[-74.800672, 40.417874], [-74.745903, 40.423351], [-74.619933, 40.374058], [-74.48301, 40.253565], [-74.587071, 40.13855], [-74.702087, 40.182365], [-74.723995, 40.149503], [-74.943073, 40.341196], [-74.800672, 40.417874]]]}}, {"type": "Feature", "properties": {"name": "Wilson", "id": "37195", "FIPS": "37195", "FIPS State": 37, "ST": "NC", "County": "Wilson County,NC", "State": "North Carolina"}, "geometry": {"type": "Polygon", "coordinates": [[[-77.82942, 35.866536], [-77.659635, 35.674843], [-77.697974, 35.652935], [-77.823943, 35.570781], [-78.064929, 35.587212], [-78.190898, 35.729613], [-77.82942, 35.866536], [-77.82942, 35.866536]]]}}, {"type": "Feature", "properties": {"name": "Monmouth", "id": "34025", "FIPS": "34025", "FIPS State": 34, "ST": "NJ", "County": "Monmouth County,NJ", "State": "New Jersey"}, "geometry": {"type": "Polygon", "coordinates": [[[-74.0339, 40.100211], [-74.406332, 40.171411], [-74.55421, 40.078303], [-74.587071, 40.13855], [-74.48301, 40.253565], [-74.225593, 40.450735], [-74.0339, 40.100211]]]}}, {"type": "Feature", "properties": {"name": "Robeson", "id": "37155", "FIPS": "37155", "FIPS State": 37, "ST": "NC", "County": "Robeson County,NC", "State": "North Carolina"}, "geometry": {"type": "Polygon", "coordinates": [[[-79.034347, 34.951887], [-78.9029, 34.836871], [-78.870039, 34.48087], [-79.072686, 34.300131], [-79.450595, 34.623271], [-79.461548, 34.628748], [-79.346533, 34.836871], [-79.034347, 34.951887]]]}}, {"type": "Feature", "properties": {"name": "Nash", "id": "37127", "FIPS": "37127", "FIPS State": 37, "ST": "NC", "County": "Nash County,NC", "State": "North Carolina"}, "geometry": {"type": "Polygon", "coordinates": [[[-78.053975, 36.134906], [-78.004682, 36.200629], [-77.697974, 36.151337], [-77.82942, 35.866536], [-78.190898, 35.729613], [-78.256622, 35.817244], [-78.053975, 36.134906]]]}}, {"type": "Feature", "properties": {"name": "Johnston", "id": "37101", "FIPS": "37101", "FIPS State": 37, "ST": "NC", "County": "Johnston County,NC", "State": "North Carolina"}, "geometry": {"type": "Polygon", "coordinates": [[[-78.256622, 35.817244], [-78.190898, 35.729613], [-78.064929, 35.587212], [-78.305914, 35.28598], [-78.541422, 35.313365], [-78.711208, 35.521489], [-78.256622, 35.817244]]]}}, {"type": "Feature", "properties": {"name": "Jackson", "id": "37099", "FIPS": "37099", "FIPS State": 37, "ST": "NC", "County": "Jackson County,NC", "State": "North Carolina"}, "geometry": {"type": "Polygon", "coordinates": [[[-83.207776, 35.516012], [-83.185868, 35.516012], [-82.922975, 35.291457], [-83.010606, 35.028564], [-83.109191, 35.00118], [-83.339222, 35.329796], [-83.207776, 35.516012]]]}}, {"type": "Feature", "properties": {"name": "Iredell", "id": "37097", "FIPS": "37097", "FIPS State": 37, "ST": "NC", "County": "Iredell County,NC", "State": "North Carolina"}, "geometry": {"type": "Polygon", "coordinates": [[[-80.880076, 36.058229], [-80.69386, 36.052752], [-80.710291, 35.850105], [-80.737675, 35.505058], [-80.781491, 35.505058], [-80.907461, 35.516012], [-80.945799, 35.488627], [-80.96223, 35.548874], [-81.110107, 35.778905], [-81.027953, 36.047275], [-80.880076, 36.058229]]]}}, {"type": "Feature", "properties": {"name": "Greene", "id": "37079", "FIPS": "37079", "FIPS State": 37, "ST": "NC", "County": "Greene County,NC", "State": "North Carolina"}, "geometry": {"type": "Polygon", "coordinates": [[[-77.681543, 35.636505], [-77.473419, 35.428381], [-77.807512, 35.368135], [-77.823943, 35.570781], [-77.697974, 35.652935], [-77.681543, 35.636505]]]}}, {"type": "Feature", "properties": {"name": "Warren", "id": "34041", "FIPS": "34041", "FIPS State": 34, "ST": "NJ", "County": "Warren County,NJ", "State": "New Jersey"}, "geometry": {"type": "Polygon", "coordinates": [[[-74.96498, 41.091537], [-74.76781, 40.910798], [-74.888303, 40.790306], [-75.189535, 40.593136], [-75.195012, 40.609566], [-75.118335, 40.965568], [-74.96498, 41.097014], [-74.96498, 41.091537]]]}}, {"type": "Feature", "properties": {"name": "Gates", "id": "37073", "FIPS": "37073", "FIPS State": 37, "ST": "NC", "County": "Gates County,NC", "State": "North Carolina"}, "geometry": {"type": "Polygon", "coordinates": [[[-76.914771, 36.551154], [-76.542339, 36.551154], [-76.493047, 36.512815], [-76.454708, 36.375892], [-76.55877, 36.353984], [-76.695693, 36.293737], [-76.914771, 36.545677], [-76.914771, 36.551154]]]}}, {"type": "Feature", "properties": {"name": "Cass", "id": "38017", "FIPS": "38017", "FIPS State": 38, "ST": "ND", "County": "Cass County,ND", "State": "North Dakota"}, "geometry": {"type": "Polygon", "coordinates": [[[-97.453297, 47.236664], [-96.834403, 47.236664], [-96.828926, 47.149033], [-96.790588, 46.628724], [-97.278035, 46.628724], [-97.683329, 46.628724], [-97.705237, 47.242141], [-97.453297, 47.236664]]]}}, {"type": "Feature", "properties": {"name": "Dona Ana", "id": "35013", "FIPS": "35013", "FIPS State": 35, "ST": "NM", "County": "Dona Ana County,NM", "State": "New Mexico"}, "geometry": {"type": "Polygon", "coordinates": [[[-106.342372, 33.051389], [-106.375233, 31.999816], [-106.528588, 31.786216], [-107.295359, 31.786216], [-107.300836, 32.607757], [-107.300836, 32.777542], [-106.342372, 33.051389]]]}}, {"type": "Feature", "properties": {"name": "Santa Fe", "id": "35049", "FIPS": "35049", "FIPS State": 35, "ST": "NM", "County": "Santa Fe County,NM", "State": "New Mexico"}, "geometry": {"type": "Polygon", "coordinates": [[[-106.068525, 35.997983], [-105.718001, 35.976075], [-105.718001, 35.872013], [-105.712524, 35.039518], [-106.243787, 35.039518], [-106.243787, 35.21478], [-106.249264, 35.756997], [-106.249264, 35.839151], [-106.249264, 35.855582], [-106.243787, 35.932259], [-106.068525, 35.997983]]]}}, {"type": "Feature", "properties": {"name": "Durham", "id": "37063", "FIPS": "37063", "FIPS State": 37, "ST": "NC", "County": "Durham County,NC", "State": "North Carolina"}, "geometry": {"type": "Polygon", "coordinates": [[[-78.952193, 36.238968], [-78.804316, 36.233491], [-78.749546, 36.069183], [-78.908377, 35.866536], [-79.017916, 35.861059], [-78.952193, 36.238968]]]}}, {"type": "Feature", "properties": {"name": "Broome", "id": "36007", "FIPS": "36007", "FIPS State": 36, "ST": "NY", "County": "Broome County,NY", "State": "New York"}, "geometry": {"type": "Polygon", "coordinates": [[[-75.863199, 42.416957], [-75.419566, 42.192402], [-75.35932, 42.000709], [-75.479813, 42.000709], [-75.48529, 42.000709], [-75.890583, 42.000709], [-76.104184, 42.000709], [-76.131569, 42.41148], [-75.863199, 42.416957]]]}}, {"type": "Feature", "properties": {"name": "Craven", "id": "37049", "FIPS": "37049", "FIPS State": 37, "ST": "NC", "County": "Craven County,NC", "State": "North Carolina"}, "geometry": {"type": "Polygon", "coordinates": [[[-77.188618, 35.417427], [-76.89834, 35.253119], [-76.712124, 34.979272], [-77.090033, 34.80401], [-77.473419, 35.231211], [-77.391265, 35.34075], [-77.188618, 35.417427]]]}}, {"type": "Feature", "properties": {"name": "Columbia", "id": "36021", "FIPS": "36021", "FIPS State": 36, "ST": "NY", "County": "Columbia County,NY", "State": "New York"}, "geometry": {"type": "Polygon", "coordinates": [[[-73.398575, 42.504588], [-73.35476, 42.510065], [-73.49716, 42.050002], [-73.929839, 42.077386], [-73.913408, 42.126679], [-73.781961, 42.466249], [-73.398575, 42.504588]]]}}, {"type": "Feature", "properties": {"name": "Catawba", "id": "37035", "FIPS": "37035", "FIPS State": 37, "ST": "NC", "County": "Catawba County,NC", "State": "North Carolina"}, "geometry": {"type": "Polygon", "coordinates": [[[-81.192262, 35.822721], [-81.110107, 35.778905], [-80.96223, 35.548874], [-81.488016, 35.570781], [-81.531832, 35.570781], [-81.362047, 35.767951], [-81.334662, 35.795336], [-81.192262, 35.822721]]]}}, {"type": "Feature", "properties": {"name": "Wayne", "id": "36117", "FIPS": "36117", "FIPS State": 36, "ST": "NY", "County": "Wayne County,NY", "State": "New York"}, "geometry": {"type": "Polygon", "coordinates": [[[-76.723078, 43.34256], [-76.712124, 43.024897], [-76.964064, 43.013943], [-77.122895, 43.013943], [-77.369357, 43.035851], [-77.374834, 43.276836], [-76.723078, 43.34256]]]}}, {"type": "Feature", "properties": {"name": "Fulton", "id": "36035", "FIPS": "36035", "FIPS State": 36, "ST": "NY", "County": "Fulton County,NY", "State": "New York"}, "geometry": {"type": "Polygon", "coordinates": [[[-74.713041, 43.28779], [-74.137962, 43.254929], [-74.099624, 42.981082], [-74.581595, 42.997512], [-74.762334, 43.046805], [-74.713041, 43.28779]]]}}]}