{"type": "FeatureCollection", "crs": {"type": "name", "properties": {"name": "urn:ogc:def:crs:OGC:1.3:CRS84"}}, "features": [{"type": "Feature", "properties": {"name": "Floyd", "id": "18043", "FIPS": "18043", "FIPS State": 18, "ST": "IN", "County": "Floyd County,IN", "State": "Indiana"}, "geometry": {"type": "Polygon", "coordinates": [[[-86.011969, 38.41879], [-85.995538, 38.41879], [-85.792891, 38.287344], [-85.90243, 38.177805], [-86.033877, 38.41879], [-86.011969, 38.41879]]]}}, {"type": "Feature", "properties": {"name": "Yankton", "id": "46135", "FIPS": "46135", "FIPS State": 46, "ST": "SD", "County": "Yankton County,SD", "State": "South Dakota"}, "geometry": {"type": "Polygon", "coordinates": [[[-97.343759, 43.167298], [-97.157543, 43.085144], [-97.16302, 42.800343], [-97.486159, 42.849635], [-97.634037, 42.849635], [-97.639513, 43.167298], [-97.398528, 43.167298], [-97.343759, 43.167298]]]}}, {"type": "Feature", "properties": {"name": "Jefferson", "id": "18077", "FIPS": "18077", "FIPS State": 18, "ST": "IN", "County": "Jefferson County,IN", "State": "Indiana"}, "geometry": {"type": "Polygon", "coordinates": [[[-85.299967, 38.911715], [-85.201382, 38.911715], [-85.201382, 38.692637], [-85.332828, 38.736453], [-85.425936, 38.588575], [-85.568337, 38.605006], [-85.683353, 38.81313], [-85.442367, 38.911715], [-85.299967, 38.911715]]]}}, {"type": "Feature", "properties": {"name": "Pennington", "id": "46103", "FIPS": "46103", "FIPS State": 46, "ST": "SD", "County": "Pennington County,SD", "State": "South Dakota"}, "geometry": {"type": "Polygon", "coordinates": [[[-102.119651, 44.437948], [-101.999158, 44.509148], [-102.004635, 43.994316], [-102.141558, 43.698561], [-102.256574, 43.687607], [-102.809745, 43.687607], [-103.417686, 43.857392], [-104.053011, 43.851915], [-104.053011, 44.142193], [-103.450547, 44.142193], [-102.388021, 44.142193], [-102.119651, 44.437948]]]}}, {"type": "Feature", "properties": {"name": "Rock", "id": "55105", "FIPS": "55105", "FIPS State": 55, "ST": "WI", "County": "Rock County,WI", "State": "Wisconsin"}, "geometry": {"type": "Polygon", "coordinates": [[[-89.051671, 42.849635], [-89.013332, 42.849635], [-88.777824, 42.844158], [-88.777824, 42.493634], [-88.942132, 42.493634], [-89.363857, 42.499111], [-89.369334, 42.844158], [-89.051671, 42.849635]]]}}, {"type": "Feature", "properties": {"name": "Knox", "id": "17095", "FIPS": "17095", "FIPS State": 17, "ST": "IL", "County": "Knox County,IL", "State": "Illinois"}, "geometry": {"type": "Polygon", "coordinates": [[[-90.207305, 41.151784], [-89.982751, 41.151784], [-89.988228, 40.976521], [-89.988228, 40.713628], [-90.442814, 40.713628], [-90.437337, 41.064153], [-90.437337, 41.151784], [-90.207305, 41.151784]]]}}, {"type": "Feature", "properties": {"name": "Muscogee", "id": "13215", "FIPS": "13215", "FIPS State": 13, "ST": "GA", "County": "Muscogee County,GA", "State": "Georgia"}, "geometry": {"type": "Polygon", "coordinates": [[[-85.02612, 32.607757], [-84.692026, 32.585849], [-84.692026, 32.520126], [-84.982304, 32.372248], [-84.998735, 32.509172], [-85.080889, 32.607757], [-85.02612, 32.607757]]]}}, {"type": "Feature", "properties": {"name": "Whitfield", "id": "13313", "FIPS": "13313", "FIPS State": 13, "ST": "GA", "County": "Whitfield County,GA", "State": "Georgia"}, "geometry": {"type": "Polygon", "coordinates": [[[-84.976827, 34.990226], [-84.812519, 34.990226], [-84.916581, 34.634225], [-85.048028, 34.623271], [-85.146612, 34.765671], [-84.982304, 34.990226], [-84.976827, 34.990226]]]}}, {"type": "Feature", "properties": {"name": "Shelby", "id": "01117", "FIPS": "01117", "FIPS State": 1, "ST": "AL", "County": "Shelby County,AL", "State": "Alabama"}, "geometry": {"type": "Polygon", "coordinates": [[[-86.515848, 33.544313], [-86.378924, 33.390959], [-86.488463, 33.100681], [-86.515848, 33.018527], [-86.882803, 33.051389], [-87.025203, 33.248559], [-86.515848, 33.544313]]]}}, {"type": "Feature", "properties": {"name": "Bell", "id": "48027", "FIPS": "48027", "FIPS State": 48, "ST": "TX", "County": "Bell County,TX", "State": "Texas"}, "geometry": {"type": "Polygon", "coordinates": [[[-97.404005, 31.304245], [-97.278035, 31.282337], [-97.069912, 30.986582], [-97.316374, 30.751074], [-97.831206, 30.904428], [-97.91336, 31.035875], [-97.907884, 31.068736], [-97.420436, 31.320676], [-97.404005, 31.304245]]]}}, {"type": "Feature", "properties": {"name": "Pasco", "id": "12101", "FIPS": "12101", "FIPS State": 12, "ST": "FL", "County": "Pasco County,FL", "State": "Florida"}, "geometry": {"type": "Polygon", "coordinates": [[[-82.254788, 28.478144], [-82.057618, 28.478144], [-82.057618, 28.313835], [-82.106911, 28.171435], [-82.649128, 28.171435], [-82.802482, 28.171435], [-82.676512, 28.434328], [-82.254788, 28.478144]]]}}, {"type": "Feature", "properties": {"name": "Williamson", "id": "47187", "FIPS": "47187", "FIPS State": 47, "ST": "TN", "County": "Williamson County,TN", "State": "Tennessee"}, "geometry": {"type": "Polygon", "coordinates": [[[-86.921141, 36.052752], [-86.619909, 35.970598], [-86.685633, 35.707705], [-86.784218, 35.707705], [-87.216896, 35.850105], [-87.205942, 35.959644], [-87.184034, 36.047275], [-87.052588, 36.047275], [-86.921141, 36.052752]]]}}, {"type": "Feature", "properties": {"name": "Washington", "id": "47179", "FIPS": "47179", "FIPS State": 47, "ST": "TN", "County": "Washington County,TN", "State": "Tennessee"}, "geometry": {"type": "Polygon", "coordinates": [[[-82.473866, 36.441615], [-82.298603, 36.397799], [-82.342419, 36.255399], [-82.594358, 36.096568], [-82.632697, 36.419707], [-82.703897, 36.408753], [-82.681989, 36.430661], [-82.473866, 36.441615]]]}}, {"type": "Feature", "properties": {"name": "Coconino", "id": "04005", "FIPS": "04005", "FIPS State": 4, "ST": "AZ", "County": "Coconino County,AZ", "State": "Arizona"}, "geometry": {"type": "Polygon", "coordinates": [[[-110.751309, 37.00574], [-110.751309, 34.261793], [-111.556419, 34.469916], [-111.775497, 34.979272], [-112.334144, 34.973795], [-112.438206, 35.258596], [-113.336425, 35.526966], [-113.352855, 36.047275], [-112.629899, 36.392322], [-112.542268, 37.000263], [-111.414018, 37.000263], [-110.751309, 37.00574]]]}}, {"type": "Feature", "properties": {"name": "Warren", "id": "47177", "FIPS": "47177", "FIPS State": 47, "ST": "TN", "County": "Warren County,TN", "State": "Tennessee"}, "geometry": {"type": "Polygon", "coordinates": [[[-85.683353, 35.833674], [-85.601199, 35.795336], [-85.557383, 35.532443], [-85.606675, 35.532443], [-85.875046, 35.521489], [-85.984584, 35.658412], [-85.885999, 35.839151], [-85.683353, 35.833674]]]}}, {"type": "Feature", "properties": {"name": "Sarasota", "id": "12115", "FIPS": "12115", "FIPS State": 12, "ST": "FL", "County": "Sarasota County,FL", "State": "Florida"}, "geometry": {"type": "Polygon", "coordinates": [[[-82.62722, 27.388232], [-82.057618, 27.207493], [-82.057618, 27.032231], [-82.375281, 26.9446], [-82.643651, 27.388232], [-82.62722, 27.388232]]]}}, {"type": "Feature", "properties": {"name": "Seminole", "id": "12117", "FIPS": "12117", "FIPS State": 12, "ST": "FL", "County": "Seminole County,FL", "State": "Florida"}, "geometry": {"type": "Polygon", "coordinates": [[[-81.411339, 28.784852], [-81.367524, 28.87796], [-80.989615, 28.615067], [-81.411339, 28.784852]]]}}, {"type": "Feature", "properties": {"name": "Mobile", "id": "01097", "FIPS": "01097", "FIPS State": 1, "ST": "AL", "County": "Mobile County,AL", "State": "Alabama"}, "geometry": {"type": "Polygon", "coordinates": [[[-87.972714, 31.161844], [-88.005575, 30.685351], [-88.394438, 30.367688], [-88.410869, 30.734643], [-88.4273, 30.997536], [-88.432777, 31.112552], [-87.972714, 31.161844]]]}}, {"type": "Feature", "properties": {"name": "Volusia", "id": "12127", "FIPS": "12127", "FIPS State": 12, "ST": "FL", "County": "Volusia County,FL", "State": "Florida"}, "geometry": {"type": "Polygon", "coordinates": [[[-81.110107, 29.425654], [-81.10463, 29.425654], [-80.732199, 28.790329], [-80.989615, 28.615067], [-81.367524, 28.87796], [-81.641371, 29.277777], [-81.679709, 29.327069], [-81.433247, 29.39827], [-81.110107, 29.425654]]]}}, {"type": "Feature", "properties": {"name": "Bibb", "id": "13021", "FIPS": "13021", "FIPS State": 13, "ST": "GA", "County": "Bibb County,GA", "State": "Georgia"}, "geometry": {"type": "Polygon", "coordinates": [[[-83.722608, 32.952804], [-83.711654, 32.952804], [-83.514484, 32.843265], [-83.596638, 32.662526], [-83.7007, 32.689911], [-83.892393, 32.848742], [-83.722608, 32.952804]]]}}, {"type": "Feature", "properties": {"name": "Berkeley", "id": "54003", "FIPS": "54003", "FIPS State": 54, "ST": "WV", "County": "Berkeley County,WV", "State": "West Virginia"}, "geometry": {"type": "Polygon", "coordinates": [[[-78.021113, 39.61824], [-77.823943, 39.492271], [-77.823943, 39.492271], [-78.032067, 39.262239], [-78.229237, 39.393686], [-78.021113, 39.61824]]]}}, {"type": "Feature", "properties": {"name": "Carroll", "id": "13045", "FIPS": "13045", "FIPS State": 13, "ST": "GA", "County": "Carroll County,GA", "State": "Georgia"}, "geometry": {"type": "Polygon", "coordinates": [[[-85.037074, 33.812683], [-84.90015, 33.779822], [-84.807042, 33.571698], [-84.850858, 33.511452], [-85.015166, 33.423821], [-85.29449, 33.429298], [-85.305444, 33.484067], [-85.338305, 33.653852], [-85.037074, 33.812683]]]}}, {"type": "Feature", "properties": {"name": "Cherokee", "id": "13057", "FIPS": "13057", "FIPS State": 13, "ST": "GA", "County": "Cherokee County,GA", "State": "Georgia"}, "geometry": {"type": "Polygon", "coordinates": [[[-84.582488, 34.387762], [-84.259348, 34.382285], [-84.259348, 34.332993], [-84.259348, 34.185115], [-84.407226, 34.108438], [-84.418179, 34.075577], [-84.615349, 34.081054], [-84.659165, 34.075577], [-84.653688, 34.415147], [-84.582488, 34.387762]]]}}, {"type": "Feature", "properties": {"name": "Tipton", "id": "47167", "FIPS": "47167", "FIPS State": 47, "ST": "TN", "County": "Tipton County,TN", "State": "Tennessee"}, "geometry": {"type": "Polygon", "coordinates": [[[-89.643181, 35.647459], [-89.50078, 35.581735], [-89.473395, 35.400996], [-89.550073, 35.400996], [-89.632227, 35.373611], [-89.774627, 35.406473], [-90.075859, 35.384565], [-90.141582, 35.439335], [-89.911551, 35.53792], [-89.643181, 35.647459]]]}}, {"type": "Feature", "properties": {"name": "Sumner", "id": "47165", "FIPS": "47165", "FIPS State": 47, "ST": "TN", "County": "Sumner County,TN", "State": "Tennessee"}, "geometry": {"type": "Polygon", "coordinates": [[[-86.411786, 36.649739], [-86.203662, 36.638785], [-86.231047, 36.48543], [-86.285816, 36.348507], [-86.36797, 36.353984], [-86.592525, 36.244445], [-86.756833, 36.403276], [-86.56514, 36.633308], [-86.411786, 36.649739]]]}}, {"type": "Feature", "properties": {"name": "Fairbanks North Star", "id": "02090", "FIPS": "02090", "FIPS State": 2, "ST": "AK", "County": "Fairbanks North Star County,AK", "State": "Alaska"}, "geometry": {"type": "Polygon", "coordinates": [[[-146.696468, 65.321521], [-146.19259, 65.452968], [-145.644896, 65.031244], [-143.886798, 65.09149], [-144.06206, 64.680719], [-146.236405, 64.308287], [-147.003177, 64.258995], [-147.99998, 64.341149], [-148.646259, 64.604042], [-148.66269, 65.211983], [-146.696468, 65.321521]]]}}, {"type": "Feature", "properties": {"name": "Anchorage", "id": "02020", "FIPS": "02020", "FIPS State": 2, "ST": "AK", "County": "Anchorage County,AK", "State": "Alaska"}, "geometry": {"type": "Polygon", "coordinates": [[[-149.259676, 61.482186], [-148.460043, 61.427417], [-148.470997, 60.852338], [-148.744844, 60.731845], [-149.730693, 60.994739], [-149.73617, 60.994739], [-149.988109, 61.230247], [-149.259676, 61.482186]]]}}, {"type": "Feature", "properties": {"name": "Houston", "id": "13153", "FIPS": "13153", "FIPS State": 13, "ST": "GA", "County": "Houston County,GA", "State": "Georgia"}, "geometry": {"type": "Polygon", "coordinates": [[[-83.7007, 32.689911], [-83.7007, 32.689911], [-83.596638, 32.662526], [-83.498053, 32.454402], [-83.498053, 32.399633], [-83.613069, 32.290094], [-83.848578, 32.290094], [-83.848578, 32.465356], [-83.7007, 32.689911]]]}}, {"type": "Feature", "properties": {"name": "Lowndes", "id": "13185", "FIPS": "13185", "FIPS State": 13, "ST": "GA", "County": "Lowndes County,GA", "State": "Georgia"}, "geometry": {"type": "Polygon", "coordinates": [[[-83.383038, 31.030398], [-83.295407, 31.024921], [-83.196822, 31.024921], [-83.02156, 30.849659], [-83.136575, 30.625104], [-83.311837, 30.636058], [-83.355653, 30.636058], [-83.476146, 31.030398], [-83.383038, 31.030398]]]}}]}