{"type": "FeatureCollection", "crs": {"type": "name", "properties": {"name": "urn:ogc:def:crs:OGC:1.3:CRS84"}}, "features": [{"type": "Feature", "properties": {"name": "Polk", "id": "19153", "FIPS": "19153", "FIPS State": 19, "ST": "IA", "County": "Polk County,IA", "State": "Iowa"}, "geometry": {"type": "Polygon", "coordinates": [[[-93.772794, 41.863786], [-93.696116, 41.863786], [-93.345592, 41.863786], [-93.329161, 41.507785], [-93.329161, 41.491354], [-93.70707, 41.513262], [-93.789224, 41.513262], [-93.816609, 41.863786], [-93.772794, 41.863786]]]}}, {"type": "Feature", "properties": {"name": "Aiken", "id": "45003", "FIPS": "45003", "FIPS State": 45, "ST": "SC", "County": "Aiken County,SC", "State": "South Carolina"}, "geometry": {"type": "Polygon", "coordinates": [[[-81.57017, 33.878407], [-81.186785, 33.653852], [-81.373001, 33.489544], [-81.756386, 33.199266], [-81.849494, 33.248559], [-82.013803, 33.53336], [-81.652325, 33.812683], [-81.57017, 33.878407]]]}}, {"type": "Feature", "properties": {"name": "Harford", "id": "24025", "FIPS": "24025", "FIPS State": 24, "ST": "MD", "County": "Harford County,MD", "State": "Maryland"}, "geometry": {"type": "Polygon", "coordinates": [[[-76.241107, 39.722302], [-76.235631, 39.722302], [-76.076799, 39.541563], [-76.328738, 39.355347], [-76.569724, 39.722302], [-76.241107, 39.722302]]]}}, {"type": "Feature", "properties": {"name": "York", "id": "42133", "FIPS": "42133", "FIPS State": 42, "ST": "PA", "County": "York County,PA", "State": "Pennsylvania"}, "geometry": {"type": "Polygon", "coordinates": [[[-76.903817, 40.220704], [-76.860002, 40.226181], [-76.723078, 40.122119], [-76.241107, 39.722302], [-76.569724, 39.722302], [-76.70117, 39.722302], [-76.788801, 39.722302], [-76.996925, 39.722302], [-77.139326, 40.067349], [-76.903817, 40.220704]]]}}, {"type": "Feature", "properties": {"name": "Wyoming", "id": "42131", "FIPS": "42131", "FIPS State": 42, "ST": "PA", "County": "Wyoming County,PA", "State": "Pennsylvania"}, "geometry": {"type": "Polygon", "coordinates": [[[-76.2192, 41.540646], [-76.115138, 41.650185], [-75.720798, 41.644708], [-75.835814, 41.425631], [-75.835814, 41.425631], [-76.284923, 41.376338], [-76.2192, 41.540646]]]}}, {"type": "Feature", "properties": {"name": "Westmoreland", "id": "42129", "FIPS": "42129", "FIPS State": 42, "ST": "PA", "County": "Westmoreland County,PA", "State": "Pennsylvania"}, "geometry": {"type": "Polygon", "coordinates": [[[-79.538226, 40.54932], [-79.450595, 40.527412], [-78.974101, 40.395966], [-79.056255, 40.286427], [-79.291763, 40.039965], [-79.499887, 40.13855], [-79.877796, 40.127596], [-79.872319, 40.198796], [-79.69158, 40.669813], [-79.538226, 40.54932]]]}}, {"type": "Feature", "properties": {"name": "Barnstable", "id": "25001", "FIPS": "25001", "FIPS State": 25, "ST": "MA", "County": "Barnstable County,MA", "State": "Massachusetts"}, "geometry": {"type": "Polygon", "coordinates": [[[-70.671059, 41.513262], [-70.692967, 41.524216], [-70.643674, 41.715908], [-70.539613, 41.809016], [-69.926195, 41.694001], [-70.671059, 41.513262]]]}}, {"type": "Feature", "properties": {"name": "Tioga", "id": "42117", "FIPS": "42117", "FIPS State": 42, "ST": "PA", "County": "Tioga County,PA", "State": "Pennsylvania"}, "geometry": {"type": "Polygon", "coordinates": [[[-76.925725, 42.000709], [-76.876433, 41.595416], [-77.599389, 41.540646], [-77.610343, 42.000709], [-76.964064, 42.000709], [-76.925725, 42.000709]]]}}, {"type": "Feature", "properties": {"name": "Somerset", "id": "42111", "FIPS": "42111", "FIPS State": 42, "ST": "PA", "County": "Somerset County,PA", "State": "Pennsylvania"}, "geometry": {"type": "Polygon", "coordinates": [[[-79.001485, 40.286427], [-78.656438, 40.242611], [-78.809792, 39.722302], [-78.930285, 39.722302], [-79.390348, 39.722302], [-79.291763, 40.039965], [-79.056255, 40.286427], [-79.001485, 40.286427]]]}}, {"type": "Feature", "properties": {"name": "Northumberland", "id": "42097", "FIPS": "42097", "FIPS State": 42, "ST": "PA", "County": "Northumberland County,PA", "State": "Pennsylvania"}, "geometry": {"type": "Polygon", "coordinates": [[[-76.799755, 41.173691], [-76.734032, 41.173691], [-76.525908, 40.883413], [-76.378031, 40.773875], [-76.70117, 40.658859], [-76.947633, 40.625997], [-76.936679, 40.636951], [-76.799755, 40.883413], [-76.89834, 41.14083], [-76.799755, 41.173691]]]}}, {"type": "Feature", "properties": {"name": "Mercer", "id": "42085", "FIPS": "42085", "FIPS State": 42, "ST": "PA", "County": "Mercer County,PA", "State": "Pennsylvania"}, "geometry": {"type": "Polygon", "coordinates": [[[-80.003765, 41.491354], [-79.998289, 41.491354], [-79.998289, 41.173691], [-80.096873, 41.069629], [-80.518598, 41.124399], [-80.518598, 41.135353], [-80.518598, 41.491354], [-80.003765, 41.491354]]]}}, {"type": "Feature", "properties": {"name": "Lycoming", "id": "42081", "FIPS": "42081", "FIPS State": 42, "ST": "PA", "County": "Lycoming County,PA", "State": "Pennsylvania"}, "geometry": {"type": "Polygon", "coordinates": [[[-76.876433, 41.595416], [-76.816186, 41.589939], [-76.449231, 41.277753], [-76.640924, 41.157261], [-76.734032, 41.173691], [-76.799755, 41.173691], [-76.89834, 41.14083], [-77.144803, 41.069629], [-77.599389, 41.4804], [-77.599389, 41.540646], [-76.876433, 41.595416]]]}}, {"type": "Feature", "properties": {"name": "Lebanon", "id": "42075", "FIPS": "42075", "FIPS State": 42, "ST": "PA", "County": "Lebanon County,PA", "State": "Pennsylvania"}, "geometry": {"type": "Polygon", "coordinates": [[[-76.536862, 40.554797], [-76.438277, 40.494551], [-76.153476, 40.313812], [-76.306831, 40.253565], [-76.564247, 40.198796], [-76.536862, 40.554797]]]}}, {"type": "Feature", "properties": {"name": "Lawrence", "id": "42073", "FIPS": "42073", "FIPS State": 42, "ST": "PA", "County": "Lawrence County,PA", "State": "Pennsylvania"}, "geometry": {"type": "Polygon", "coordinates": [[[-80.518598, 41.124399], [-80.096873, 41.069629], [-80.15712, 40.856029], [-80.255705, 40.856029], [-80.518598, 40.850552], [-80.518598, 40.899844], [-80.518598, 41.124399]]]}}, {"type": "Feature", "properties": {"name": "Dauphin", "id": "42043", "FIPS": "42043", "FIPS State": 42, "ST": "PA", "County": "Dauphin County,PA", "State": "Pennsylvania"}, "geometry": {"type": "Polygon", "coordinates": [[[-76.536862, 40.554797], [-76.564247, 40.198796], [-76.723078, 40.122119], [-76.860002, 40.226181], [-76.914771, 40.330243], [-76.95311, 40.60409], [-76.947633, 40.625997], [-76.70117, 40.658859], [-76.536862, 40.554797]]]}}, {"type": "Feature", "properties": {"name": "Chippewa", "id": "26033", "FIPS": "26033", "FIPS State": 26, "ST": "MI", "County": "Chippewa County,MI", "State": "Michigan"}, "geometry": {"type": "Polygon", "coordinates": [[[-84.116948, 45.976968], [-85.23972, 46.245338], [-85.23972, 46.754694], [-85.015166, 46.480847], [-84.127902, 46.530139], [-84.116948, 45.976968]]]}}, {"type": "Feature", "properties": {"name": "Genesee", "id": "26049", "FIPS": "26049", "FIPS State": 26, "ST": "MI", "County": "Genesee County,MI", "State": "Michigan"}, "geometry": {"type": "Polygon", "coordinates": [[[-83.465192, 43.222067], [-83.459715, 43.222067], [-83.454238, 42.882497], [-83.684269, 42.783912], [-83.925255, 42.778435], [-83.930732, 43.134436], [-83.695223, 43.222067], [-83.465192, 43.222067]]]}}, {"type": "Feature", "properties": {"name": "Gladwin", "id": "26051", "FIPS": "26051", "FIPS State": 26, "ST": "MI", "County": "Gladwin County,MI", "State": "Michigan"}, "geometry": {"type": "Polygon", "coordinates": [[[-84.248394, 44.164101], [-84.16624, 44.164101], [-84.16624, 43.994316], [-84.16624, 43.82453], [-84.368887, 43.830007], [-84.604395, 43.813577], [-84.609872, 44.158624], [-84.368887, 44.158624], [-84.248394, 44.164101]]]}}, {"type": "Feature", "properties": {"name": "Kent", "id": "26081", "FIPS": "26081", "FIPS State": 26, "ST": "MI", "County": "Kent County,MI", "State": "Michigan"}, "geometry": {"type": "Polygon", "coordinates": [[[-85.524521, 43.293267], [-85.310921, 43.118005], [-85.310921, 42.767481], [-85.546429, 42.767481], [-85.781938, 42.767481], [-85.792891, 43.205636], [-85.792891, 43.293267], [-85.56286, 43.293267], [-85.524521, 43.293267]]]}}, {"type": "Feature", "properties": {"name": "Cumberland", "id": "42041", "FIPS": "42041", "FIPS State": 42, "ST": "PA", "County": "Cumberland County,PA", "State": "Pennsylvania"}, "geometry": {"type": "Polygon", "coordinates": [[[-77.122895, 40.297381], [-76.914771, 40.330243], [-76.860002, 40.226181], [-76.903817, 40.220704], [-77.139326, 40.067349], [-77.473419, 39.946857], [-77.615819, 40.198796], [-77.122895, 40.297381]]]}}, {"type": "Feature", "properties": {"name": "Crawford", "id": "42039", "FIPS": "42039", "FIPS State": 42, "ST": "PA", "County": "Crawford County,PA", "State": "Pennsylvania"}, "geometry": {"type": "Polygon", "coordinates": [[[-79.708011, 41.852832], [-79.609426, 41.847355], [-79.614903, 41.6228], [-79.998289, 41.491354], [-80.003765, 41.491354], [-80.518598, 41.491354], [-80.518598, 41.502308], [-80.518598, 41.847355], [-79.708011, 41.852832]]]}}, {"type": "Feature", "properties": {"name": "Centre", "id": "42027", "FIPS": "42027", "FIPS State": 42, "ST": "PA", "County": "Centre County,PA", "State": "Pennsylvania"}, "geometry": {"type": "Polygon", "coordinates": [[[-77.708927, 41.113445], [-77.144803, 41.042245], [-77.36388, 40.845075], [-77.681543, 40.730059], [-78.114221, 40.741013], [-78.360683, 40.735536], [-78.037544, 41.151784], [-77.708927, 41.113445]]]}}, {"type": "Feature", "properties": {"name": "Ottawa", "id": "26139", "FIPS": "26139", "FIPS State": 26, "ST": "MI", "County": "Ottawa County,MI", "State": "Michigan"}, "geometry": {"type": "Polygon", "coordinates": [[[-85.792891, 43.205636], [-85.781938, 42.767481], [-86.044831, 42.767481], [-86.209139, 42.767481], [-86.269385, 43.118005], [-85.792891, 43.205636]]]}}, {"type": "Feature", "properties": {"name": "Beaver", "id": "42007", "FIPS": "42007", "FIPS State": 42, "ST": "PA", "County": "Beaver County,PA", "State": "Pennsylvania"}, "geometry": {"type": "Polygon", "coordinates": [[[-80.255705, 40.856029], [-80.15712, 40.856029], [-80.146166, 40.67529], [-80.359767, 40.47812], [-80.398105, 40.47812], [-80.518598, 40.47812], [-80.518598, 40.636951], [-80.518598, 40.850552], [-80.255705, 40.856029]]]}}, {"type": "Feature", "properties": {"name": "Brown", "id": "27015", "FIPS": "27015", "FIPS State": 27, "ST": "MN", "County": "Brown County,MN", "State": "Minnesota"}, "geometry": {"type": "Polygon", "coordinates": [[[-94.851751, 44.498194], [-94.780551, 44.454379], [-94.36978, 44.262686], [-94.36978, 44.109331], [-94.490273, 44.109331], [-94.857228, 44.109331], [-95.109167, 44.196962], [-94.868182, 44.498194], [-94.851751, 44.498194]]]}}, {"type": "Feature", "properties": {"name": "Cottonwood", "id": "27033", "FIPS": "27033", "FIPS State": 27, "ST": "MN", "County": "Cottonwood County,MN", "State": "Minnesota"}, "geometry": {"type": "Polygon", "coordinates": [[[-95.459691, 44.196962], [-95.109167, 44.196962], [-94.857228, 44.109331], [-94.857228, 43.846438], [-95.114644, 43.846438], [-95.454214, 43.846438], [-95.465168, 43.846438], [-95.459691, 44.196962]]]}}, {"type": "Feature", "properties": {"name": "Cecil", "id": "24015", "FIPS": "24015", "FIPS State": 24, "ST": "MD", "County": "Cecil County,MD", "State": "Maryland"}, "geometry": {"type": "Polygon", "coordinates": [[[-75.808429, 39.722302], [-75.786521, 39.722302], [-75.764614, 39.377255], [-76.000122, 39.377255], [-76.076799, 39.541563], [-76.235631, 39.722302], [-76.137046, 39.722302], [-75.808429, 39.722302]]]}}, {"type": "Feature", "properties": {"name": "Carroll", "id": "24013", "FIPS": "24013", "FIPS State": 24, "ST": "MD", "County": "Carroll County,MD", "State": "Maryland"}, "geometry": {"type": "Polygon", "coordinates": [[[-76.788801, 39.722302], [-76.881909, 39.34987], [-77.079079, 39.366301], [-77.16671, 39.355347], [-77.216003, 39.722302], [-76.996925, 39.722302], [-76.788801, 39.722302]]]}}]}